,Timestamp (seconds),Speed (km/h),Latitude coordinate (degrees),Longitude coordinate (degrees),Altitude (meters),Vertical accuracy (degrees),Horizontal accuracy (degrees),Course (degrees),Difcourse: course variation (degrees),Boolean of system activated (1 if >50km/h),Acceleration in X (Gs),Acceleration in Y (Gs),Acceleration in Z (Gs),Acceleration in X filtered by KF (Gs),Acceleration in Y filtered by KF (Gs),Acceleration in Z filtered by KF (Gs),Roll (degrees),Pitch (degrees),Yaw (degrees),X: car position relative to lane center (meters),Phi: car angle relative to lane curvature (degrees),W: road width (meters),"State of the lane det. algorithm [-1=calibrating, 0=initializing, 1=undetected, 2=detected/running]",Distance to ahead vehicle in current lane (meters) [value -1 means no car is detected in front],Time of impact to ahead vehicle (seconds) [distance related to own speed],Number of detected vehicles in this frame (traffic),GPS speed (km/h) [same as in RAW GPS],Maximum allowed speed of current road (km/h),"Reliability of obtained maxspeed (0=unknown, 1=reliable, 2=used previously obtained maxspeed,3=estimated by type of road)","Type of road (motorway, trunk, secondary...)",Number of lanes in current road,"Estimated current lane (1=right lane, 2=first left lane, 3=second left lane, etc) [experimental]",GPS Latitude used to query OSM (degrees),GPS Longitude used to query OSM (degrees),OSM delay to answer query (seconds),GPS speed (km/h) [same as in RAW GPS]],Ratio normal (base 1),Ratio drowsy (base 1),Ratio aggressive (base 1)
0,8.83,64.5,40.512924,-3.4045769999999997,612.5,4,5,331.9,0.0,1,-0.032,-0.0,0.022000000000000002,-0.03,-0.015,0.008,-1.535,0.028999999999999998,0.023,0.0,-0.0,3.5,-1,18.13,1.01,3,64.5,60.0,1,tertiary,2,1,40.513615,-3.4050800000000003,0.8690000000000001,61.7,1.0,0.0,0.0
1,9.82,63.6,40.513065000000005,-3.4046800000000004,612.9,4,5,330.8,1.055,1,0.028999999999999998,-0.005,0.0,0.026000000000000002,-0.012,-0.006,-1.5230000000000001,0.022000000000000002,0.025,0.0,-0.0,3.5,-1,13.35,0.76,3,63.6,60.0,1,tertiary,2,1,40.513615,-3.4050800000000003,0.8690000000000001,61.7,1.0,0.0,0.0
2,10.8,62.2,40.51321,-3.404772,613.3,4,5,330.8,1.055,1,-0.033,-0.013000000000000001,0.05,-0.021,-0.018000000000000002,0.036000000000000004,-1.518,0.035,0.037000000000000005,0.321,0.045,2.998,2,13.5,0.78,2,62.2,60.0,1,tertiary,2,1,40.513615,-3.4050800000000003,0.8690000000000001,61.7,1.0,0.0,0.0
3,11.8,60.9,40.513348,-3.404868,613.5,3,5,330.1,0.703,1,0.055999999999999994,0.017,0.071,0.025,0.006,0.065,-1.5330000000000001,0.018000000000000002,0.048,0.251,0.013999999999999999,3.0010000000000003,2,15.12,0.89,1,60.9,60.0,1,tertiary,2,1,40.513615,-3.4050800000000003,0.8690000000000001,61.7,1.0,0.0,0.0
4,12.82,61.2,40.513477,-3.4049709999999997,613.8,3,5,329.4,1.406,1,0.026000000000000002,-0.057999999999999996,0.040999999999999995,0.013999999999999999,-0.031,0.042,-1.56,0.022000000000000002,0.06,0.081,0.053,3.076,2,15.55,0.91,1,61.2,60.0,1,tertiary,2,1,40.513615,-3.4050800000000003,0.8690000000000001,61.7,1.0,0.0,0.0
5,13.81,61.7,40.513615,-3.4050800000000003,614.0,3,5,328.7,1.406,1,0.002,-0.012,0.013999999999999999,0.012,-0.031,0.018000000000000002,-1.5759999999999998,0.039,0.087,-0.264,0.077,3.0260000000000002,2,15.48,0.9,1,61.7,60.0,1,tertiary,2,1,40.513615,-3.4050800000000003,0.8690000000000001,61.7,1.0,0.0,0.0
6,14.84,64.3,40.513740999999996,-3.405192,614.3,3,5,327.0,2.461,1,-0.01,-0.009000000000000001,0.02,0.019,0.02,0.025,-1.567,0.059000000000000004,0.10099999999999999,-0.778,-0.013999999999999999,3.147,2,17.98,1.01,1,64.3,60.0,1,tertiary,2,1,40.513615,-3.4050800000000003,0.8690000000000001,61.7,0.963,0.004,0.033
7,15.82,66.8,40.513882,-3.4053150000000003,614.6,3,5,325.5,3.1639999999999997,1,-0.01,-0.023,0.013000000000000001,-0.013999999999999999,-0.015,0.017,-1.589,0.028999999999999998,0.10300000000000001,-1.131,-0.019,3.2089999999999996,2,-1.0,-1.0,1,66.8,60.0,1,tertiary,2,1,40.513615,-3.4050800000000003,0.8690000000000001,61.7,0.89,0.01,0.1
8,16.83,68.9,40.514019,-3.405443,614.6,3,5,325.9,1.055,1,-0.0,0.013999999999999999,0.004,-0.002,0.03,0.006999999999999999,-1.5919999999999999,0.02,0.099,0.0,-0.0,3.47,0,21.12,1.1,1,68.9,60.0,1,tertiary,2,2,40.513740999999996,-3.405192,2.306,68.9,0.6970000000000001,0.013999999999999999,0.289
9,17.81,71.4,40.514164,-3.405575,614.6,3,5,325.5,0.35200000000000004,1,0.028999999999999998,0.033,-0.002,0.027999999999999997,0.046,0.002,-1.595,0.005,0.08800000000000001,0.757,0.183,2.99,2,-1.0,-1.0,1,71.4,60.0,1,tertiary,2,2,40.513740999999996,-3.405192,2.306,68.9,0.685,0.015,0.3
10,18.8,73.5,40.514317,-3.4057160000000004,614.6,4,5,325.9,0.35200000000000004,1,-0.012,0.018000000000000002,-0.054000000000000006,-0.019,0.015,-0.047,-1.574,-0.004,0.075,0.564,0.071,3.238,2,-1.0,-1.0,1,73.5,60.0,1,tertiary,2,2,40.514164,-3.4055760000000004,0.951,71.4,0.639,0.021,0.34
11,19.82,73.5,40.514465,-3.4058559999999996,614.3,4,5,325.9,0.35200000000000004,1,-0.053,0.013999999999999999,-0.008,-0.013999999999999999,0.021,-0.017,-1.564,0.001,0.062,0.324,0.086,3.303,2,29.45,1.44,1,73.5,60.0,1,tertiary,2,2,40.514317,-3.4057160000000004,1.18,73.5,0.505,0.129,0.36700000000000005
12,20.8,73.8,40.514614,-3.405996,614.3,4,5,326.2,0.35200000000000004,1,-0.065,0.002,-0.003,-0.075,-0.012,0.0,-1.587,-0.027999999999999997,0.054000000000000006,0.312,0.071,3.1519999999999997,2,31.1,1.52,1,73.8,60.0,1,tertiary,2,2,40.514317,-3.4057160000000004,1.18,73.5,0.495,0.11900000000000001,0.386
13,21.83,75.7,40.514771,-3.406132,613.9,4,5,327.0,1.055,1,0.002,-0.043,0.001,-0.0,-0.032,0.001,-1.5930000000000002,-0.031,0.057999999999999996,0.223,0.022000000000000002,3.153,2,30.95,1.47,1,75.7,60.0,1,tertiary,2,2,40.514614,-3.405996,0.935,73.8,0.49,0.11,0.4
14,22.88,78.0,40.515102,-3.406422,614.5,4,5,324.5,0.35200000000000004,1,-0.005,-0.081,0.006,-0.012,-0.063,-0.006,-1.588,-0.003,0.098,-0.162,-0.066,3.352,2,33.71,1.58,1,76.8,60.0,1,tertiary,2,2,40.514771,-3.406132,0.9420000000000001,75.7,0.485,0.10400000000000001,0.41100000000000003
15,23.89,78.3,40.515263,-3.4065830000000004,615.2,4,5,322.0,2.461,1,0.032,-0.025,0.002,0.028999999999999998,-0.008,-0.004,-1.588,0.017,0.14400000000000002,-0.262,0.027000000000000003,3.2460000000000004,2,37.3,1.72,1,78.0,100.0,1,primary_link,1,2,40.514942,-3.406273,1.784,78.3,0.449,0.098,0.45299999999999996
16,24.89,79.2,40.515411,-3.406743,615.5,4,5,320.6,4.57,1,0.003,0.083,-0.001,-0.0,0.102,0.002,-1.5919999999999999,0.005,0.153,0.0,0.139,3.097,2,31.14,1.43,1,78.3,100.0,1,primary_link,1,2,40.514942,-3.406273,1.784,78.3,0.42,0.092,0.488
17,25.82,79.2,40.515411,-3.406743,615.5,4,5,320.6,3.867,1,-0.044000000000000004,0.09,0.001,-0.045,0.087,0.006,-1.5959999999999999,-0.04,0.127,0.44,0.17600000000000002,3.025,2,30.92,1.41,1,79.2,100.0,1,primary_link,1,2,40.514942,-3.406273,1.784,78.3,0.449,0.09,0.461
18,26.82,80.1,40.515564000000005,-3.406911,615.8,4,5,322.0,1.406,1,0.078,0.031,0.013000000000000001,0.017,0.053,0.009000000000000001,-1.598,-0.077,0.067,0.474,0.08,2.735,2,28.54,1.28,1,80.1,100.0,1,primary_link,1,2,40.514942,-3.406273,1.784,78.3,0.45399999999999996,0.105,0.441
19,27.82,80.5,40.515736,-3.407051,616.4,4,5,325.2,4.57,1,-0.018000000000000002,-0.01,0.047,-0.016,-0.016,0.034,-1.6030000000000002,-0.067,0.039,0.141,-0.013000000000000001,2.76,2,30.42,1.36,1,80.5,100.0,1,primary_link,1,2,40.514942,-3.406273,1.784,78.3,0.47200000000000003,0.106,0.42100000000000004
20,28.81,82.0,40.515903,-3.4072,617.1,4,5,326.2,4.218999999999999,1,-0.048,-0.036000000000000004,0.039,-0.023,-0.024,0.034,-1.629,-0.059000000000000004,0.03,-0.162,0.03,2.685,2,-1.0,-1.0,1,82.0,100.0,1,primary_link,1,2,40.515263,-3.4065830000000004,7.066,92.7,0.494,0.102,0.40399999999999997
21,29.84,84.4,40.516090000000005,-3.40734,617.5,6,5,327.0,1.758,1,-0.076,-0.059000000000000004,0.033,-0.057999999999999996,-0.062,0.02,-1.656,-0.022000000000000002,0.038,-0.33299999999999996,0.023,2.637,2,-1.0,-1.0,1,84.4,100.0,1,primary_link,1,2,40.515263,-3.4065830000000004,7.066,92.7,0.513,0.09699999999999999,0.389
22,30.83,86.1,40.516262,-3.4074910000000003,618.5,6,5,326.2,0.703,1,0.004,0.025,-0.004,0.005,0.013000000000000001,-0.013999999999999999,-1.656,0.008,0.067,-0.809,-0.004,2.641,2,61.41,2.57,2,86.1,100.0,1,primary_link,1,2,40.515263,-3.4065830000000004,7.066,92.7,0.514,0.109,0.376
23,31.82,92.7,40.516453000000006,-3.407653,619.0,6,5,327.7,1.406,1,-0.040999999999999995,0.006999999999999999,-0.005,-0.033,0.013000000000000001,-0.01,-1.6480000000000001,-0.009000000000000001,0.077,0.0,-0.0,3.367,0,59.81,2.32,2,92.7,100.0,1,primary_link,1,2,40.515263,-3.4065830000000004,7.066,92.7,0.521,0.115,0.365
24,32.81,94.6,40.516651,-3.407831,620.0,6,5,324.8,2.812,1,0.008,0.028999999999999998,-0.025,0.006,0.022000000000000002,-0.012,-1.642,-0.032,0.077,0.6459999999999999,0.064,2.799,2,28.2,1.07,2,94.6,100.0,1,primary,2,2,40.516651,-3.407831,0.597,94.6,0.526,0.12,0.354
25,33.9,99.2,40.51704,-3.4081879999999996,620.8,6,5,325.2,3.1639999999999997,1,0.019,0.012,-0.07200000000000001,0.009000000000000001,0.006,-0.079,-1.5930000000000002,-0.043,0.076,0.28300000000000003,-0.036000000000000004,2.89,2,28.21,1.04,2,97.4,100.0,1,primary,2,2,40.516651,-3.407831,0.597,94.6,0.529,0.126,0.345
26,34.85,99.2,40.51704,-3.4081879999999996,620.8,6,5,325.2,0.703,1,0.012,-0.009000000000000001,0.01,-0.001,-0.013999999999999999,0.013000000000000001,-1.5819999999999999,-0.04,0.076,-0.01,0.006,2.8760000000000003,2,26.84,0.97,2,99.2,100.0,1,primary,2,2,40.516838,-3.408005,0.9440000000000001,99.2,0.542,0.121,0.336
27,35.83,98.7,40.517246,-3.408372,621.5,6,5,325.5,1.055,1,-0.011000000000000001,-0.043,0.008,0.012,-0.023,0.013000000000000001,-1.59,0.001,0.096,-0.304,-0.012,2.906,2,24.05,0.88,2,98.7,100.0,1,primary,2,2,40.51704,-3.4081879999999996,1.148,98.7,0.5539999999999999,0.11699999999999999,0.32899999999999996
28,36.82,99.8,40.517445,-3.408561,621.7,6,5,324.5,1.055,1,-0.063,0.006999999999999999,0.001,-0.017,-0.006,0.004,-1.594,0.015,0.11900000000000001,-0.8,-0.105,3.002,2,-1.0,-1.0,2,99.8,100.0,1,primary,2,2,40.51704,-3.4081879999999996,1.148,98.7,0.555,0.12300000000000001,0.322
29,37.85,101.1,40.517643,-3.408758,622.4,6,5,323.4,2.109,1,0.024,0.028999999999999998,-0.001,0.035,0.037000000000000005,0.001,-1.601,-0.025,0.11900000000000001,-0.15,-0.055,2.865,2,17.16,0.61,1,101.1,100.0,1,primary,2,2,40.51704,-3.4081879999999996,1.148,98.7,0.555,0.128,0.317
30,38.9,104.7,40.518063,-3.4091690000000003,623.1,6,5,323.8,2.109,1,-0.027999999999999997,0.046,-0.008,-0.025,0.038,-0.006,-1.601,-0.028999999999999998,0.113,0.0,-0.0,3.3089999999999997,0,-1.0,-1.0,1,103.4,100.0,1,primary,2,2,40.51704,-3.4081879999999996,1.148,98.7,0.56,0.128,0.312
31,39.81,104.7,40.518063,-3.4091690000000003,623.1,6,5,323.8,1.406,1,0.033,0.032,0.021,0.01,0.015,0.013999999999999999,-1.6030000000000002,-0.025,0.106,0.313,0.046,2.7560000000000002,2,-1.0,-1.0,1,104.7,100.0,1,primary,2,2,40.517445,-3.408561,5.52,107.1,0.5660000000000001,0.126,0.308
32,40.8,106.3,40.518271999999996,-3.4093839999999997,623.6,6,5,324.1,1.758,1,-0.024,-0.076,-0.003,-0.039,-0.071,-0.001,-1.599,-0.009000000000000001,0.102,0.253,0.039,2.81,2,-1.0,-1.0,1,106.3,100.0,1,primary,2,2,40.517445,-3.408561,5.52,107.1,0.574,0.122,0.304
33,41.81,107.1,40.51849,-3.409592,623.9,6,5,324.5,0.703,1,0.027999999999999997,0.018000000000000002,-0.004,0.018000000000000002,0.008,-0.005,-1.597,0.015,0.106,0.071,0.051,2.823,2,-1.0,-1.0,1,107.1,100.0,1,primary,2,2,40.517445,-3.408561,5.52,107.1,0.5820000000000001,0.11900000000000001,0.3
34,42.81,108.7,40.518681,-3.409816,624.6,6,5,324.1,0.35200000000000004,1,0.057,0.023,0.009000000000000001,0.032,0.019,0.003,-1.594,0.001,0.099,-0.02,0.066,2.7110000000000003,2,-1.0,-1.0,0,108.7,100.0,1,primary,2,2,40.517445,-3.408561,5.52,107.1,0.589,0.115,0.29600000000000004
35,43.8,109.3,40.518906,-3.4100230000000002,625.0,6,5,324.1,0.35200000000000004,1,-0.059000000000000004,-0.002,0.011000000000000001,-0.023,0.006,0.003,-1.584,-0.012,0.091,-0.03,0.081,2.821,2,-1.0,-1.0,0,109.3,100.0,1,primary,3,3,40.518681,-3.409816,1.5759999999999998,109.3,0.595,0.11199999999999999,0.293
36,44.8,109.9,40.519127000000005,-3.4102349999999997,625.3,6,5,324.5,0.35200000000000004,1,0.043,-0.002,-0.001,0.0,-0.015,-0.009000000000000001,-1.577,-0.006999999999999999,0.086,0.0,0.077,2.883,2,-1.0,-1.0,0,109.9,100.0,1,primary,3,3,40.518681,-3.409816,1.5759999999999998,109.3,0.6,0.109,0.29
37,45.8,110.5,40.519344,-3.410446,626.1,6,5,324.8,0.703,1,0.005,0.004,-0.015,-0.011000000000000001,-0.01,-0.008,-1.5730000000000002,-0.008,0.086,0.122,0.081,2.886,2,-1.0,-1.0,0,110.5,100.0,1,primary,3,3,40.518681,-3.409816,1.5759999999999998,109.3,0.602,0.107,0.292
38,46.81,114.8,40.519577000000005,-3.41066,626.0,6,5,325.2,0.703,1,0.025,0.026000000000000002,-0.006999999999999999,-0.006999999999999999,-0.013000000000000001,-0.001,-1.5659999999999998,-0.003,0.08900000000000001,0.192,0.075,2.906,2,-1.0,-1.0,1,114.8,100.0,1,primary,3,3,40.519127000000005,-3.4102349999999997,2.947,114.8,0.603,0.10400000000000001,0.293
39,47.8,111.2,40.519798,-3.4108739999999997,626.5,6,5,324.5,0.703,1,-0.016,0.025,-0.001,-0.038,0.01,-0.004,-1.5590000000000002,-0.005,0.09,0.131,0.077,2.872,2,-1.0,-1.0,1,111.2,100.0,1,primary,3,3,40.519127000000005,-3.4102349999999997,2.947,114.8,0.604,0.102,0.294
40,48.83,110.9,40.52002,-3.411085,627.1,6,5,324.5,0.703,1,-0.044000000000000004,0.006,0.004,-0.02,0.023,0.002,-1.56,-0.04,0.07400000000000001,0.275,0.083,2.984,2,-1.0,-1.0,0,110.9,100.0,1,primary,3,3,40.519798,-3.4108739999999997,1.976,110.9,0.606,0.099,0.295
41,49.8,112.3,40.520237,-3.411296,627.3,6,5,325.2,0.703,1,0.01,-0.011000000000000001,0.004,0.034,-0.015,0.011000000000000001,-1.564,-0.044000000000000004,0.06,0.722,0.128,2.858,2,-1.0,-1.0,0,112.3,100.0,1,primary,3,3,40.519798,-3.4108739999999997,1.976,110.9,0.601,0.10300000000000001,0.29600000000000004
42,50.85,110.9,40.520458000000005,-3.4115029999999997,627.5,6,5,325.9,1.406,1,0.011000000000000001,-0.028999999999999998,0.005,0.068,-0.03,-0.004,-1.57,-0.018000000000000002,0.057999999999999996,0.0,-0.0,3.199,0,-1.0,-1.0,0,110.9,100.0,1,primary,3,3,40.519798,-3.4108739999999997,1.976,110.9,0.594,0.109,0.297
43,51.81,111.1,40.520683,-3.4117029999999997,627.7,6,5,326.2,1.055,1,-0.057,-0.065,-0.045,-0.011000000000000001,-0.063,-0.047,-1.5530000000000002,0.006,0.067,0.0,-0.0,3.194,0,-1.0,-1.0,0,111.1,100.0,1,primary,3,3,40.519798,-3.4108739999999997,1.976,110.9,0.596,0.106,0.298
44,52.8,110.4,40.520901,-3.4119050000000004,628.2,6,5,326.2,0.35200000000000004,1,0.039,-0.018000000000000002,0.001,-0.013000000000000001,-0.021,-0.008,-1.541,0.032,0.08199999999999999,-0.22399999999999998,0.035,2.952,2,-1.0,-1.0,0,110.4,100.0,1,primary,3,3,40.519798,-3.4108739999999997,1.976,110.9,0.597,0.10400000000000001,0.299
45,53.8,109.1,40.52113,-3.412107,628.3,6,5,325.2,1.055,1,0.094,0.013000000000000001,0.027000000000000003,0.027000000000000003,-0.001,0.015,-1.536,0.02,0.08800000000000001,-0.11199999999999999,0.083,2.947,2,-1.0,-1.0,0,109.1,100.0,1,primary,2,2,40.520237,-3.4112970000000002,7.046,106.9,0.602,0.102,0.297
46,54.8,107.2,40.521347,-3.412303,628.7,6,5,324.8,1.406,1,-0.019,0.004,0.040999999999999995,-0.004,0.013999999999999999,0.03,-1.547,0.012,0.09,-0.03,0.141,2.864,2,-1.0,-1.0,0,107.2,100.0,1,primary,2,2,40.520237,-3.4112970000000002,7.046,106.9,0.607,0.099,0.294
47,55.8,106.9,40.521572,-3.4125059999999996,629.4,6,5,325.2,0.35200000000000004,1,-0.023,0.004,0.017,-0.018000000000000002,0.003,0.01,-1.5659999999999998,0.012,0.09,0.1,0.048,2.795,2,-1.0,-1.0,0,106.9,100.0,1,primary,2,2,40.520237,-3.4112970000000002,7.046,106.9,0.611,0.09699999999999999,0.292
48,56.9,107.5,40.522015,-3.412914,630.9,6,5,324.8,0.35200000000000004,1,-0.02,-0.006,-0.006999999999999999,-0.019,-0.01,-0.0,-1.578,0.017,0.096,0.21100000000000002,0.019,2.9130000000000003,2,-1.0,-1.0,0,106.4,100.0,1,primary,2,2,40.520237,-3.4112970000000002,7.046,106.9,0.615,0.095,0.29
49,57.81,107.5,40.522015,-3.412914,630.9,6,5,324.8,0.35200000000000004,1,-0.081,-0.038,-0.01,-0.066,-0.027999999999999997,-0.016,-1.5830000000000002,0.015,0.102,0.294,0.054000000000000006,2.8560000000000003,2,-1.0,-1.0,0,107.5,100.0,1,primary,2,2,40.522015,-3.4129150000000004,0.6920000000000001,107.5,0.619,0.094,0.28800000000000003
50,58.81,107.5,40.522232,-3.413118,631.5,6,5,324.8,0.0,1,-0.079,-0.035,-0.026000000000000002,-0.051,-0.027000000000000003,-0.005,-1.589,0.006,0.115,0.242,0.037000000000000005,2.85,2,-1.0,-1.0,0,107.5,100.0,1,primary,2,2,40.522015,-3.4129150000000004,0.6920000000000001,107.5,0.622,0.092,0.28600000000000003
51,59.87,104.5,40.522457,-3.4132839999999995,632.6,6,5,328.4,3.516,1,0.024,-0.038,-0.008,0.0,-0.057999999999999996,-0.003,-1.5919999999999999,0.036000000000000004,0.15,0.121,0.013999999999999999,2.898,2,-1.0,-1.0,0,104.5,100.0,1,primary,2,2,40.522232,-3.413118,1.052,107.5,0.626,0.09,0.284
52,60.84,107.5,40.522667,-3.413532,633.5,6,5,322.0,6.327999999999999,1,-0.032,-0.034,-0.035,-0.026000000000000002,-0.02,-0.022000000000000002,-1.589,0.044000000000000004,0.187,0.02,0.0,2.862,2,-1.0,-1.0,0,107.5,100.0,1,primary,2,2,40.522232,-3.413118,1.052,107.5,0.629,0.08900000000000001,0.282
53,61.81,107.6,40.522877,-3.4137470000000003,634.3,6,5,320.3,8.086,1,0.044000000000000004,-0.002,-0.004,0.019,-0.018000000000000002,-0.001,-1.5819999999999999,0.031,0.226,-0.111,0.017,2.8760000000000003,2,-1.0,-1.0,0,107.6,100.0,1,primary,2,2,40.522667,-3.413532,1.1059999999999999,107.6,0.632,0.087,0.28
54,62.83,107.6,40.523075,-3.413988,635.7,6,5,318.2,3.867,1,-0.03,0.002,-0.002,-0.083,-0.001,0.006999999999999999,-1.58,0.036000000000000004,0.265,-0.221,0.032,2.9760000000000004,2,-1.0,-1.0,0,107.6,100.0,1,primary,2,2,40.522667,-3.413532,1.1059999999999999,107.6,0.635,0.086,0.27899999999999997
55,63.82,107.3,40.523270000000004,-3.4142330000000003,636.8,6,5,315.0,5.273,1,-0.009000000000000001,-0.028999999999999998,0.006,0.008,-0.008,0.013999999999999999,-1.584,0.026000000000000002,0.299,-0.252,0.004,2.872,2,-1.0,-1.0,0,107.3,100.0,1,primary,2,2,40.522667,-3.413532,1.1059999999999999,107.6,0.638,0.084,0.27699999999999997
56,64.83,107.7,40.523457,-3.4144949999999996,637.8,6,5,312.9,5.273,1,0.024,0.004,0.032,0.001,-0.005,0.016,-1.5830000000000002,0.032,0.337,-0.243,0.044000000000000004,2.8689999999999998,2,-1.0,-1.0,0,107.7,100.0,1,primary,2,2,40.522667,-3.413532,1.1059999999999999,107.6,0.6409999999999999,0.083,0.276
57,65.86,107.3,40.523635999999996,-3.4147550000000004,639.3,6,5,310.1,4.922,1,0.024,-0.047,0.028999999999999998,0.022000000000000002,-0.01,0.012,-1.591,0.031,0.37200000000000005,-0.33399999999999996,0.045,2.8169999999999997,2,-1.0,-1.0,1,107.3,100.0,1,primary,2,2,40.523075,-3.413988,6.334,108.3,0.644,0.08199999999999999,0.27399999999999997
58,66.83,108.8,40.523804,-3.415022,639.8,6,5,307.6,5.273,1,0.001,0.005,-0.04,0.003,-0.006,-0.005,-1.5930000000000002,0.047,0.406,-0.28300000000000003,0.047,2.918,2,-1.0,-1.0,1,108.8,100.0,1,primary,2,2,40.523075,-3.413988,6.334,108.3,0.647,0.08,0.273
59,67.82,110.1,40.523956,-3.415304,641.0,6,5,306.2,3.867,1,0.001,0.039,-0.049,-0.008,0.046,-0.045,-1.5519999999999998,0.03,0.43,-0.414,0.009000000000000001,2.8560000000000003,2,-1.0,-1.0,1,110.1,100.0,1,primary,2,2,40.523075,-3.413988,6.334,108.3,0.643,0.083,0.27399999999999997
60,68.8,108.3,40.52412,-3.415602,642.1,6,5,303.0,4.57,1,0.038,0.006,-0.022000000000000002,-0.011000000000000001,0.003,-0.017,-1.5190000000000001,0.024,0.451,-0.38299999999999995,0.022000000000000002,2.931,2,134.15,4.46,1,108.3,100.0,1,primary,2,2,40.523075,-3.413988,6.334,108.3,0.638,0.08900000000000001,0.273
61,69.81,106.2,40.524269,-3.415896,641.6,6,5,300.6,5.625,1,-0.044000000000000004,-0.003,-0.006999999999999999,-0.033,0.015,-0.013000000000000001,-1.506,0.022000000000000002,0.47200000000000003,-0.242,0.068,2.909,2,83.47,2.83,1,106.2,100.0,1,primary,2,2,40.523075,-3.413988,6.334,108.3,0.639,0.09,0.271
62,70.84,104.4,40.524403,-3.4161989999999998,641.8,6,5,298.5,4.57,1,0.018000000000000002,-0.002,-0.005,0.02,-0.009000000000000001,-0.006999999999999999,-1.5,0.03,0.496,-0.131,0.078,2.944,2,47.12,1.63,1,104.4,100.0,1,primary,2,2,40.524269,-3.415896,1.315,104.4,0.64,0.09,0.27
63,71.92,101.3,40.524623999999996,-3.416811,641.6,6,5,293.6,4.218999999999999,1,0.012,-0.001,-0.009000000000000001,0.005,0.011000000000000001,-0.009000000000000001,-1.495,0.035,0.523,-0.11199999999999999,0.037000000000000005,2.8930000000000002,2,32.73,1.14,1,103.0,100.0,1,primary,2,2,40.524269,-3.415896,1.315,104.4,0.6409999999999999,0.09,0.26899999999999996
64,72.84,101.3,40.524623999999996,-3.416811,641.6,6,5,293.6,4.922,1,0.039,0.035,0.016,0.018000000000000002,0.037000000000000005,0.013999999999999999,-1.4909999999999999,0.025,0.541,-0.201,-0.001,2.5610000000000004,1,27.93,0.99,1,101.3,100.0,1,primary,2,2,40.524529,-3.416514,1.265,101.3,0.642,0.09,0.268
65,73.82,99.7,40.524719,-3.417124,641.1,6,5,290.7,5.625,1,0.079,-0.003,0.026000000000000002,0.003,0.013999999999999999,0.027000000000000003,-1.494,0.035,0.547,-0.22699999999999998,0.022000000000000002,2.565,1,-1.0,-1.0,1,99.7,100.0,1,primary,2,2,40.524529,-3.416514,1.265,101.3,0.644,0.09,0.266
66,74.84,99.1,40.524803000000006,-3.417439,640.5,6,5,289.3,4.218999999999999,1,-0.023,0.068,0.011000000000000001,0.02,0.063,0.006999999999999999,-1.5030000000000001,0.035,0.546,-0.242,-0.004,2.615,1,30.44,1.11,1,99.1,100.0,1,primary,2,2,40.524719,-3.417125,0.992,99.7,0.65,0.086,0.264
67,75.82,98.6,40.524868,-3.4177459999999997,639.4,6,5,287.9,2.812,1,0.016,0.031,0.006,0.017,0.043,0.018000000000000002,-1.508,0.013000000000000001,0.528,-0.071,0.073,2.971,2,25.69,0.94,1,98.6,100.0,1,primary,2,2,40.524719,-3.417125,0.992,99.7,0.6579999999999999,0.078,0.264
68,76.81,98.1,40.52494,-3.418057,638.9,6,5,287.2,2.109,1,0.031,0.08,-0.018000000000000002,0.013999999999999999,0.057,-0.017,-1.5019999999999998,0.013000000000000001,0.514,0.04,0.07200000000000001,2.935,2,19.42,0.71,1,98.1,100.0,1,primary,2,2,40.524719,-3.417125,0.992,99.7,0.6809999999999999,0.07400000000000001,0.245
69,77.81,97.9,40.524998,-3.4183660000000002,638.4,4,5,285.8,2.109,1,-0.016,0.039,-0.006,-0.003,0.032,-0.01,-1.494,0.019,0.48100000000000004,0.193,0.08199999999999999,2.883,2,-1.0,-1.0,1,97.9,100.0,1,primary,2,2,40.524719,-3.417125,0.992,99.7,0.685,0.073,0.24100000000000002
70,78.8,96.1,40.525063,-3.4186690000000004,636.8,4,5,286.2,1.055,1,0.011000000000000001,0.017,0.001,0.009000000000000001,0.025,0.015,-1.493,0.025,0.45399999999999996,0.414,0.057,2.97,2,13.8,0.52,1,96.1,100.0,1,primary,2,2,40.524719,-3.417125,0.992,99.7,0.698,0.067,0.235
71,79.82,95.7,40.525131,-3.418975,635.1,4,5,286.2,0.35200000000000004,1,-0.003,0.049,-0.051,-0.02,0.03,-0.046,-1.473,0.013000000000000001,0.42200000000000004,0.595,0.08900000000000001,3.062,2,15.03,0.57,1,95.7,100.0,1,primary,2,2,40.524719,-3.417125,0.992,99.7,0.701,0.07,0.22899999999999998
72,80.8,94.9,40.525196,-3.4192669999999996,633.8,6,5,286.5,0.35200000000000004,1,-0.016,0.045,0.023,-0.015,0.022000000000000002,0.025,-1.4909999999999999,0.0,0.384,0.804,0.075,3.029,2,14.79,0.56,1,94.9,100.0,1,primary,2,2,40.524719,-3.417125,0.992,99.7,0.701,0.076,0.223
73,81.8,93.1,40.525257,-3.419561,632.5,6,5,287.2,1.055,1,0.052000000000000005,0.073,-0.042,-0.016,0.06,-0.026000000000000002,-1.506,-0.013999999999999999,0.33799999999999997,0.884,0.057,3.003,2,13.78,0.53,1,93.1,100.0,1,primary,2,2,40.524719,-3.417125,0.992,99.7,0.698,0.08199999999999999,0.22
74,82.82,92.1,40.525326,-3.419853,631.9,6,5,288.3,1.758,1,-0.0,0.013999999999999999,0.023,-0.026000000000000002,0.022000000000000002,0.015,-1.492,-0.038,0.27399999999999997,0.9640000000000001,0.047,3.074,2,13.85,0.54,1,92.1,100.0,1,primary,2,2,40.524803000000006,-3.41744,14.398,87.5,0.6970000000000001,0.08900000000000001,0.214
75,83.89,89.3,40.525490000000005,-3.420415,630.5,6,5,292.1,4.218999999999999,1,-0.051,-0.013000000000000001,0.018000000000000002,-0.055,-0.01,0.008,-1.5119999999999998,-0.009000000000000001,0.23399999999999999,1.05,0.001,2.9939999999999998,2,-1.0,-1.0,1,89.9,100.0,1,primary,2,2,40.524803000000006,-3.41744,14.398,87.5,0.7040000000000001,0.096,0.2
76,84.81,89.3,40.525490000000005,-3.420415,630.5,6,5,292.1,3.867,1,0.009000000000000001,0.027000000000000003,-0.008,0.015,0.023,0.002,-1.516,-0.022000000000000002,0.18899999999999997,0.9279999999999999,-0.018000000000000002,2.872,2,12.28,0.5,1,89.3,100.0,1,primary,2,2,40.524803000000006,-3.41744,14.398,87.5,0.698,0.102,0.2
77,85.88,89.0,40.525677,-3.4209440000000004,629.7,6,5,295.7,2.461,1,-0.038,0.08800000000000001,0.001,-0.08199999999999999,0.048,-0.013999999999999999,-1.526,-0.034,0.151,0.753,0.02,2.985,2,15.83,0.65,1,88.3,100.0,1,primary,2,2,40.524803000000006,-3.41744,14.398,87.5,0.703,0.10800000000000001,0.18899999999999997
78,86.92,87.9,40.52578,-3.4211970000000003,628.6,6,5,298.1,3.516,1,0.039,0.012,-0.004,-0.001,0.001,-0.004,-1.5219999999999998,-0.039,0.105,0.878,0.064,3.076,2,13.3,0.54,1,89.0,100.0,1,primary,2,2,40.524803000000006,-3.41744,14.398,87.5,0.7040000000000001,0.10800000000000001,0.188
79,87.82,87.9,40.52578,-3.4211970000000003,628.6,6,5,298.1,4.218999999999999,1,-0.013000000000000001,0.06,-0.009000000000000001,-0.002,0.05,-0.006999999999999999,-1.5219999999999998,-0.055999999999999994,0.05,0.424,-0.055,2.8939999999999997,2,14.66,0.6,1,87.9,100.0,1,primary,2,2,40.524803000000006,-3.41744,14.398,87.5,0.7,0.11199999999999999,0.188
80,88.82,87.5,40.525890000000004,-3.4214480000000003,628.2,4,5,300.9,5.273,1,-0.031,-0.055999999999999994,0.0,-0.035,-0.055,-0.004,-1.524,-0.071,-0.003,0.361,-0.052000000000000005,2.8560000000000003,2,12.92,0.53,1,87.5,100.0,1,primary,2,2,40.524803000000006,-3.41744,14.398,87.5,0.695,0.11800000000000001,0.188
81,89.89,87.1,40.526142,-3.4219209999999998,627.3,4,5,304.5,5.625,1,0.004,-0.037000000000000005,0.001,0.009000000000000001,-0.03,0.006,-1.5219999999999998,-0.07400000000000001,-0.054000000000000006,0.344,-0.057,2.7880000000000003,2,11.36,0.47,1,87.7,100.0,1,primary,2,2,40.524803000000006,-3.41744,14.398,87.5,0.69,0.12,0.19
82,90.82,87.1,40.526142,-3.4219209999999998,627.3,4,5,304.5,3.516,1,-0.064,-0.054000000000000006,0.006999999999999999,-0.057999999999999996,-0.027999999999999997,-0.008,-1.5219999999999998,-0.076,-0.094,0.38299999999999995,-0.02,2.835,2,13.21,0.55,1,87.1,90.0,1,primary,2,2,40.526012,-3.4216870000000004,0.934,87.1,0.691,0.11800000000000001,0.191
83,91.81,86.0,40.526268,-3.422138,626.5,6,5,309.7,5.977,1,0.006,-0.051,0.005,-0.006,-0.051,0.006,-1.531,-0.064,-0.13,0.488,0.057999999999999996,2.9989999999999997,2,12.74,0.53,1,86.0,90.0,1,primary,2,2,40.526142,-3.4219209999999998,0.853,87.1,0.737,0.12,0.14300000000000002
84,92.84,85.6,40.526409,-3.4223470000000002,626.0,4,5,312.2,7.734,1,-0.03,-0.019,-0.005,-0.027000000000000003,-0.034,-0.006,-1.528,-0.04,-0.166,0.45299999999999996,0.034,2.9219999999999997,2,15.16,0.64,1,85.6,90.0,1,primary,2,2,40.526268,-3.422138,0.6990000000000001,86.0,0.732,0.122,0.145
85,93.82,85.5,40.526565999999995,-3.4225559999999997,625.4,4,5,313.9,4.218999999999999,1,-0.009000000000000001,0.003,0.002,-0.004,-0.0,0.004,-1.5290000000000001,-0.048,-0.20199999999999999,0.615,0.051,2.8960000000000004,2,18.31,0.77,1,85.5,90.0,1,primary,2,2,40.526409,-3.4223470000000002,1.416,85.5,0.731,0.124,0.145
86,94.84,85.0,40.526722,-3.4227480000000003,625.0,4,5,316.8,4.57,1,-0.031,-0.047,0.017,-0.016,-0.035,0.011000000000000001,-1.531,-0.037000000000000005,-0.22,0.617,0.048,2.88,2,25.01,1.06,1,85.0,90.0,1,primary,2,2,40.526409,-3.4223470000000002,1.416,85.5,0.7240000000000001,0.131,0.146
87,95.84,84.8,40.526866999999996,-3.422936,623.8,6,5,318.9,4.922,1,-0.031,0.017,0.011000000000000001,-0.028999999999999998,-0.006,0.009000000000000001,-1.535,-0.042,-0.245,0.425,0.038,2.873,2,16.49,0.7,1,84.8,90.0,1,primary,2,2,40.526722,-3.4227489999999996,1.9709999999999999,84.8,0.7190000000000001,0.13699999999999998,0.14400000000000002
88,96.86,86.5,40.527031,-3.423129,623.6,6,5,320.6,3.867,1,0.002,-0.032,0.004,0.003,0.01,0.001,-1.538,-0.05,-0.282,0.365,0.062,2.948,2,15.04,0.63,1,86.5,90.0,1,primary,2,2,40.526722,-3.4227489999999996,1.9709999999999999,84.8,0.718,0.136,0.146
89,97.81,86.3,40.527206,-3.4233059999999997,623.4,6,5,322.7,3.867,1,0.005,0.013999999999999999,-0.008,0.001,0.005,-0.006,-1.537,-0.051,-0.312,0.375,0.062,2.96,2,14.73,0.61,1,86.3,90.0,1,primary,2,2,40.527031,-3.423129,0.688,86.5,0.773,0.131,0.096
90,98.8,86.3,40.527397,-3.4234440000000004,622.9,6,5,326.2,5.625,1,-0.03,-0.02,-0.027000000000000003,-0.027000000000000003,-0.033,-0.024,-1.537,-0.054000000000000006,-0.33399999999999996,0.455,0.055999999999999994,2.995,2,15.82,0.66,1,86.3,90.0,1,primary,2,2,40.527206,-3.4233059999999997,1.1520000000000001,86.3,0.7709999999999999,0.134,0.095
91,99.8,86.7,40.527588,-3.4235849999999997,622.2,6,5,328.0,5.273,1,0.006999999999999999,-0.011000000000000001,-0.013000000000000001,0.006,-0.024,-0.013000000000000001,-1.5230000000000001,-0.057,-0.35100000000000003,0.505,0.08,2.909,2,14.56,0.6,1,86.7,90.0,1,primary,2,2,40.527206,-3.4233059999999997,1.1520000000000001,86.3,0.764,0.14,0.095
92,100.8,85.7,40.527778999999995,-3.4237300000000004,622.0,6,5,330.1,3.867,1,-0.002,-0.046,-0.005,-0.008,-0.044000000000000004,-0.0,-1.525,-0.057,-0.354,0.45299999999999996,0.027999999999999997,2.9610000000000003,2,14.85,0.62,1,85.7,90.0,1,primary,2,2,40.527206,-3.4233059999999997,1.1520000000000001,86.3,0.758,0.147,0.095
93,101.83,85.4,40.527969,-3.423861,621.4,6,5,331.5,3.516,1,-0.001,-0.048,-0.02,-0.012,-0.055999999999999994,-0.01,-1.5230000000000001,-0.055,-0.355,0.45399999999999996,0.042,2.886,2,17.11,0.72,1,85.4,90.0,1,primary,2,2,40.527206,-3.4233059999999997,1.1520000000000001,86.3,0.753,0.154,0.094
94,102.8,84.6,40.528164000000004,-3.4239910000000005,620.9,6,5,332.6,2.461,1,-0.019,-0.003,-0.013000000000000001,-0.018000000000000002,-0.006,-0.012,-1.514,-0.035,-0.345,0.466,0.051,2.9139999999999997,2,17.91,0.76,1,84.6,90.0,1,primary,2,2,40.527206,-3.4233059999999997,1.1520000000000001,86.3,0.745,0.161,0.094
95,103.8,84.7,40.528355,-3.424115,620.6,6,5,333.6,2.109,1,-0.019,-0.059000000000000004,0.004,-0.003,-0.069,0.004,-1.508,-0.055,-0.332,0.516,0.028999999999999998,2.884,2,17.09,0.73,1,84.7,90.0,1,primary,2,1,40.527588,-3.4235849999999997,7.215,82.2,0.7390000000000001,0.16699999999999998,0.094
96,104.89,83.2,40.528721000000004,-3.4243629999999996,619.3,6,5,333.6,0.703,1,-0.006999999999999999,-0.03,-0.0,-0.008,-0.038,0.002,-1.5130000000000001,-0.012,-0.3,0.524,0.038,2.865,2,14.16,0.61,1,83.3,90.0,1,primary,2,1,40.527588,-3.4235849999999997,7.215,82.2,0.7340000000000001,0.17300000000000001,0.09300000000000001
97,105.8,83.2,40.528721000000004,-3.4243629999999996,619.3,6,5,333.6,0.35200000000000004,1,-0.04,0.005,-0.008,-0.046,0.008,-0.006,-1.514,-0.01,-0.273,0.484,0.031,2.924,2,15.79,0.68,1,83.2,90.0,1,primary,2,1,40.527588,-3.4235849999999997,7.215,82.2,0.728,0.18,0.092
98,106.8,82.2,40.528908,-3.424492,619.0,6,5,332.9,0.703,1,-0.002,-0.03,0.033,-0.025,-0.027000000000000003,0.027999999999999997,-1.518,-0.027999999999999997,-0.248,0.386,0.046,2.841,2,17.85,0.78,1,82.2,90.0,1,primary,2,1,40.527588,-3.4235849999999997,7.215,82.2,0.723,0.187,0.09
99,107.8,82.4,40.529090999999994,-3.424612,618.9,4,5,332.9,0.703,1,0.127,0.023,0.028999999999999998,0.062,0.006,0.042,-1.5490000000000002,-0.033,-0.223,0.373,0.047,2.77,2,19.98,0.87,1,82.4,90.0,1,primary,2,1,40.527588,-3.4235849999999997,7.215,82.2,0.723,0.18899999999999997,0.087
100,108.85,82.8,40.529278000000005,-3.424732,618.3,6,5,332.2,0.703,1,-0.008,0.005,0.021,0.006999999999999999,0.003,0.016,-1.5530000000000002,-0.026000000000000002,-0.192,0.327,0.048,2.79,2,22.2,0.97,1,82.8,90.0,1,primary,2,1,40.529090999999994,-3.424613,1.04,82.4,0.7240000000000001,0.191,0.085
101,109.8,84.7,40.529465,-3.4248550000000004,618.3,4,5,331.5,1.406,1,-0.021,-0.031,-0.005,0.004,-0.027000000000000003,0.009000000000000001,-1.5619999999999998,-0.02,-0.161,0.213,0.025,2.792,2,28.54,1.21,1,84.7,90.0,1,primary,2,1,40.529090999999994,-3.424613,1.04,82.4,0.731,0.187,0.08199999999999999
102,110.8,86.2,40.529648,-3.424988,617.9,4,5,330.5,1.758,1,-0.057,-0.024,0.005,-0.046,-0.018000000000000002,-0.0,-1.567,-0.012,-0.127,0.151,0.043,2.911,2,29.64,1.24,1,86.2,90.0,1,primary,2,1,40.529465,-3.4248559999999997,1.926,86.2,0.7929999999999999,0.18100000000000002,0.026000000000000002
103,111.8,86.8,40.529835,-3.425131,617.5,4,5,329.4,2.109,1,0.015,0.017,-0.040999999999999995,0.01,0.006,-0.024,-1.547,-0.001,-0.08900000000000001,0.122,0.049,2.986,2,29.16,1.21,1,86.8,90.0,1,primary,2,1,40.529465,-3.4248559999999997,1.926,86.2,0.7959999999999999,0.18100000000000002,0.024
104,112.81,88.6,40.530021999999995,-3.4252769999999995,617.0,4,5,327.7,2.812,1,0.05,0.043,-0.024,0.027999999999999997,0.027999999999999997,-0.017,-1.5430000000000001,0.006,-0.055,0.0,0.037000000000000005,2.911,2,48.27,1.96,1,88.6,90.0,1,primary,2,1,40.529835,-3.425131,0.9940000000000001,86.8,0.7979999999999999,0.18100000000000002,0.021
105,113.8,86.9,40.530201,-3.425436,616.2,4,5,325.9,3.516,1,0.073,-0.011000000000000001,-0.034,0.040999999999999995,-0.001,-0.027000000000000003,-1.536,0.006,-0.023,0.0,0.066,2.877,2,51.77,2.15,1,86.9,90.0,1,primary,2,1,40.530021999999995,-3.4252769999999995,1.905,86.9,0.799,0.18100000000000002,0.021
106,114.83,87.8,40.530376000000004,-3.4256010000000003,615.4,6,5,325.2,2.461,1,0.016,0.01,0.032,0.013000000000000001,-0.0,0.015,-1.5290000000000001,-0.004,0.025,0.10099999999999999,0.08199999999999999,2.891,2,54.11,2.22,1,87.8,90.0,1,primary,2,1,40.530021999999995,-3.4252769999999995,1.905,86.9,0.799,0.18100000000000002,0.02
107,115.8,88.2,40.530559999999994,-3.4257739999999997,615.1,6,5,323.8,2.109,1,0.040999999999999995,-0.016,0.034,0.028999999999999998,-0.024,0.026000000000000002,-1.531,-0.005,0.059000000000000004,0.10099999999999999,0.055,2.884,2,45.53,1.86,1,88.2,90.0,1,primary,2,1,40.530376000000004,-3.4256010000000003,1.226,88.2,0.799,0.18100000000000002,0.02
108,116.83,87.4,40.530731,-3.4259480000000004,614.6,6,5,321.3,3.867,1,-0.046,0.012,0.024,-0.027999999999999997,0.012,0.02,-1.538,-0.013999999999999999,0.08900000000000001,0.071,0.055,2.9339999999999997,2,43.77,1.8,1,87.4,90.0,1,primary,2,1,40.530376000000004,-3.4256010000000003,1.226,88.2,0.8,0.18100000000000002,0.019
109,117.84,88.6,40.530903,-3.426134,614.1,6,5,319.9,3.867,1,-0.013999999999999999,0.027999999999999997,0.004,-0.017,0.021,0.009000000000000001,-1.557,0.012,0.121,0.0,0.045,2.9760000000000004,2,33.17,1.35,1,88.6,90.0,1,primary,2,1,40.530731,-3.4259480000000004,1.514,88.6,0.8,0.18100000000000002,0.019
110,118.82,89.4,40.531075,-3.4263230000000005,613.6,4,5,317.8,3.516,1,-0.03,0.02,-0.017,-0.048,0.027000000000000003,-0.025,-1.564,-0.019,0.141,0.0,0.084,2.986,2,32.43,1.31,1,89.4,90.0,1,primary,2,1,40.531075,-3.4263230000000005,0.428,89.4,0.8009999999999999,0.18100000000000002,0.018000000000000002
111,119.82,91.2,40.531254,-3.4265339999999997,612.9,4,5,317.1,2.812,1,-0.02,-0.023,-0.008,-0.018000000000000002,-0.022000000000000002,-0.008,-1.554,-0.018000000000000002,0.159,0.131,0.071,3.06,2,36.94,1.46,1,91.2,90.0,1,primary,2,1,40.531075,-3.4263230000000005,0.428,89.4,0.8009999999999999,0.18100000000000002,0.018000000000000002
112,120.82,90.1,40.531425,-3.426725,612.4,4,5,315.7,2.109,1,-0.027000000000000003,-0.0,0.001,-0.036000000000000004,-0.01,-0.006,-1.56,0.005,0.187,0.213,0.054000000000000006,2.951,2,28.69,1.15,1,90.1,90.0,1,primary,2,1,40.531075,-3.4263230000000005,0.428,89.4,0.8009999999999999,0.18100000000000002,0.018000000000000002
113,121.8,90.6,40.531593,-3.426936,611.8,6,5,313.6,3.516,1,-0.028999999999999998,0.012,-0.033,-0.021,0.017,-0.028999999999999998,-1.5530000000000002,0.0,0.21,0.222,0.026000000000000002,2.992,2,27.24,1.08,1,90.6,90.0,1,primary,2,1,40.531254,-3.426535,2.784,90.6,0.8009999999999999,0.18100000000000002,0.018000000000000002
114,122.81,90.0,40.53175,-3.4271559999999996,612.2,6,5,312.2,3.516,1,0.002,0.017,-0.004,-0.002,0.021,-0.006999999999999999,-1.547,0.0,0.22699999999999998,0.212,0.053,2.9939999999999998,2,24.12,0.96,1,90.0,90.0,1,primary,2,1,40.531254,-3.426535,2.784,90.6,0.802,0.18100000000000002,0.017
115,123.85,89.0,40.531902,-3.427368,612.6,6,5,310.4,3.1639999999999997,1,-0.033,0.068,0.006,-0.035,0.053,0.006,-1.555,0.005,0.242,0.23199999999999998,0.051,2.9930000000000003,2,22.65,0.92,1,89.0,90.0,1,primary,2,1,40.531254,-3.426535,2.784,90.6,0.8029999999999999,0.18,0.017
116,124.81,87.8,40.532051,-3.4275849999999997,612.9,6,5,309.0,3.1639999999999997,1,-0.031,-0.027000000000000003,-0.037000000000000005,-0.02,-0.013000000000000001,-0.031,-1.5530000000000002,-0.003,0.255,0.273,0.04,2.985,2,25.47,1.04,1,87.8,90.0,1,primary,2,1,40.53175,-3.4271559999999996,2.8539999999999996,87.8,0.8029999999999999,0.18,0.016
117,125.81,87.2,40.532188,-3.427804,613.0,6,5,308.3,2.109,1,-0.028999999999999998,0.019,-0.011000000000000001,-0.027999999999999997,0.02,-0.006999999999999999,-1.546,-0.023,0.271,0.28300000000000003,0.062,3.017,2,25.47,1.05,1,87.2,90.0,1,primary,2,1,40.53175,-3.4271559999999996,2.8539999999999996,87.8,0.804,0.18,0.015
118,126.85,85.8,40.532314,-3.428022,613.7,6,5,305.9,3.1639999999999997,1,0.004,0.002,0.011000000000000001,-0.019,-0.005,0.023,-1.56,-0.006,0.292,0.322,0.033,2.966,2,26.97,1.13,1,85.8,90.0,1,primary,2,1,40.532188,-3.427804,0.875,87.2,0.805,0.18,0.015
119,127.81,83.2,40.532433000000005,-3.4282480000000004,615.2,6,5,304.8,3.516,1,-0.022000000000000002,0.025,0.01,-0.018000000000000002,0.018000000000000002,0.013999999999999999,-1.574,-0.013999999999999999,0.306,0.23,0.016,2.935,2,26.31,1.14,1,83.2,90.0,1,primary,2,1,40.532314,-3.428022,1.1059999999999999,83.2,0.81,0.17800000000000002,0.012
120,128.86,83.4,40.532539,-3.4284769999999996,615.4,6,5,302.3,3.516,1,-0.027999999999999997,0.002,0.034,-0.028999999999999998,0.003,0.027000000000000003,-1.595,-0.028999999999999998,0.315,0.111,0.023,2.8710000000000004,2,26.3,1.14,1,83.4,90.0,1,primary,2,1,40.532539,-3.4284769999999996,0.945,83.4,0.8170000000000001,0.172,0.011000000000000001
121,129.91,84.3,40.532749,-3.428954,618.4,6,5,300.2,3.516,1,0.018000000000000002,0.011000000000000001,0.035,0.009000000000000001,-0.002,0.027000000000000003,-1.607,-0.03,0.32,0.061,0.036000000000000004,2.819,2,30.9,1.34,1,83.1,90.0,1,primary,2,1,40.532539,-3.4284769999999996,0.945,83.4,0.818,0.171,0.011000000000000001
122,130.87,84.3,40.532749,-3.428954,618.4,6,5,300.2,2.109,1,-0.006,-0.015,0.009000000000000001,-0.006,-0.032,0.03,-1.6119999999999999,-0.025,0.32899999999999996,0.051,0.039,2.8289999999999997,2,26.3,1.12,1,84.3,90.0,1,primary,2,1,40.532654,-3.428711,1.194,84.3,0.818,0.171,0.011000000000000001
123,131.82,84.9,40.532879,-3.429204,619.4,6,5,299.2,2.109,1,-0.019,0.022000000000000002,0.02,-0.009000000000000001,0.024,0.017,-1.609,-0.024,0.34,0.05,0.031,2.87,2,25.12,1.07,2,84.9,90.0,1,primary,2,1,40.532654,-3.428711,1.194,84.3,0.818,0.171,0.01
124,132.8,86.4,40.532986,-3.429445,620.4,6,5,297.1,3.1639999999999997,1,-0.022000000000000002,0.025,0.006999999999999999,-0.015,0.006,0.006,-1.618,-0.023,0.34600000000000003,0.02,0.045,2.843,2,24.21,1.01,1,86.4,90.0,1,primary,2,1,40.532879,-3.4292050000000005,1.219,86.4,0.82,0.171,0.009000000000000001
125,133.82,87.0,40.533085,-3.429693,622.2,6,5,295.7,3.516,1,-0.023,-0.006,-0.001,-0.004,-0.0,0.006999999999999999,-1.609,-0.017,0.35200000000000004,0.091,0.053,2.832,2,24.84,1.03,1,87.0,90.0,1,primary,2,1,40.532879,-3.4292050000000005,1.219,86.4,0.8190000000000001,0.171,0.009000000000000001
126,134.82,87.6,40.53318,-3.4299589999999998,623.5,6,5,294.3,2.812,1,0.006999999999999999,0.032,-0.001,-0.004,-0.006999999999999999,0.006,-1.604,-0.011000000000000001,0.363,0.172,0.038,2.8489999999999998,2,25.83,1.06,1,87.6,90.0,1,primary,2,1,40.533085,-3.429694,2.8089999999999997,88.7,0.82,0.171,0.009000000000000001
127,135.82,88.7,40.533264,-3.4302010000000003,624.3,6,5,292.9,2.812,1,-0.015,0.019,-0.013000000000000001,-0.032,0.006,-0.005,-1.605,-0.013999999999999999,0.37200000000000005,0.182,0.046,2.892,2,29.49,1.2,1,88.7,90.0,1,primary,2,1,40.533085,-3.429694,2.8089999999999997,88.7,0.82,0.171,0.009000000000000001
128,136.82,89.1,40.533344,-3.43048,625.5,6,5,291.1,3.1639999999999997,1,-0.0,0.004,0.026000000000000002,0.002,0.001,0.008,-1.6019999999999999,-0.036000000000000004,0.377,0.192,0.054000000000000006,2.864,2,29.33,1.19,1,89.1,90.0,1,primary,2,1,40.533085,-3.429694,2.8089999999999997,88.7,0.82,0.171,0.009000000000000001
129,137.81,88.5,40.533413,-3.430742,626.8,6,5,289.3,3.516,1,0.008,-0.004,0.004,0.006,-0.005,0.005,-1.607,-0.011000000000000001,0.385,0.222,0.035,2.878,2,26.4,1.07,1,88.5,90.0,1,primary,2,1,40.533344,-3.43048,1.187,88.5,0.82,0.171,0.009000000000000001
130,138.82,88.5,40.533478,-3.431021,628.1,6,5,287.6,3.516,1,-0.055999999999999994,0.022000000000000002,0.01,-0.032,0.0,0.004,-1.6059999999999999,-0.006,0.39299999999999996,0.212,0.039,2.8760000000000003,2,24.32,0.99,1,88.5,90.0,1,primary,2,1,40.533344,-3.43048,1.187,88.5,0.821,0.17,0.009000000000000001
131,139.9,89.7,40.533607,-3.4315919999999998,630.6,6,5,284.8,2.812,1,0.006,-0.022000000000000002,-0.01,-0.009000000000000001,-0.006,-0.013999999999999999,-1.597,-0.006,0.396,0.182,0.043,2.91,2,23.82,0.96,2,89.5,90.0,1,primary,2,1,40.533478,-3.431021,1.534,89.7,0.828,0.163,0.009000000000000001
132,140.8,89.7,40.533607,-3.4315919999999998,630.6,6,5,284.8,2.812,1,-0.006999999999999999,-0.005,-0.055999999999999994,0.002,-0.016,-0.059000000000000004,-1.585,-0.01,0.402,0.192,0.061,2.9339999999999997,2,42.84,1.72,1,89.7,90.0,1,primary,2,1,40.533478,-3.431021,1.534,89.7,0.8340000000000001,0.157,0.009000000000000001
133,141.82,88.8,40.533657,-3.431882,631.4,6,5,283.4,3.1639999999999997,1,0.019,0.012,0.003,0.001,0.019,0.013000000000000001,-1.57,-0.013000000000000001,0.40299999999999997,0.152,0.008,2.926,2,26.63,1.08,1,88.8,90.0,1,primary,2,1,40.533607,-3.431593,1.44,88.8,0.841,0.15,0.009000000000000001
134,142.84,87.0,40.53371,-3.432174,633.5,6,5,281.6,3.1639999999999997,1,-0.062,0.003,-0.022000000000000002,-0.038,-0.019,-0.006,-1.581,0.006,0.40700000000000003,0.233,0.017,3.031,2,20.74,0.86,1,87.0,90.0,1,primary,2,1,40.533607,-3.431593,1.44,88.8,0.848,0.142,0.009000000000000001
135,143.83,86.0,40.533749,-3.43246,634.2,6,5,280.2,3.1639999999999997,1,-0.032,0.011000000000000001,0.040999999999999995,-0.027999999999999997,0.015,0.018000000000000002,-1.579,-0.001,0.41600000000000004,0.212,0.024,3.0639999999999996,2,21.49,0.9,1,86.0,90.0,1,primary,2,1,40.53371,-3.432174,0.772,87.0,0.855,0.136,0.009000000000000001
136,144.81,86.2,40.533778999999996,-3.4327449999999997,635.1,6,5,278.4,3.1639999999999997,1,0.001,0.021,0.01,-0.009000000000000001,0.005,0.017,-1.588,-0.023,0.419,0.061,-0.006999999999999999,3.0389999999999997,2,22.95,0.96,1,86.2,90.0,1,primary,2,1,40.533749,-3.432461,0.6990000000000001,86.0,0.8640000000000001,0.129,0.006
137,145.82,85.3,40.533802,-3.4330230000000004,635.9,6,5,276.3,3.867,1,-0.057,-0.032,-0.012,-0.022000000000000002,0.002,-0.005,-1.598,-0.033,0.413,0.02,0.03,2.9739999999999998,2,25.05,1.06,1,85.3,90.0,1,primary,2,1,40.533749,-3.432461,0.6990000000000001,86.0,0.872,0.122,0.006
138,146.82,86.6,40.533817,-3.4333110000000002,637.1,6,5,275.6,2.812,1,-0.011000000000000001,-0.002,0.001,0.012,-0.013000000000000001,0.001,-1.5930000000000002,-0.027999999999999997,0.41100000000000003,0.02,0.053,2.984,2,21.72,0.9,1,86.6,90.0,1,primary,2,1,40.533749,-3.432461,0.6990000000000001,86.0,0.879,0.115,0.006
139,147.81,85.9,40.533829,-3.4336,638.3,6,5,274.6,1.758,1,-0.008,-0.012,0.025,-0.005,-0.011000000000000001,0.027000000000000003,-1.5959999999999999,-0.005,0.40700000000000003,0.051,0.049,2.963,2,20.63,0.86,1,85.9,90.0,1,primary,2,1,40.533749,-3.432461,0.6990000000000001,86.0,0.885,0.109,0.006
140,148.82,86.0,40.533854999999996,-3.4338629999999997,639.8,6,5,273.2,2.461,1,-0.023,0.035,0.0,-0.012,0.04,0.002,-1.601,-0.009000000000000001,0.401,0.071,0.081,2.99,2,22.32,0.93,1,86.0,90.0,1,primary,2,1,40.533778999999996,-3.4327449999999997,7.7010000000000005,87.4,0.8909999999999999,0.10400000000000001,0.006
141,149.82,86.7,40.533871000000005,-3.434131,640.6,6,5,271.8,2.812,1,0.008,0.039,-0.019,0.013000000000000001,0.009000000000000001,0.006999999999999999,-1.6159999999999999,0.01,0.39,0.132,0.032,2.9160000000000004,2,21.36,0.89,1,86.7,90.0,1,primary,2,1,40.533778999999996,-3.4327449999999997,7.7010000000000005,87.4,0.895,0.10099999999999999,0.004
142,150.85,87.3,40.533882,-3.4344129999999997,641.8,6,5,271.4,1.758,1,0.026000000000000002,0.063,0.013999999999999999,0.021,0.052000000000000005,0.01,-1.594,0.005,0.373,0.212,0.08199999999999999,2.945,2,22.01,0.91,1,87.3,90.0,1,primary,2,1,40.533778999999996,-3.4327449999999997,7.7010000000000005,87.4,0.9,0.098,0.002
143,151.8,87.4,40.533885999999995,-3.434711,642.9,6,5,271.1,0.703,1,0.013999999999999999,-0.017,0.01,0.016,-0.002,0.006999999999999999,-1.5930000000000002,0.002,0.366,0.282,0.061,2.897,2,35.11,1.45,1,87.4,90.0,1,primary,2,1,40.533778999999996,-3.4327449999999997,7.7010000000000005,87.4,0.9059999999999999,0.092,0.002
144,152.9,86.7,40.533882,-3.4352949999999995,645.3,6,5,269.3,1.406,1,-0.048,-0.071,0.019,-0.032,-0.065,0.017,-1.5930000000000002,-0.016,0.35100000000000003,0.273,0.057,2.877,2,30.17,1.25,1,86.9,90.0,1,primary,2,1,40.533778999999996,-3.4327449999999997,7.7010000000000005,87.4,0.912,0.086,0.002
145,153.8,86.7,40.533882,-3.4352949999999995,645.3,6,5,269.3,1.758,1,-0.022000000000000002,-0.006,0.008,-0.01,0.001,0.011000000000000001,-1.599,-0.008,0.342,0.132,0.04,2.8680000000000003,2,23.69,0.98,1,86.7,90.0,1,primary,2,1,40.533885999999995,-3.4350089999999995,0.612,86.7,0.919,0.08,0.002
146,154.81,87.7,40.533882,-3.435577,647.0,6,5,268.9,1.055,1,-0.021,0.006,0.01,-0.006999999999999999,0.019,0.009000000000000001,-1.6130000000000002,-0.032,0.303,0.081,0.04,2.845,2,23.25,0.95,1,87.7,90.0,1,primary,2,1,40.533882,-3.435296,0.7340000000000001,86.7,0.925,0.073,0.002
147,155.84,87.3,40.533882,-3.4358660000000003,647.6,6,5,270.0,1.055,1,-0.027999999999999997,-0.035,-0.017,-0.027000000000000003,-0.022000000000000002,-0.024,-1.6119999999999999,-0.011000000000000001,0.27899999999999997,0.161,0.091,2.759,2,23.9,0.99,1,87.3,90.0,1,primary,2,1,40.533882,-3.435577,1.063,87.3,0.932,0.066,0.002
148,156.81,88.0,40.533882,-3.436156,648.9,6,5,270.4,1.406,1,-0.02,0.023,-0.011000000000000001,-0.016,0.022000000000000002,-0.009000000000000001,-1.594,0.001,0.265,0.363,0.065,2.6919999999999997,2,23.48,0.96,1,88.0,90.0,1,primary,2,1,40.533882,-3.435577,1.063,87.3,0.9359999999999999,0.063,0.002
149,157.8,88.0,40.533882,-3.4364510000000004,649.8,6,5,270.4,0.35200000000000004,1,0.012,-0.004,0.005,0.003,0.008,0.006,-1.614,0.003,0.25,0.504,0.053,2.653,2,23.16,0.95,1,88.0,90.0,1,primary,2,1,40.533882,-3.436156,1.0090000000000001,88.0,0.929,0.069,0.002
150,158.86,87.9,40.533875,-3.436746,650.6,6,5,270.4,0.0,1,0.035,0.003,0.015,0.031,-0.002,0.013999999999999999,-1.619,0.019,0.243,0.606,0.046,2.6039999999999996,2,28.81,1.18,1,87.9,90.0,1,primary,2,1,40.533882,-3.436156,1.0090000000000001,88.0,0.927,0.071,0.002
151,159.83,88.7,40.533878,-3.4370279999999998,652.1,6,5,269.6,0.703,1,-0.036000000000000004,-0.013000000000000001,-0.013999999999999999,-0.03,-0.004,-0.005,-1.6219999999999999,0.017,0.235,0.5820000000000001,0.033,2.747,2,22.05,0.9,1,88.7,90.0,1,primary,2,1,40.533875,-3.436746,1.183,88.7,0.927,0.071,0.002
152,160.84,90.1,40.533882,-3.437326,653.0,6,5,269.6,0.703,1,-0.033,-0.002,-0.004,-0.022000000000000002,-0.002,-0.002,-1.617,0.02,0.228,0.555,0.027000000000000003,2.656,2,18.6,0.74,1,90.1,90.0,1,primary,2,1,40.533875,-3.436746,1.183,88.7,0.927,0.071,0.002
153,161.8,90.3,40.533878,-3.437619,654.6,6,5,269.3,0.35200000000000004,1,0.013999999999999999,0.006999999999999999,-0.047,0.006,0.006999999999999999,-0.04,-1.609,0.002,0.217,0.46399999999999997,0.032,2.6489999999999996,2,21.98,0.88,1,90.3,90.0,1,primary,2,1,40.533875,-3.436746,1.183,88.7,0.9259999999999999,0.07200000000000001,0.003
154,162.8,90.3,40.533878,-3.437925,655.7,6,5,269.6,0.35200000000000004,1,0.003,-0.015,-0.003,-0.006,-0.006,-0.003,-1.594,-0.002,0.207,0.413,0.012,2.6830000000000003,2,18.13,0.72,1,90.3,90.0,1,primary,2,1,40.533875,-3.436746,1.183,88.7,0.9259999999999999,0.071,0.003
155,163.8,89.2,40.533875,-3.4382230000000003,656.7,4,5,269.3,0.35200000000000004,1,0.002,0.005,-0.02,-0.006,-0.008,-0.013000000000000001,-1.598,0.0,0.198,0.424,0.028999999999999998,2.6489999999999996,2,25.47,1.03,1,89.2,90.0,1,primary,2,1,40.533875,-3.436746,1.183,88.7,0.925,0.07200000000000001,0.003
156,164.83,89.7,40.533878,-3.4385260000000004,657.6,4,5,269.6,0.35200000000000004,1,0.008,-0.015,-0.021,0.003,-0.003,-0.01,-1.579,0.001,0.195,0.374,0.038,2.645,2,25.89,1.04,1,89.7,90.0,1,primary,2,1,40.533875,-3.436746,1.183,88.7,0.925,0.07200000000000001,0.003
157,165.8,88.9,40.533882,-3.438824,658.4,4,5,269.3,0.35200000000000004,1,-0.013000000000000001,0.006,0.003,-0.01,0.001,0.001,-1.579,0.006999999999999999,0.19399999999999998,0.243,0.016,2.7089999999999996,2,19.59,0.79,1,88.9,90.0,1,primary,2,1,40.533875,-3.436746,1.183,88.7,0.93,0.067,0.003
158,166.81,88.8,40.533878,-3.4391019999999997,659.5,4,5,269.3,0.35200000000000004,1,0.003,0.015,0.009000000000000001,-0.003,0.005,0.0,-1.584,-0.003,0.187,0.23199999999999998,0.034,2.801,2,23.17,0.94,1,88.8,90.0,1,primary,2,1,40.533875,-3.436746,1.183,88.7,0.938,0.059000000000000004,0.003
159,167.83,88.7,40.533875,-3.4393849999999997,660.0,4,5,269.3,0.0,1,0.036000000000000004,0.009000000000000001,-0.013999999999999999,0.001,-0.008,-0.022000000000000002,-1.5730000000000002,-0.021,0.177,0.20199999999999999,0.052000000000000005,2.8689999999999998,2,15.24,0.62,1,88.7,90.0,1,primary,2,1,40.533875,-3.436746,1.183,88.7,0.9390000000000001,0.057,0.003
160,168.8,87.1,40.533878,-3.4396699999999996,660.2,4,5,269.3,0.0,1,0.006,-0.021,0.008,0.008,-0.023,0.006,-1.58,-0.011000000000000001,0.174,0.212,0.040999999999999995,2.8110000000000004,2,13.92,0.58,1,87.1,90.0,1,primary,2,1,40.533875,-3.436746,1.183,88.7,0.941,0.055999999999999994,0.003
161,169.83,87.6,40.533875,-3.4399610000000003,661.0,4,5,269.6,0.35200000000000004,1,-0.013999999999999999,-0.046,-0.002,-0.009000000000000001,-0.055999999999999994,0.006,-1.5830000000000002,-0.023,0.17300000000000001,0.192,0.04,2.8169999999999997,2,14.57,0.6,1,87.6,90.0,1,primary,2,1,40.533875,-3.436746,1.183,88.7,0.941,0.055999999999999994,0.003
162,170.8,88.5,40.533875,-3.440253,661.2,4,5,269.6,0.35200000000000004,1,0.011000000000000001,-0.016,-0.03,0.02,-0.021,-0.016,-1.5859999999999999,-0.005,0.175,0.081,0.021,2.7539999999999996,2,14.32,0.58,1,88.5,90.0,1,primary,2,1,40.533875,-3.436746,1.183,88.7,0.941,0.055999999999999994,0.003
163,171.81,88.4,40.533875,-3.4405360000000003,661.9,4,5,268.9,0.703,1,0.006999999999999999,0.028999999999999998,-0.017,0.011000000000000001,0.026000000000000002,-0.015,-1.5730000000000002,0.003,0.177,-0.061,-0.001,2.786,2,14.17,0.58,1,88.4,90.0,1,primary,2,1,40.533875,-3.436746,1.183,88.7,0.941,0.055999999999999994,0.003
164,172.8,89.7,40.533867,-3.4408220000000003,662.6,6,5,268.9,0.703,1,-0.01,0.013999999999999999,-0.021,0.006,0.013999999999999999,-0.023,-1.567,-0.011000000000000001,0.166,-0.23399999999999999,0.043,2.8539999999999996,2,14.83,0.59,1,89.7,90.0,1,primary,2,1,40.533875,-3.436746,1.183,88.7,0.941,0.055999999999999994,0.003
165,173.8,89.7,40.533854999999996,-3.4411080000000003,662.7,6,5,269.3,0.35200000000000004,1,-0.012,-0.05,-0.026000000000000002,-0.025,-0.045,-0.035,-1.5590000000000002,-0.001,0.162,-0.263,0.032,2.8789999999999996,2,14.05,0.56,1,89.7,90.0,1,primary,2,1,40.533875,-3.436746,1.183,88.7,0.94,0.055999999999999994,0.003
166,174.81,88.5,40.533848,-3.4413940000000003,662.5,6,5,269.3,0.35200000000000004,1,-0.01,-0.003,0.017,0.023,-0.001,0.013000000000000001,-1.55,0.02,0.17,-0.373,-0.026000000000000002,2.9330000000000003,2,13.99,0.57,1,88.5,90.0,1,primary,2,1,40.533875,-3.436746,1.183,88.7,0.94,0.055999999999999994,0.003
167,175.81,88.5,40.533840000000005,-3.441677,663.1,6,5,268.9,0.35200000000000004,1,-0.013999999999999999,0.042,0.011000000000000001,-0.021,0.062,0.004,-1.557,0.005,0.159,-0.494,0.015,2.9730000000000003,2,14.76,0.6,1,88.5,90.0,1,primary,2,1,40.533875,-3.436746,1.183,88.7,0.934,0.062,0.003
168,176.9,89.9,40.533836,-3.442246,662.9,6,5,270.0,0.35200000000000004,1,-0.011000000000000001,-0.006999999999999999,-0.017,-0.003,-0.004,-0.008,-1.569,-0.009000000000000001,0.149,-0.46399999999999997,0.023,2.895,2,13.46,0.54,1,88.9,90.0,1,primary,2,1,40.533875,-3.436746,1.183,88.7,0.9279999999999999,0.069,0.003
169,177.81,89.9,40.533836,-3.442246,662.9,6,5,270.0,1.055,1,0.040999999999999995,-0.038,-0.023,0.003,-0.024,-0.03,-1.548,0.001,0.147,-0.33399999999999996,0.049,2.972,2,13.8,0.55,1,89.9,90.0,1,primary,2,1,40.533875,-3.436746,1.183,88.7,0.924,0.073,0.003
170,178.88,89.8,40.533836,-3.4425410000000003,662.7,6,5,270.0,0.703,1,-0.02,-0.005,-0.008,-0.025,-0.002,-0.005,-1.538,0.006,0.151,-0.252,0.06,3.0269999999999997,2,13.59,0.54,1,89.8,90.0,1,primary,2,1,40.533875,-3.436746,1.183,88.7,0.924,0.073,0.003
171,179.81,89.0,40.533844,-3.442821,662.5,6,5,270.0,0.0,1,-0.009000000000000001,-0.04,-0.001,-0.008,-0.011000000000000001,0.015,-1.5519999999999998,0.01,0.149,-0.162,0.07200000000000001,2.972,2,17.91,0.72,1,89.0,90.0,1,primary,2,1,40.533875,-3.436746,1.183,88.7,0.924,0.073,0.003
172,180.81,90.4,40.533852,-3.4431199999999995,661.6,6,5,270.0,0.0,1,-0.006,0.037000000000000005,-0.031,-0.011000000000000001,-0.001,-0.03,-1.5390000000000001,-0.016,0.154,-0.091,0.039,3.009,2,15.69,0.63,1,90.4,90.0,1,primary,2,1,40.533875,-3.436746,1.183,88.7,0.924,0.073,0.003
173,181.82,90.0,40.533852,-3.443424,661.2,6,5,270.0,0.0,1,0.003,0.015,-0.03,-0.006999999999999999,0.008,-0.022000000000000002,-1.528,-0.021,0.151,-0.03,0.028999999999999998,3.0439999999999996,2,15.42,0.62,1,90.0,90.0,1,primary,2,2,40.533882,-3.437326,41.345,99.1,0.924,0.073,0.003
174,182.81,88.9,40.533852,-3.443718,660.9,6,5,269.6,0.35200000000000004,1,-0.024,0.005,0.005,-0.004,-0.017,0.006999999999999999,-1.5290000000000001,0.031,0.16899999999999998,-0.131,0.019,2.99,2,16.06,0.65,1,88.9,90.0,1,primary,2,2,40.533882,-3.437326,41.345,99.1,0.925,0.073,0.002
175,183.86,88.2,40.533848,-3.4440120000000003,660.5,6,5,268.9,1.055,1,0.013000000000000001,0.037000000000000005,0.005,-0.006,0.025,0.003,-1.534,-0.006999999999999999,0.156,-0.23199999999999998,0.053,3.014,2,15.82,0.65,1,88.2,90.0,1,primary,2,2,40.533882,-3.437326,41.345,99.1,0.925,0.073,0.002
176,184.81,88.5,40.533848,-3.4443040000000003,659.4,6,5,269.6,0.703,1,-0.038,-0.02,-0.03,-0.018000000000000002,-0.019,-0.018000000000000002,-1.5330000000000001,-0.009000000000000001,0.149,-0.223,0.069,2.9339999999999997,2,15.42,0.63,1,88.5,90.0,1,primary,2,2,40.533882,-3.437326,41.345,99.1,0.925,0.073,0.002
177,185.82,88.6,40.533848,-3.4445989999999997,659.6,6,5,270.0,1.055,1,-0.057,-0.001,-0.02,-0.03,0.004,-0.024,-1.526,-0.005,0.14800000000000002,-0.081,0.096,2.949,2,15.68,0.64,1,88.6,90.0,1,primary,2,2,40.533882,-3.437326,41.345,99.1,0.925,0.073,0.002
178,186.84,87.8,40.533848,-3.44489,658.8,6,5,270.0,0.35200000000000004,1,-0.017,-0.036000000000000004,0.001,-0.016,-0.028999999999999998,0.001,-1.525,-0.006,0.151,0.01,0.073,2.965,2,14.53,0.6,1,87.8,90.0,1,primary,2,2,40.533882,-3.437326,41.345,99.1,0.925,0.073,0.002
179,187.82,87.4,40.533848,-3.44518,658.4,6,5,269.6,0.35200000000000004,1,0.013999999999999999,0.027999999999999997,-0.022000000000000002,0.019,0.017,-0.016,-1.521,-0.002,0.156,0.051,0.078,2.891,2,14.26,0.59,1,87.4,90.0,1,primary,2,2,40.533882,-3.437326,41.345,99.1,0.925,0.073,0.002
180,188.81,87.3,40.533852,-3.4454580000000004,657.8,6,5,270.0,0.35200000000000004,1,-0.031,0.006999999999999999,0.009000000000000001,-0.012,0.0,0.015,-1.525,-0.006999999999999999,0.151,0.12,0.051,2.8539999999999996,2,19.03,0.79,1,87.3,90.0,1,primary,2,2,40.533882,-3.437326,41.345,99.1,0.925,0.073,0.002
181,189.8,86.5,40.533848,-3.445729,657.2,6,5,269.6,0.35200000000000004,1,-0.054000000000000006,0.001,0.019,-0.043,-0.004,0.011000000000000001,-1.536,-0.001,0.154,0.20199999999999999,0.051,2.944,2,18.63,0.78,1,86.5,90.0,1,primary,2,2,40.533882,-3.437326,41.345,99.1,0.925,0.073,0.002
182,190.84,87.4,40.533848,-3.446019,656.8,6,5,270.0,0.35200000000000004,1,0.004,0.003,0.017,-0.016,0.01,0.012,-1.544,0.012,0.157,0.271,0.040999999999999995,2.97,2,18.5,0.76,1,87.4,90.0,1,primary,2,2,40.533882,-3.437326,41.345,99.1,0.925,0.073,0.002
183,191.83,87.7,40.533848,-3.446305,656.5,6,5,269.6,0.35200000000000004,1,-0.025,-0.025,-0.018000000000000002,-0.005,-0.039,-0.015,-1.53,0.008,0.161,0.312,0.023,2.91,2,15.28,0.63,1,87.7,90.0,1,primary,2,2,40.533882,-3.437326,41.345,99.1,0.925,0.07200000000000001,0.002
184,192.81,88.3,40.533848,-3.446597,656.2,6,5,269.6,0.35200000000000004,1,-0.037000000000000005,0.025,-0.003,-0.01,0.019,-0.006999999999999999,-1.531,0.015,0.163,0.303,0.037000000000000005,2.945,2,23.81,0.97,2,88.3,90.0,1,primary,2,2,40.533882,-3.437326,41.345,99.1,0.925,0.07200000000000001,0.002
185,193.88,87.5,40.533844,-3.4471879999999997,655.9,6,5,269.6,0.35200000000000004,1,-0.009000000000000001,0.004,0.001,-0.005,0.01,-0.004,-1.518,0.006999999999999999,0.161,0.29100000000000004,0.024,2.966,2,23.96,0.97,2,88.7,90.0,1,primary,2,2,40.533882,-3.437326,41.345,99.1,0.9259999999999999,0.07200000000000001,0.002
186,194.84,87.5,40.533844,-3.4471879999999997,655.9,6,5,269.6,0.35200000000000004,1,-0.03,-0.044000000000000004,0.022000000000000002,-0.025,-0.025,0.013999999999999999,-1.528,0.004,0.162,0.262,0.025,2.955,2,20.8,0.86,2,87.5,90.0,1,primary,2,2,40.533882,-3.437326,41.345,99.1,0.925,0.07200000000000001,0.002
187,195.91,87.6,40.533836,-3.447768,654.9,6,5,269.3,0.35200000000000004,1,-0.057999999999999996,-0.053,0.006999999999999999,-0.009000000000000001,-0.022000000000000002,0.004,-1.526,0.006,0.168,0.243,0.008,2.9589999999999996,2,18.66,0.77,1,87.8,90.0,1,primary,2,2,40.533882,-3.437326,41.345,99.1,0.925,0.07200000000000001,0.002
188,196.83,87.6,40.533836,-3.447768,654.9,6,5,269.3,0.35200000000000004,1,-0.013999999999999999,0.06,0.039,-0.022000000000000002,0.042,0.013000000000000001,-1.545,0.008,0.174,0.01,0.006999999999999999,2.897,2,17.76,0.73,1,87.6,90.0,1,primary,2,2,40.533882,-3.437326,41.345,99.1,0.925,0.073,0.002
189,197.83,88.3,40.533833,-3.4480589999999998,654.7,6,5,268.9,0.703,1,-0.005,-0.016,0.04,-0.013000000000000001,-0.012,0.044000000000000004,-1.546,0.008,0.179,-0.242,-0.008,2.877,2,17.41,0.71,1,88.3,90.0,1,primary,2,2,40.533882,-3.437326,41.345,99.1,0.925,0.073,0.002
190,198.8,89.8,40.533829,-3.4483550000000003,654.4,6,5,268.6,0.703,1,-0.022000000000000002,-0.025,0.027000000000000003,-0.017,-0.019,0.027999999999999997,-1.561,-0.026000000000000002,0.171,-0.526,0.027000000000000003,2.911,2,14.99,0.6,1,89.8,90.0,1,primary,2,2,40.533882,-3.437326,41.345,99.1,0.922,0.076,0.002
191,199.82,91.4,40.533825,-3.4486510000000004,654.4,6,5,269.3,0.703,1,-0.006,-0.054000000000000006,0.077,-0.015,-0.044000000000000004,0.078,-1.587,-0.012,0.16899999999999998,-0.782,0.025,2.843,2,14.6,0.58,1,91.4,90.0,1,primary,2,2,40.533882,-3.437326,41.345,99.1,0.914,0.083,0.003
192,200.89,94.7,40.533825,-3.448958,654.0,6,5,269.6,1.055,1,-0.019,-0.008,0.062,-0.02,-0.006999999999999999,0.049,-1.6280000000000001,0.008,0.177,-1.082,0.035,2.728,2,14.16,0.54,1,94.7,90.0,1,primary,2,2,40.533882,-3.437326,41.345,99.1,0.9059999999999999,0.09,0.003
193,201.83,99.1,40.533817,-3.4492809999999996,654.2,6,5,268.9,0.703,1,-0.024,0.078,-0.006,-0.035,0.031,0.003,-1.6540000000000001,0.035,0.18899999999999997,0.0,-0.0,2.875,0,-1.0,-1.0,1,99.1,90.0,1,primary,2,2,40.533882,-3.437326,41.345,99.1,0.8440000000000001,0.092,0.063
194,202.92,108.8,40.533806,-3.449979,655.0,6,5,268.2,1.406,1,0.021,0.055999999999999994,0.027999999999999997,0.013999999999999999,0.065,0.018000000000000002,-1.652,0.019,0.177,0.172,0.03,3.4139999999999997,2,-1.0,-1.0,1,104.6,90.0,1,primary,2,2,40.533882,-3.437326,41.345,99.1,0.843,0.09300000000000001,0.065
