,Timestamp (seconds),Speed (km/h),Latitude coordinate (degrees),Longitude coordinate (degrees),Altitude (meters),Vertical accuracy (degrees),Horizontal accuracy (degrees),Course (degrees),Difcourse: course variation (degrees),Boolean of system activated (1 if >50km/h),Acceleration in X (Gs),Acceleration in Y (Gs),Acceleration in Z (Gs),Acceleration in X filtered by KF (Gs),Acceleration in Y filtered by KF (Gs),Acceleration in Z filtered by KF (Gs),Roll (degrees),Pitch (degrees),Yaw (degrees),X: car position relative to lane center (meters),Phi: car angle relative to lane curvature (degrees),W: road width (meters),"State of the lane det. algorithm [-1=calibrating, 0=initializing, 1=undetected, 2=detected/running]",Distance to ahead vehicle in current lane (meters) [value -1 means no car is detected in front],Time of impact to ahead vehicle (seconds) [distance related to own speed],Number of detected vehicles in this frame (traffic),GPS speed (km/h) [same as in RAW GPS],Maximum allowed speed of current road (km/h),"Reliability of obtained maxspeed (0=unknown, 1=reliable, 2=used previously obtained maxspeed,3=estimated by type of road)","Type of road (motorway, trunk, secondary...)",Number of lanes in current road,"Estimated current lane (1=right lane, 2=first left lane, 3=second left lane, etc) [experimental]",GPS Latitude used to query OSM (degrees),GPS Longitude used to query OSM (degrees),OSM delay to answer query (seconds),GPS speed (km/h) [same as in RAW GPS]],Ratio normal (base 1),Ratio drowsy (base 1),Ratio aggressive (base 1)
0,16.75,75.8,40.518135,-3.409204,620.4,3,5,324.5,0.703,1,-0.009000000000000001,0.023,-0.01,-0.005,0.013999999999999999,-0.006999999999999999,-1.585,0.021,-0.068,0.0,-0.0,3.5,-1,-1.0,-1.0,0,75.8,100.0,1,primary,3,2,40.518303,-3.409357,1.355,78.9,1.0,0.0,0.0
1,17.75,77.5,40.518303,-3.409357,620.8,3,5,323.4,1.406,1,0.012,0.032,0.005,-0.004,0.035,0.001,-1.5830000000000002,0.012,-0.078,0.0,-0.0,3.5,-1,-1.0,-1.0,0,77.5,100.0,1,primary,3,2,40.518303,-3.409357,1.355,78.9,1.0,0.0,0.0
2,18.78,78.9,40.518459,-3.4095199999999997,621.0,3,5,324.5,1.055,1,-0.038,0.011000000000000001,0.003,-0.019,0.004,-0.006,-1.581,0.0,-0.095,0.0,-0.0,3.5,-1,-1.0,-1.0,0,78.9,100.0,1,primary,3,2,40.518303,-3.409357,1.355,78.9,1.0,0.0,0.0
3,19.73,79.3,40.518623,-3.409667,621.3,3,5,325.2,1.758,1,-0.036000000000000004,-0.046,0.003,-0.026000000000000002,-0.028999999999999998,-0.005,-1.5819999999999999,0.011000000000000001,-0.10099999999999999,0.737,0.036000000000000004,3.415,1,-1.0,-1.0,0,79.3,100.0,1,primary,3,2,40.518303,-3.409357,1.355,78.9,0.995,0.005,0.0
4,20.76,80.2,40.518786999999996,-3.40981,621.6,3,5,325.2,0.703,1,0.017,0.0,0.016,-0.013999999999999999,-0.017,0.009000000000000001,-1.585,0.019,-0.095,-0.33299999999999996,-0.025,3.4760000000000004,2,-1.0,-1.0,0,80.2,100.0,1,primary,3,1,40.518623,-3.409667,1.2109999999999999,80.2,0.836,0.013999999999999999,0.15
5,21.74,80.8,40.518951,-3.409955,622.0,3,5,324.5,0.703,1,0.023,0.013999999999999999,-0.038,0.021,-0.006999999999999999,-0.017,-1.5819999999999999,0.025,-0.09,-0.303,0.019,3.395,2,-1.0,-1.0,0,80.8,100.0,1,primary,3,1,40.518623,-3.409667,1.2109999999999999,80.2,0.8390000000000001,0.011000000000000001,0.15
6,22.79,81.6,40.519115,-3.410109,622.7,3,5,324.5,0.703,1,0.002,0.03,-0.013999999999999999,0.017,0.013000000000000001,-0.008,-1.5659999999999998,0.019,-0.092,-0.424,-0.003,3.43,1,-1.0,-1.0,0,81.6,100.0,1,primary,3,1,40.518951,-3.409955,1.14,81.6,0.836,0.013999999999999999,0.15
7,23.79,81.5,40.519283,-3.410268,622.7,3,5,324.5,0.0,1,0.005,-0.009000000000000001,-0.006,0.006999999999999999,-0.002,-0.006,-1.5619999999999998,0.005,-0.1,-0.374,-0.011000000000000001,3.41,2,-1.0,-1.0,0,81.5,100.0,1,primary,3,1,40.518951,-3.409955,1.14,81.6,0.8370000000000001,0.013000000000000001,0.15
8,24.74,82.5,40.519451000000004,-3.410447,622.9,4,5,323.1,1.406,1,0.026000000000000002,0.003,-0.017,0.016,0.003,-0.009000000000000001,-1.551,0.013000000000000001,-0.10099999999999999,-0.354,0.042,3.3569999999999998,2,-1.0,-1.0,0,82.5,100.0,1,primary,3,1,40.519283,-3.410268,1.709,80.9,0.8370000000000001,0.013000000000000001,0.15
9,25.76,80.9,40.519627,-3.4105879999999997,623.2,4,5,324.8,1.758,1,-0.006999999999999999,-0.024,-0.008,-0.018000000000000002,-0.022000000000000002,0.006999999999999999,-1.555,0.021,-0.1,-0.32299999999999995,0.040999999999999995,3.383,2,-1.0,-1.0,0,80.9,100.0,1,primary,3,1,40.519283,-3.410268,1.709,80.9,0.8370000000000001,0.013000000000000001,0.15
10,26.73,81.8,40.519787,-3.410732,623.3,4,5,324.5,1.406,1,-0.026000000000000002,-0.006,-0.013999999999999999,0.002,-0.0,-0.005,-1.558,0.028999999999999998,-0.091,-0.374,0.017,3.412,2,-1.0,-1.0,0,81.8,100.0,1,primary,3,1,40.519627,-3.4105879999999997,1.439,80.2,0.8370000000000001,0.013000000000000001,0.15
11,27.75,80.2,40.519946999999995,-3.410879,623.7,4,5,324.1,0.703,1,-0.048,0.028999999999999998,-0.004,-0.027000000000000003,0.025,0.006999999999999999,-1.578,0.004,-0.098,-0.434,0.024,3.3339999999999996,2,-1.0,-1.0,0,80.2,100.0,1,primary,3,1,40.519627,-3.4105879999999997,1.439,80.2,0.77,0.08,0.15
12,28.73,81.4,40.520103000000006,-3.411028,624.1,4,5,324.5,0.35200000000000004,1,-0.004,-0.012,0.027999999999999997,0.003,-0.025,0.018000000000000002,-1.5930000000000002,-0.004,-0.102,-0.485,-0.008,3.398,2,-1.0,-1.0,0,81.4,100.0,1,primary,3,1,40.519946999999995,-3.410879,1.079,81.4,0.826,0.024,0.15
13,29.74,85.1,40.520278999999995,-3.4111879999999997,624.6,4,5,325.2,1.055,1,0.026000000000000002,0.016,0.061,-0.036000000000000004,0.003,0.027000000000000003,-1.61,0.004,-0.098,-0.40399999999999997,0.042,3.273,2,-1.0,-1.0,0,85.1,100.0,1,primary,2,1,40.520278999999995,-3.411189,0.61,85.0,0.71,0.14,0.15
14,30.74,85.0,40.520443,-3.411345,625.1,4,5,324.5,0.703,1,-0.037000000000000005,0.004,-0.009000000000000001,-0.046,-0.002,-0.009000000000000001,-1.607,0.013999999999999999,-0.1,-0.414,0.018000000000000002,3.23,2,-1.0,-1.0,0,85.0,100.0,1,primary,2,1,40.520278999999995,-3.411189,0.61,85.0,0.6940000000000001,0.156,0.15
15,31.73,87.1,40.520610999999995,-3.41151,625.5,4,5,324.5,0.703,1,0.021,-0.027000000000000003,-0.031,0.065,-0.008,-0.027000000000000003,-1.601,0.024,-0.098,-0.40399999999999997,0.006999999999999999,3.2760000000000002,2,-1.0,-1.0,0,87.1,100.0,1,primary,2,1,40.520278999999995,-3.411189,0.61,85.0,0.6990000000000001,0.151,0.15
16,32.75,86.9,40.520786,-3.4116730000000004,626.0,4,5,324.5,0.0,1,-0.027000000000000003,0.006999999999999999,-0.012,-0.027000000000000003,-0.001,-0.022000000000000002,-1.581,0.017,-0.099,-0.364,0.027999999999999997,3.307,2,-1.0,-1.0,0,86.9,100.0,1,primary,2,1,40.520443,-3.411345,4.314,88.6,0.7070000000000001,0.14300000000000002,0.15
17,33.73,86.9,40.520965999999994,-3.41184,626.4,3,5,324.5,0.0,1,0.008,-0.026000000000000002,-0.006,0.0,-0.01,0.002,-1.585,0.015,-0.099,-0.33299999999999996,0.061,3.3110000000000004,2,-1.0,-1.0,0,86.9,100.0,1,primary,2,1,40.520443,-3.411345,4.314,88.6,0.7040000000000001,0.146,0.15
18,34.74,88.6,40.521141,-3.412009,626.4,3,5,324.5,0.0,1,-0.078,0.013000000000000001,-0.022000000000000002,-0.07200000000000001,0.006999999999999999,-0.033,-1.591,0.027999999999999997,-0.092,-0.354,0.055,3.346,2,-1.0,-1.0,0,88.6,100.0,1,primary,2,1,40.520443,-3.411345,4.314,88.6,0.705,0.145,0.15
19,35.74,88.1,40.521316999999996,-3.4121699999999997,627.3,3,5,325.2,0.703,1,0.063,0.027000000000000003,-0.013999999999999999,0.048,0.009000000000000001,-0.006999999999999999,-1.57,0.02,-0.09300000000000001,-0.32299999999999995,-0.001,3.312,2,-1.0,-1.0,0,88.1,100.0,1,primary,2,1,40.521316999999996,-3.4121699999999997,0.544,88.0,0.7120000000000001,0.138,0.15
20,36.73,88.0,40.521496,-3.4123379999999996,628.0,3,5,324.5,0.703,1,-0.01,0.031,-0.002,0.006,-0.003,-0.0,-1.567,0.027000000000000003,-0.087,-0.465,-0.027999999999999997,3.325,1,-1.0,-1.0,0,88.0,100.0,1,primary,2,1,40.521316999999996,-3.4121699999999997,0.544,88.0,0.7120000000000001,0.138,0.15
21,37.73,87.6,40.521671000000005,-3.4125120000000004,628.4,3,5,324.5,0.703,1,-0.032,0.012,0.031,-0.023,0.019,0.018000000000000002,-1.588,0.01,-0.095,-0.586,0.025,3.2510000000000003,1,-1.0,-1.0,0,87.6,100.0,1,primary,2,1,40.521496,-3.4123379999999996,1.5919999999999999,89.1,0.696,0.161,0.14300000000000002
22,38.75,89.1,40.521858,-3.412675,629.0,3,5,324.8,0.35200000000000004,1,0.002,-0.012,0.024,-0.016,-0.005,0.008,-1.594,0.013999999999999999,-0.09699999999999999,-0.525,0.006,3.318,2,-1.0,-1.0,0,89.1,100.0,1,primary,2,1,40.521496,-3.4123379999999996,1.5919999999999999,89.1,0.687,0.177,0.136
23,39.75,88.0,40.522034000000005,-3.4128410000000002,629.9,3,5,325.5,1.055,1,-0.015,0.003,-0.01,-0.004,-0.008,-0.008,-1.5919999999999999,0.022000000000000002,-0.09300000000000001,-0.354,0.024,3.3080000000000003,2,-1.0,-1.0,0,88.0,100.0,1,primary,2,1,40.521858,-3.412675,1.537,89.7,0.691,0.17800000000000002,0.131
24,40.75,89.7,40.522213,-3.413014,630.2,4,5,324.1,1.406,1,-0.036000000000000004,-0.004,-0.016,-0.032,-0.021,0.006999999999999999,-1.6030000000000002,0.028999999999999998,-0.08199999999999999,-0.222,-0.066,3.43,1,-1.0,-1.0,0,89.7,100.0,1,primary,2,1,40.521858,-3.412675,1.537,89.7,0.703,0.171,0.125
25,41.74,91.7,40.522408,-3.413188,631.1,4,5,325.2,1.055,1,0.002,-0.054000000000000006,0.027000000000000003,-0.024,-0.036000000000000004,0.018000000000000002,-1.611,0.028999999999999998,-0.063,-0.424,-0.044000000000000004,3.234,2,-1.0,-1.0,0,91.7,100.0,1,primary,2,1,40.522213,-3.413014,0.701,91.7,0.715,0.165,0.12
26,42.73,91.4,40.522591,-3.413359,632.4,4,5,325.2,1.055,1,0.006999999999999999,-0.03,-0.013999999999999999,0.003,-0.027999999999999997,-0.004,-1.614,0.04,-0.03,-0.7979999999999999,-0.024,3.364,2,-1.0,-1.0,0,91.4,100.0,1,primary,2,1,40.522408,-3.413188,2.121,93.2,0.7040000000000001,0.18,0.115
27,43.77,93.2,40.522746999999995,-3.413555,633.4,4,5,320.6,4.57,1,-0.048,0.012,-0.002,-0.021,0.013999999999999999,-0.003,-1.6119999999999999,0.006,-0.015,-0.97,-0.073,3.352,2,-1.0,-1.0,0,93.2,100.0,1,primary,2,1,40.522408,-3.413188,2.121,93.2,0.696,0.193,0.111
28,44.74,93.4,40.522934,-3.4137489999999997,634.5,4,5,319.9,5.273,1,-0.028999999999999998,-0.027000000000000003,0.006,-0.027000000000000003,-0.013999999999999999,-0.002,-1.6119999999999999,0.011000000000000001,0.016,-0.40399999999999997,0.12300000000000001,4.621,1,-1.0,-1.0,0,93.4,100.0,1,primary,2,1,40.522408,-3.413188,2.121,93.2,0.691,0.20199999999999999,0.107
29,45.74,94.0,40.523109000000005,-3.4139519999999997,635.2,3,5,317.8,2.812,1,0.045,0.026000000000000002,-0.001,0.033,-0.006,-0.006,-1.6,0.006,0.051,0.0,-0.0,3.448,0,-1.0,-1.0,0,94.0,100.0,1,primary,2,1,40.522934,-3.4137489999999997,0.963,94.0,0.701,0.196,0.10300000000000001
30,46.75,95.2,40.523281,-3.414165,636.6,3,5,316.8,3.1639999999999997,1,-0.114,0.01,-0.002,-0.03,-0.01,-0.017,-1.598,0.024,0.092,-0.182,-0.10300000000000001,3.4589999999999996,2,-1.0,-1.0,0,95.2,100.0,1,primary,2,1,40.523109000000005,-3.4139519999999997,0.885,95.2,0.71,0.19,0.1
31,47.74,96.7,40.523464000000004,-3.414392,637.3,3,5,314.6,3.1639999999999997,1,0.042,-0.016,-0.027000000000000003,0.021,-0.016,-0.034,-1.581,0.042,0.14,-0.40399999999999997,-0.099,3.355,2,-1.0,-1.0,0,96.7,100.0,1,primary,2,1,40.523281,-3.414165,1.218,96.7,0.7190000000000001,0.185,0.096
32,48.8,94.0,40.523621,-3.414627,638.7,3,5,310.8,5.977,1,-0.008,0.027000000000000003,0.008,-0.018000000000000002,0.026000000000000002,-0.017,-1.551,0.017,0.17600000000000002,-0.616,-0.022000000000000002,3.306,1,-1.0,-1.0,0,94.0,100.0,1,primary,2,1,40.523281,-3.414165,1.218,96.7,0.7140000000000001,0.193,0.09300000000000001
33,49.74,92.5,40.523765999999995,-3.414858,639.3,3,5,309.0,5.625,1,0.046,0.004,-0.0,0.036000000000000004,0.001,-0.017,-1.528,0.01,0.201,-0.657,-0.015,3.345,1,-1.0,-1.0,0,92.5,90.0,3,tertiary_link,1,1,40.523621,-3.414628,0.958,92.5,0.705,0.205,0.09
34,50.75,89.1,40.523907,-3.4150940000000003,639.6,3,5,306.9,3.867,1,-0.03,-0.017,-0.012,-0.006999999999999999,-0.008,-0.013999999999999999,-1.515,0.005,0.231,-0.768,0.044000000000000004,3.388,2,-1.0,-1.0,0,89.1,90.0,3,tertiary_link,1,1,40.523765999999995,-3.414858,0.8170000000000001,89.1,0.6970000000000001,0.21600000000000003,0.087
35,51.75,87.2,40.524035999999995,-3.4153290000000003,639.8,3,5,305.2,3.867,1,-0.002,0.009000000000000001,-0.033,0.011000000000000001,0.013999999999999999,-0.013999999999999999,-1.505,0.004,0.262,-0.687,0.027999999999999997,3.373,2,-1.0,-1.0,0,87.2,90.0,3,tertiary_link,1,1,40.523907,-3.4150949999999995,0.8640000000000001,87.2,0.69,0.225,0.085
36,52.74,86.1,40.524155,-3.4155620000000004,640.2,3,5,303.0,3.867,1,0.017,0.008,-0.016,0.015,0.006,-0.005,-1.5030000000000001,0.005,0.28600000000000003,-0.778,0.013999999999999999,3.3510000000000004,2,-1.0,-1.0,0,86.1,90.0,3,tertiary_link,1,1,40.524035999999995,-3.4153290000000003,0.8240000000000001,86.1,0.682,0.235,0.083
37,53.74,84.1,40.524269,-3.41581,639.9,3,5,300.9,4.218999999999999,1,-0.021,0.025,0.013000000000000001,-0.019,0.013000000000000001,0.001,-1.4969999999999999,-0.002,0.31,-0.7979999999999999,-0.005,3.426,2,-1.0,-1.0,0,84.1,90.0,3,tertiary_link,1,1,40.524155,-3.4155620000000004,0.9620000000000001,84.1,0.675,0.245,0.081
38,54.79,82.6,40.524376000000004,-3.41605,639.9,3,5,299.2,3.867,1,0.013999999999999999,0.0,0.045,-0.004,0.005,0.04,-1.516,-0.017,0.32,-0.768,0.023,3.28,2,-1.0,-1.0,0,82.6,90.0,3,tertiary_link,1,1,40.524269,-3.415811,2.032,82.1,0.6679999999999999,0.253,0.079
39,55.77,82.1,40.524475,-3.416282,639.9,3,5,298.1,2.812,1,0.015,-0.024,0.035,0.013000000000000001,-0.018000000000000002,0.040999999999999995,-1.548,-0.026000000000000002,0.32799999999999996,-0.515,0.040999999999999995,3.227,1,-1.0,-1.0,0,82.1,90.0,3,tertiary_link,1,1,40.524269,-3.415811,2.032,82.1,0.662,0.261,0.077
40,56.73,81.6,40.524574,-3.416522,640.1,3,5,296.7,2.461,1,0.002,-0.001,-0.018000000000000002,0.025,-0.016,-0.003,-1.5590000000000002,-0.006,0.353,-0.28300000000000003,0.047,3.272,2,-1.0,-1.0,0,81.6,100.0,1,primary,2,1,40.524574,-3.416522,0.742,83.6,0.667,0.258,0.075
41,57.76,83.6,40.524654,-3.4167680000000002,639.9,3,5,293.9,4.218999999999999,1,0.04,-0.045,-0.026000000000000002,0.009000000000000001,-0.031,-0.009000000000000001,-1.546,0.023,0.387,-0.263,0.05,3.3560000000000003,1,-1.0,-1.0,0,83.6,100.0,1,primary,2,1,40.524574,-3.416522,0.742,83.6,0.6759999999999999,0.251,0.073
42,58.74,83.3,40.524731,-3.4170260000000003,639.9,3,5,290.7,5.977,1,-0.013999999999999999,0.028999999999999998,0.03,-0.017,0.032,0.02,-1.5519999999999998,0.013999999999999999,0.41200000000000003,-0.515,0.040999999999999995,3.818,1,-1.0,-1.0,0,83.3,100.0,1,primary,2,1,40.524654,-3.4167680000000002,1.8940000000000001,84.5,0.682,0.247,0.07200000000000001
43,59.75,84.5,40.524796,-3.417296,639.6,3,5,289.3,4.57,1,0.005,0.05,0.017,0.052000000000000005,0.045,0.017,-1.5619999999999998,-0.006,0.40399999999999997,0.0,-0.0,3.43,0,-1.0,-1.0,0,84.5,100.0,1,primary,2,1,40.524654,-3.4167680000000002,1.8940000000000001,84.5,0.688,0.242,0.07
44,60.75,86.9,40.524853,-3.417555,639.4,3,5,288.6,2.109,1,-0.013999999999999999,-0.024,0.042,-0.018000000000000002,-0.02,0.036000000000000004,-1.584,-0.012,0.40299999999999997,-0.141,-0.006,3.969,2,-1.0,-1.0,0,86.9,100.0,1,primary,2,1,40.524796,-3.417296,1.63,89.6,0.6940000000000001,0.237,0.069
45,61.74,89.6,40.524925,-3.4178309999999996,639.0,3,5,287.6,1.758,1,-0.001,0.008,-0.018000000000000002,0.012,-0.003,-0.001,-1.594,0.006,0.405,-0.313,-0.006,3.429,2,-1.0,-1.0,0,89.6,100.0,1,primary,2,1,40.524796,-3.417296,1.63,89.6,0.701,0.23199999999999998,0.067
46,62.75,92.5,40.524978999999995,-3.418113,639.0,3,5,286.5,2.109,1,-0.017,0.026000000000000002,-0.013000000000000001,-0.015,0.02,-0.025,-1.585,0.006,0.396,-0.28300000000000003,0.03,3.339,2,-1.0,-1.0,0,92.5,100.0,1,primary,2,1,40.524796,-3.417296,1.63,89.6,0.7070000000000001,0.22699999999999998,0.066
47,63.75,93.2,40.525047,-3.4184010000000002,638.8,3,5,285.8,1.758,1,-0.006999999999999999,0.008,-0.032,0.009000000000000001,0.005,-0.027999999999999997,-1.556,0.01,0.376,-0.23199999999999998,0.053,3.378,2,-1.0,-1.0,0,93.2,80.0,1,primary,1,1,40.524925,-3.4178309999999996,3.011,94.6,0.713,0.223,0.064
48,64.73,94.6,40.525116,-3.4186949999999996,638.2,3,5,285.1,1.406,1,-0.011000000000000001,-0.018000000000000002,-0.015,-0.036000000000000004,0.01,-0.013999999999999999,-1.544,0.006,0.363,-0.121,0.033,3.4130000000000003,2,-1.0,-1.0,0,94.6,80.0,1,primary,1,1,40.524925,-3.4178309999999996,3.011,94.6,0.7190000000000001,0.218,0.063
49,65.75,95.8,40.525180999999996,-3.4189910000000006,637.1,3,5,285.8,0.703,1,-0.037000000000000005,0.025,-0.001,-0.033,0.022000000000000002,-0.013000000000000001,-1.527,0.011000000000000001,0.335,-0.04,0.035,3.465,2,-1.0,-1.0,0,95.8,80.0,1,primary,1,1,40.525180999999996,-3.4189910000000006,0.752,93.5,0.71,0.213,0.076
50,66.75,93.5,40.525249,-3.419288,636.6,3,5,286.5,1.406,1,-0.016,0.027000000000000003,0.017,-0.025,0.025,0.017,-1.521,0.001,0.299,0.182,0.038,3.452,2,-1.0,-1.0,0,93.5,80.0,1,primary,1,1,40.525180999999996,-3.4189910000000006,0.752,93.5,0.7020000000000001,0.209,0.08900000000000001
51,67.76,93.3,40.525321999999996,-3.4195800000000003,635.8,3,5,287.6,1.758,1,-0.091,0.036000000000000004,0.052000000000000005,-0.092,0.032,0.019,-1.544,-0.006,0.254,0.40399999999999997,0.038,3.412,2,-1.0,-1.0,0,93.3,80.0,1,primary,1,1,40.525249,-3.419288,0.774,93.3,0.693,0.205,0.102
52,68.74,94.1,40.525391,-3.41986,635.4,3,5,289.3,2.812,1,-0.071,0.009000000000000001,0.006,-0.061,0.023,-0.005,-1.5419999999999998,-0.005,0.212,0.465,0.045,3.465,2,-1.0,-1.0,0,94.1,80.0,1,primary,1,1,40.525321999999996,-3.4195800000000003,1.004,94.1,0.6809999999999999,0.20600000000000002,0.114
53,69.81,93.8,40.525471,-3.420149,634.8,3,5,291.1,3.516,1,-0.065,0.002,-0.004,-0.069,0.013000000000000001,-0.026000000000000002,-1.5219999999999998,-0.02,0.154,0.465,0.027999999999999997,3.5189999999999997,2,-1.0,-1.0,0,93.8,80.0,1,primary,1,1,40.525321999999996,-3.4195800000000003,1.004,94.1,0.664,0.21100000000000002,0.125
54,70.73,93.5,40.525555,-3.4204519999999996,634.1,4,5,293.2,3.867,1,0.023,-0.023,-0.004,0.015,-0.027000000000000003,-0.013000000000000001,-1.5090000000000001,-0.013999999999999999,0.115,0.465,0.037000000000000005,3.367,2,-1.0,-1.0,0,93.5,80.0,1,primary,1,1,40.525471,-3.420149,2.31,92.0,0.648,0.217,0.136
55,71.74,92.0,40.525653999999996,-3.420718,633.5,4,5,294.6,3.516,1,-0.033,-0.025,-0.001,-0.08,-0.035,-0.024,-1.5119999999999998,-0.022000000000000002,0.077,0.424,0.017,3.429,2,6.68,0.26,1,92.0,80.0,1,primary,1,1,40.525471,-3.420149,2.31,92.0,0.628,0.21899999999999997,0.153
56,72.74,91.3,40.525757,-3.4209940000000003,633.2,4,5,296.7,3.516,1,0.034,0.043,0.013000000000000001,-0.01,0.048,0.022000000000000002,-1.5190000000000001,-0.04,0.027000000000000003,0.414,-0.001,3.385,2,-1.0,-1.0,0,91.3,80.0,1,primary,1,1,40.525471,-3.420149,2.31,92.0,0.618,0.217,0.165
57,73.75,91.8,40.525859999999994,-3.4212519999999995,632.8,4,5,299.5,4.922,1,-0.016,0.048,0.022000000000000002,-0.004,0.039,0.023,-1.55,-0.059000000000000004,-0.03,0.34299999999999997,-0.037000000000000005,3.389,2,-1.0,-1.0,0,91.8,100.0,3,primary_link,1,1,40.525757,-3.4209949999999996,0.716,91.8,0.613,0.213,0.174
58,74.76,92.9,40.525982,-3.4215129999999996,632.1,4,5,302.7,5.977,1,-0.004,0.01,0.033,-0.018000000000000002,0.012,0.018000000000000002,-1.5730000000000002,-0.07200000000000001,-0.09300000000000001,0.374,-0.04,3.2969999999999997,2,-1.0,-1.0,0,92.9,100.0,1,primary,2,1,40.525859999999994,-3.4212519999999995,1.6680000000000001,94.1,0.617,0.21,0.17300000000000001
59,75.76,94.1,40.526108,-3.4217480000000005,631.8,4,5,305.9,6.327999999999999,1,-0.021,-0.01,-0.024,-0.012,-0.004,-0.028999999999999998,-1.571,-0.07400000000000001,-0.149,0.424,0.001,3.3539999999999996,2,-1.0,-1.0,0,94.1,100.0,1,primary,2,1,40.525859999999994,-3.4212519999999995,1.6680000000000001,94.1,0.615,0.213,0.172
60,76.74,93.4,40.526249,-3.421986,631.1,4,5,309.4,6.68,1,-0.017,-0.013999999999999999,-0.002,-0.02,-0.008,-0.02,-1.561,-0.062,-0.195,0.485,0.069,3.338,2,-1.0,-1.0,0,93.4,90.0,1,primary,2,1,40.526108,-3.4217480000000005,2.029,94.6,0.615,0.21600000000000003,0.17
61,77.76,94.6,40.526398,-3.422222,630.4,4,5,310.8,4.922,1,-0.009000000000000001,-0.038,-0.022000000000000002,-0.025,-0.013000000000000001,-0.022000000000000002,-1.5490000000000002,-0.055999999999999994,-0.237,0.485,0.046,3.3989999999999996,2,-1.0,-1.0,0,94.6,90.0,1,primary,2,1,40.526108,-3.4217480000000005,2.029,94.6,0.608,0.22399999999999998,0.168
62,78.79,96.0,40.526573,-3.42245,629.7,4,5,313.9,4.57,1,-0.008,-0.002,-0.037000000000000005,-0.025,-0.015,-0.031,-1.528,-0.061,-0.28600000000000003,0.505,-0.009000000000000001,3.367,2,-1.0,-1.0,0,96.0,90.0,1,primary,2,1,40.526108,-3.4217480000000005,2.029,94.6,0.597,0.23199999999999998,0.17
63,79.79,95.8,40.526740999999994,-3.4226739999999998,629.1,4,5,316.4,5.625,1,-0.004,-0.017,-0.02,-0.004,-0.018000000000000002,-0.01,-1.514,-0.062,-0.32799999999999996,0.475,-0.077,3.355,2,-1.0,-1.0,0,95.8,90.0,1,primary,2,1,40.526573,-3.42245,1.5759999999999998,94.5,0.594,0.23600000000000002,0.17
64,80.78,94.5,40.526917,-3.422881,628.5,4,5,318.9,4.922,1,-0.019,-0.028999999999999998,0.004,-0.005,-0.02,0.005,-1.518,-0.05,-0.36200000000000004,0.545,-0.071,3.3680000000000003,2,-1.0,-1.0,0,94.5,90.0,1,primary,2,1,40.526573,-3.42245,1.5759999999999998,94.5,0.62,0.23800000000000002,0.142
65,81.74,93.3,40.527096,-3.423076,627.4,4,5,321.3,4.922,1,0.028999999999999998,0.002,0.012,0.013000000000000001,-0.001,0.013999999999999999,-1.538,-0.054000000000000006,-0.40299999999999997,0.444,-0.047,3.384,2,-1.0,-1.0,0,93.3,90.0,1,primary,2,1,40.526917,-3.422881,1.93,93.7,0.608,0.248,0.14400000000000002
66,82.73,93.7,40.52729,-3.423254,627.3,4,5,324.1,5.273,1,-0.039,-0.027000000000000003,-0.018000000000000002,-0.021,-0.001,0.0,-1.547,-0.066,-0.451,0.485,-0.005,3.392,2,-1.0,-1.0,0,93.7,90.0,1,primary,2,1,40.526917,-3.422881,1.93,93.7,0.602,0.252,0.146
67,83.76,95.3,40.527489,-3.423434,626.4,4,5,327.0,5.625,1,-0.013999999999999999,0.006,0.006,-0.032,-0.006999999999999999,0.006,-1.568,-0.057,-0.485,0.495,0.037000000000000005,3.409,2,-1.0,-1.0,0,95.3,90.0,1,primary,2,1,40.526917,-3.422881,1.93,93.7,0.594,0.26,0.146
68,84.77,96.9,40.527702000000005,-3.4236,626.3,4,5,329.4,5.273,1,0.025,-0.069,0.006,-0.004,-0.034,0.006999999999999999,-1.565,-0.065,-0.519,0.626,0.032,3.346,2,-1.0,-1.0,0,96.9,90.0,1,primary,2,1,40.526917,-3.422881,1.93,93.7,0.58,0.26899999999999996,0.151
69,85.73,98.3,40.52792,-3.4237580000000003,626.1,4,5,331.5,4.57,1,-0.016,-0.077,-0.036000000000000004,-0.021,-0.055,-0.032,-1.56,-0.039,-0.525,0.7070000000000001,0.04,3.355,2,-1.0,-1.0,0,98.3,90.0,1,primary,2,1,40.526917,-3.422881,1.93,93.7,0.569,0.278,0.154
70,86.76,98.8,40.528141,-3.423922,625.4,4,5,332.2,2.812,1,-0.018000000000000002,-0.031,-0.003,0.002,-0.028999999999999998,-0.013999999999999999,-1.551,-0.035,-0.525,0.545,-0.027999999999999997,3.315,2,-1.0,-1.0,0,98.8,90.0,1,primary,2,1,40.526917,-3.422881,1.93,93.7,0.556,0.28800000000000003,0.156
71,87.75,98.9,40.528366,-3.424085,625.3,4,5,332.9,1.406,1,0.025,-0.018000000000000002,-0.008,0.018000000000000002,-0.024,0.002,-1.551,-0.049,-0.532,0.384,-0.027000000000000003,3.322,2,-1.0,-1.0,0,98.9,90.0,1,primary,2,1,40.52729,-3.423255,9.873,95.7,0.55,0.292,0.159
72,88.76,99.5,40.528591,-3.42423,625.0,4,5,333.6,1.406,1,0.027000000000000003,-0.023,-0.037000000000000005,0.003,-0.023,-0.033,-1.526,-0.042,-0.53,0.465,0.01,3.333,2,-1.0,-1.0,0,99.5,90.0,1,primary,2,1,40.52729,-3.423255,9.873,95.7,0.55,0.282,0.168
73,89.74,98.4,40.52882,-3.4243650000000003,624.5,4,5,334.3,1.406,1,0.004,-0.08800000000000001,-0.004,-0.02,-0.09300000000000001,-0.01,-1.507,0.009000000000000001,-0.496,0.545,0.03,3.384,2,-1.0,-1.0,0,98.4,90.0,1,primary,2,1,40.52729,-3.423255,9.873,95.7,0.544,0.28600000000000003,0.17
74,90.77,96.9,40.529037,-3.4245050000000004,623.7,4,5,332.6,1.758,1,-0.019,0.019,0.004,-0.01,0.009000000000000001,0.008,-1.496,0.006,-0.466,0.455,-0.01,3.352,2,-1.0,-1.0,0,96.9,90.0,1,primary,2,1,40.52729,-3.423255,9.873,95.7,0.535,0.29,0.17600000000000002
75,91.73,95.5,40.529251,-3.4246519999999996,622.7,4,5,331.9,2.461,1,-0.012,-0.024,0.047,-0.053,0.013999999999999999,0.042,-1.504,-0.015,-0.446,0.293,-0.045,3.3280000000000003,2,-1.0,-1.0,0,95.5,90.0,1,primary,2,1,40.52729,-3.423255,9.873,95.7,0.532,0.29,0.17800000000000002
76,92.73,95.7,40.529465,-3.4247989999999997,622.1,4,5,331.2,1.406,1,0.19399999999999998,-0.015,0.047,0.011000000000000001,-0.045,0.084,-1.5190000000000001,0.001,-0.413,0.10099999999999999,-0.037000000000000005,3.361,2,-1.0,-1.0,0,95.7,90.0,1,primary,2,1,40.52729,-3.423255,9.873,95.7,0.532,0.29100000000000004,0.177
77,93.78,96.0,40.529675,-3.42495,622.0,4,5,330.1,1.758,1,-0.049,0.009000000000000001,-0.006999999999999999,-0.035,0.002,0.013000000000000001,-1.5530000000000002,0.001,-0.38299999999999995,-0.121,0.004,3.365,2,-1.0,-1.0,0,96.0,90.0,1,primary,2,1,40.529465,-3.4248,1.8319999999999999,97.5,0.5329999999999999,0.287,0.18
78,94.73,97.5,40.529884,-3.4251120000000004,621.4,4,5,329.1,2.109,1,-0.002,-0.019,0.018000000000000002,-0.001,-0.021,0.005,-1.555,0.01,-0.353,-0.091,0.027999999999999997,3.339,2,-1.0,-1.0,0,97.5,90.0,1,primary,2,1,40.529465,-3.4248,1.8319999999999999,97.5,0.529,0.28600000000000003,0.18600000000000003
79,95.74,98.6,40.530083000000005,-3.4252730000000002,620.6,4,5,327.7,2.461,1,0.057999999999999996,-0.034,-0.013000000000000001,0.045,-0.043,0.002,-1.551,0.008,-0.309,-0.182,-0.005,3.391,2,-1.0,-1.0,0,98.6,90.0,1,primary,2,1,40.529884,-3.4251120000000004,1.959,100.3,0.529,0.28600000000000003,0.185
80,96.73,100.3,40.530285,-3.4254510000000002,620.5,4,5,327.0,2.109,1,0.091,-0.044000000000000004,-0.055999999999999994,0.064,-0.035,-0.037000000000000005,-1.534,0.015,-0.273,-0.263,-0.008,3.3739999999999997,2,-1.0,-1.0,0,100.3,90.0,1,primary,2,1,40.529884,-3.4251120000000004,1.959,100.3,0.516,0.28300000000000003,0.2
81,97.75,101.3,40.530502,-3.425645,619.6,4,5,324.8,2.812,1,-0.026000000000000002,-0.02,-0.051,0.004,-0.005,-0.034,-1.508,0.019,-0.22699999999999998,-0.253,0.025,3.417,2,-1.0,-1.0,0,101.3,90.0,1,primary,2,1,40.530285,-3.4254519999999995,0.887,101.3,0.519,0.272,0.209
82,98.73,97.2,40.530693,-3.4258330000000004,619.3,4,5,322.0,4.922,1,-0.102,0.005,0.003,-0.057,0.012,-0.021,-1.51,0.027999999999999997,-0.191,-0.32299999999999995,0.032,3.448,2,-1.0,-1.0,0,97.2,90.0,1,primary,2,1,40.530285,-3.4254519999999995,0.887,101.3,0.525,0.264,0.21100000000000002
83,99.73,95.5,40.530884,-3.4260300000000004,618.5,4,5,320.3,4.57,1,0.001,0.05,0.025,-0.028999999999999998,0.045,0.005,-1.5119999999999998,0.01,-0.161,-0.475,0.017,3.435,2,-1.0,-1.0,0,95.5,90.0,1,primary,2,1,40.530285,-3.4254519999999995,0.887,101.3,0.526,0.26,0.214
84,100.74,94.7,40.531055,-3.426232,617.7,3,5,318.9,3.1639999999999997,1,-0.026000000000000002,0.004,0.042,-0.024,0.01,0.039,-1.546,0.006,-0.13,-0.465,-0.013000000000000001,3.4219999999999997,2,-1.0,-1.0,0,94.7,90.0,1,primary,2,1,40.530285,-3.4254519999999995,0.887,101.3,0.514,0.266,0.22
85,101.77,92.6,40.531231,-3.4264309999999996,617.2,4,5,317.5,2.812,1,-0.035,-0.021,-0.004,-0.032,-0.004,0.008,-1.571,0.015,-0.095,-0.354,0.048,3.38,2,-1.0,-1.0,0,92.6,90.0,1,primary,2,1,40.530502,-3.425645,7.558,100.7,0.51,0.268,0.222
86,102.73,97.5,40.531406,-3.426656,617.3,4,5,316.1,2.812,1,0.11,-0.037000000000000005,-0.055999999999999994,0.063,-0.019,-0.008,-1.587,0.016,-0.067,-0.414,0.025,3.37,2,-1.0,-1.0,0,97.5,90.0,1,primary,2,1,40.530502,-3.425645,7.558,100.7,0.518,0.258,0.22399999999999998
87,103.74,98.0,40.531566999999995,-3.4268870000000002,617.6,4,5,314.3,3.1639999999999997,1,-0.045,-0.002,0.02,-0.054000000000000006,0.001,0.006,-1.5930000000000002,0.018000000000000002,-0.037000000000000005,-0.34299999999999997,0.035,3.3989999999999996,2,-1.0,-1.0,0,98.0,90.0,1,primary,2,1,40.530502,-3.425645,7.558,100.7,0.525,0.248,0.22699999999999998
88,104.78,99.2,40.531742,-3.4271260000000003,617.9,3,5,312.5,3.516,1,-0.039,-0.003,0.0,-0.046,-0.004,-0.015,-1.597,0.012,-0.009000000000000001,-0.414,0.027999999999999997,3.42,2,-1.0,-1.0,0,99.2,90.0,1,primary,2,1,40.530502,-3.425645,7.558,100.7,0.525,0.24,0.235
89,105.77,100.7,40.531909999999996,-3.427379,618.0,3,5,310.8,3.516,1,-0.035,0.008,-0.001,-0.036000000000000004,-0.004,-0.006,-1.588,0.019,0.023,-0.465,-0.002,3.449,2,-1.0,-1.0,0,100.7,90.0,1,primary,2,1,40.530502,-3.425645,7.558,100.7,0.508,0.242,0.251
90,106.74,99.6,40.532047,-3.427625,618.2,4,5,308.3,4.218999999999999,1,-0.037000000000000005,0.005,-0.03,-0.031,0.006999999999999999,-0.021,-1.5919999999999999,0.023,0.047,-0.535,-0.01,3.362,2,-1.0,-1.0,0,99.6,90.0,1,primary,2,1,40.530502,-3.425645,7.558,100.7,0.489,0.249,0.263
91,107.74,99.6,40.5322,-3.427883,619.0,4,5,306.6,4.218999999999999,1,-0.02,0.045,-0.011000000000000001,-0.019,0.039,-0.006,-1.5959999999999999,-0.003,0.063,-0.6459999999999999,0.013000000000000001,3.373,2,-1.0,-1.0,0,99.6,90.0,1,primary,2,1,40.530502,-3.425645,7.558,100.7,0.47200000000000003,0.259,0.27
92,108.75,100.1,40.532348999999996,-3.428152,619.7,4,5,305.5,2.812,1,-0.027000000000000003,0.0,-0.001,-0.027999999999999997,-0.008,0.001,-1.6030000000000002,0.006,0.079,-0.414,0.085,3.3680000000000003,2,-1.0,-1.0,0,100.1,90.0,1,primary,2,1,40.531909999999996,-3.427379,5.617000000000001,100.3,0.45399999999999996,0.259,0.28600000000000003
93,109.74,99.3,40.532497,-3.4284169999999996,620.5,4,5,305.2,1.406,1,-0.009000000000000001,-0.013999999999999999,0.02,-0.015,-0.027000000000000003,0.006,-1.61,0.027999999999999997,0.111,-0.162,0.039,3.358,2,-1.0,-1.0,0,99.3,90.0,1,primary,2,1,40.531909999999996,-3.427379,5.617000000000001,100.3,0.45299999999999996,0.249,0.298
94,110.77,101.8,40.532639,-3.428717,621.7,4,5,302.3,3.1639999999999997,1,-0.006999999999999999,0.023,-0.022000000000000002,-0.016,0.015,-0.021,-1.607,0.032,0.142,-0.081,0.022000000000000002,3.3139999999999996,2,-1.0,-1.0,0,101.8,90.0,1,primary,2,1,40.531909999999996,-3.427379,5.617000000000001,100.3,0.456,0.239,0.305
95,111.74,100.3,40.532771999999994,-3.428985,623.5,4,5,299.9,5.273,1,0.026000000000000002,0.013000000000000001,-0.02,0.002,0.013000000000000001,-0.0,-1.599,0.021,0.165,-0.131,0.026000000000000002,3.34,2,-1.0,-1.0,0,100.3,90.0,1,primary,2,1,40.531909999999996,-3.427379,5.617000000000001,100.3,0.45899999999999996,0.23,0.311
96,112.73,100.2,40.53289,-3.4292769999999995,624.5,3,5,298.1,4.218999999999999,1,-0.001,0.024,-0.024,-0.006,0.028999999999999998,-0.013999999999999999,-1.599,0.02,0.19,-0.212,0.005,3.3680000000000003,2,-1.0,-1.0,0,100.2,90.0,1,primary,2,1,40.531909999999996,-3.427379,5.617000000000001,100.3,0.462,0.221,0.317
97,113.77,100.1,40.532996999999995,-3.4295660000000003,625.7,4,5,296.0,3.867,1,-0.006999999999999999,0.017,-0.024,-0.009000000000000001,0.019,-0.02,-1.5959999999999999,0.011000000000000001,0.207,-0.374,0.004,3.335,2,-1.0,-1.0,0,100.1,90.0,1,primary,2,1,40.532771999999994,-3.428985,2.43,100.1,0.466,0.21100000000000002,0.32299999999999995
98,114.75,100.1,40.533103999999994,-3.4298610000000003,626.6,4,5,296.0,2.109,1,0.011000000000000001,0.001,-0.057999999999999996,-0.008,0.002,-0.048,-1.5659999999999998,0.013000000000000001,0.22699999999999998,-0.34299999999999997,0.026000000000000002,3.3710000000000004,2,-1.0,-1.0,0,100.1,90.0,1,primary,2,1,40.532771999999994,-3.428985,2.43,100.1,0.47100000000000003,0.201,0.32799999999999996
99,115.75,97.3,40.533198999999996,-3.4301589999999997,627.7,3,5,292.9,3.1639999999999997,1,0.009000000000000001,0.0,-0.032,-0.001,0.011000000000000001,-0.032,-1.527,0.006,0.242,-0.34299999999999997,0.04,3.437,2,-1.0,-1.0,0,97.3,90.0,1,primary,2,1,40.533103999999994,-3.4298610000000003,2.134,93.6,0.483,0.192,0.325
100,116.79,93.6,40.533287,-3.430444,628.4,3,5,291.1,4.922,1,0.013000000000000001,0.001,0.027999999999999997,-0.003,-0.004,0.023,-1.526,0.01,0.261,-0.364,0.025,3.4219999999999997,2,-1.0,-1.0,0,93.6,90.0,1,primary,2,1,40.533103999999994,-3.4298610000000003,2.134,93.6,0.488,0.19,0.322
101,117.74,90.4,40.533359999999995,-3.4307230000000004,629.6,3,5,289.7,3.1639999999999997,1,-0.039,-0.008,0.052000000000000005,-0.038,0.008,0.045,-1.554,0.012,0.27399999999999997,-0.374,0.027000000000000003,3.397,2,-1.0,-1.0,0,90.4,90.0,1,primary,2,1,40.533103999999994,-3.4298610000000003,2.134,93.6,0.491,0.19,0.319
102,118.75,91.3,40.533432,-3.4310050000000003,630.9,3,5,288.3,2.812,1,0.006999999999999999,0.02,0.034,-0.023,0.02,0.036000000000000004,-1.579,-0.002,0.285,-0.40399999999999997,0.039,3.315,2,-1.0,-1.0,0,91.3,90.0,1,primary,2,1,40.533359999999995,-3.4307230000000004,2.336,91.4,0.489,0.19,0.321
103,119.78,91.4,40.533493,-3.431288,632.0,4,5,286.5,3.1639999999999997,1,0.012,-0.015,-0.018000000000000002,0.025,-0.006,0.003,-1.5819999999999999,-0.002,0.297,-0.374,0.03,3.325,2,-1.0,-1.0,0,91.4,90.0,1,primary,2,1,40.533359999999995,-3.4307230000000004,2.336,91.4,0.489,0.18899999999999997,0.32299999999999995
104,120.75,89.7,40.533561999999996,-3.431557,633.0,4,5,285.1,3.1639999999999997,1,-0.03,-0.005,0.006999999999999999,-0.032,0.005,-0.005,-1.581,0.006999999999999999,0.31,-0.354,0.044000000000000004,3.3489999999999998,2,-1.0,-1.0,0,89.7,90.0,1,primary,2,1,40.533359999999995,-3.4307230000000004,2.336,91.4,0.489,0.188,0.32299999999999995
105,121.79,89.8,40.533615000000005,-3.4318489999999997,634.3,4,5,283.4,3.1639999999999997,1,-0.018000000000000002,0.013999999999999999,-0.01,-0.013999999999999999,0.004,0.015,-1.591,0.003,0.32299999999999995,-0.354,0.037000000000000005,3.318,2,-1.0,-1.0,0,89.8,90.0,1,primary,2,1,40.533561999999996,-3.4315580000000003,1.354,89.8,0.489,0.188,0.32299999999999995
106,122.78,90.2,40.533669,-3.4321269999999995,635.8,4,5,281.6,3.516,1,-0.019,0.004,-0.028999999999999998,0.009000000000000001,0.001,-0.021,-1.5830000000000002,0.003,0.33299999999999996,-0.32299999999999995,0.025,3.467,2,-1.0,-1.0,0,90.2,90.0,1,primary,2,1,40.533561999999996,-3.4315580000000003,1.354,89.8,0.48700000000000004,0.188,0.325
107,123.76,89.2,40.53371,-3.4324209999999997,636.8,4,5,280.2,3.1639999999999997,1,0.033,-0.006,0.027999999999999997,0.01,-0.006999999999999999,0.019,-1.5830000000000002,0.008,0.341,-0.424,0.008,3.503,2,-1.0,-1.0,0,89.2,90.0,1,primary,2,1,40.533669,-3.4321269999999995,0.894,89.2,0.486,0.18899999999999997,0.325
108,124.78,88.0,40.533749,-3.4326839999999996,638.0,4,5,278.8,2.812,1,-0.01,-0.011000000000000001,0.024,-0.033,0.008,0.01,-1.6019999999999999,0.003,0.34700000000000003,-0.414,0.019,3.4730000000000003,2,-1.0,-1.0,0,88.0,90.0,1,primary,2,1,40.53371,-3.4324220000000003,1.028,88.0,0.49,0.19,0.32
109,125.75,89.6,40.533775,-3.432975,639.3,4,5,277.0,3.1639999999999997,1,0.019,0.027000000000000003,-0.033,0.017,0.021,-0.016,-1.601,0.002,0.355,-0.34299999999999997,0.059000000000000004,3.4339999999999997,2,-1.0,-1.0,0,89.6,90.0,1,primary,2,1,40.53371,-3.4324220000000003,1.028,88.0,0.49200000000000005,0.193,0.315
110,126.75,89.4,40.533798,-3.433267,640.2,4,5,275.6,3.1639999999999997,1,0.003,0.016,-0.005,0.018000000000000002,0.006999999999999999,-0.01,-1.591,0.004,0.363,-0.374,0.034,3.4589999999999996,2,-1.0,-1.0,0,89.4,90.0,1,primary,2,1,40.53371,-3.4324220000000003,1.028,88.0,0.502,0.193,0.305
111,127.77,89.2,40.533813,-3.433556,641.4,4,5,273.9,3.1639999999999997,1,0.021,-0.017,-0.004,0.005,-0.013000000000000001,-0.002,-1.589,0.004,0.36700000000000005,-0.444,0.023,3.4730000000000003,2,-1.0,-1.0,0,89.2,90.0,1,primary,2,1,40.53371,-3.4324220000000003,1.028,88.0,0.512,0.19399999999999998,0.294
112,128.8,89.8,40.533825,-3.4338550000000003,642.9,4,5,272.5,3.1639999999999997,1,-0.026000000000000002,0.015,-0.018000000000000002,-0.008,0.031,-0.012,-1.58,-0.008,0.359,-0.424,0.035,3.4619999999999997,2,-1.0,-1.0,0,89.8,90.0,1,primary,2,1,40.533775,-3.432975,6.596,87.5,0.515,0.195,0.29
113,129.73,88.5,40.533836,-3.434132,643.5,4,5,272.1,1.758,1,-0.013999999999999999,0.021,0.02,0.004,0.019,0.003,-1.574,-0.009000000000000001,0.34600000000000003,-0.40399999999999997,0.037000000000000005,3.4560000000000004,2,-1.0,-1.0,0,88.5,90.0,1,primary,2,1,40.533775,-3.432975,6.596,87.5,0.5379999999999999,0.18899999999999997,0.273
114,130.75,88.1,40.533840000000005,-3.434426,644.6,4,5,271.8,0.703,1,0.018000000000000002,-0.024,0.023,0.006,-0.016,0.022000000000000002,-1.584,0.003,0.341,-0.121,0.105,3.432,2,-1.0,-1.0,0,88.1,90.0,1,primary,2,1,40.533775,-3.432975,6.596,87.5,0.551,0.18,0.26899999999999996
115,131.75,87.4,40.533844,-3.434718,645.8,4,5,270.7,1.406,1,0.001,0.028999999999999998,-0.0,0.009000000000000001,0.032,0.02,-1.595,0.0,0.33,0.0,0.067,3.429,2,-1.0,-1.0,0,87.4,90.0,1,primary,2,1,40.533775,-3.432975,6.596,87.5,0.584,0.174,0.242
116,132.8,87.5,40.533848,-3.4350110000000003,647.2,4,5,270.4,1.406,1,0.006999999999999999,0.005,-0.006999999999999999,0.026000000000000002,-0.006999999999999999,0.003,-1.601,0.006999999999999999,0.317,-0.051,0.023,3.3289999999999997,2,-1.0,-1.0,0,87.5,90.0,1,primary,2,1,40.533775,-3.432975,6.596,87.5,0.612,0.172,0.21600000000000003
117,133.75,88.8,40.533854999999996,-3.4353059999999997,648.4,4,5,270.0,0.703,1,-0.042,0.025,-0.006999999999999999,-0.028999999999999998,0.027000000000000003,-0.008,-1.6019999999999999,0.005,0.299,-0.071,0.008,3.325,2,-1.0,-1.0,0,88.8,90.0,1,primary,2,1,40.533848,-3.4350110000000003,1.335,88.8,0.622,0.17300000000000001,0.205
118,134.74,88.6,40.533859,-3.435597,649.4,4,5,270.0,0.35200000000000004,1,-0.019,-0.006999999999999999,-0.022000000000000002,-0.028999999999999998,0.008,-0.02,-1.6,0.005,0.27899999999999997,-0.141,0.027999999999999997,3.355,2,-1.0,-1.0,0,88.6,90.0,1,primary,2,1,40.533848,-3.4350110000000003,1.335,88.8,0.625,0.17300000000000001,0.20199999999999999
119,135.77,87.3,40.533859,-3.435889,650.7,4,5,270.0,0.0,1,-0.038,-0.05,0.006,-0.027999999999999997,-0.013999999999999999,-0.004,-1.5959999999999999,0.008,0.258,-0.071,0.069,3.1919999999999997,2,-1.0,-1.0,0,87.3,90.0,1,primary,2,1,40.533859,-3.435597,1.079,87.3,0.632,0.17,0.198
120,136.75,88.1,40.533863000000004,-3.436186,651.6,4,5,270.0,0.0,1,-0.022000000000000002,0.006,-0.004,-0.02,-0.0,-0.002,-1.594,0.016,0.249,-0.121,0.035,3.1519999999999997,2,-1.0,-1.0,0,88.1,90.0,1,primary,2,1,40.533859,-3.435597,1.079,87.3,0.635,0.16699999999999998,0.198
121,137.77,88.0,40.533863000000004,-3.436475,653.1,4,5,270.0,0.0,1,-0.013999999999999999,0.003,-0.004,-0.01,-0.004,-0.013999999999999999,-1.5859999999999999,0.002,0.22699999999999998,-0.091,0.019,3.128,2,-1.0,-1.0,0,88.0,90.0,1,primary,2,1,40.533863000000004,-3.4361870000000003,1.869,86.8,0.6459999999999999,0.159,0.195
122,138.75,86.8,40.533854999999996,-3.436772,654.1,4,5,269.6,0.35200000000000004,1,0.018000000000000002,0.001,0.005,0.019,0.012,0.003,-1.587,0.003,0.213,-0.081,0.027999999999999997,3.13,2,-1.0,-1.0,0,86.8,90.0,1,primary,2,1,40.533863000000004,-3.4361870000000003,1.869,86.8,0.654,0.151,0.195
123,139.76,86.8,40.533863000000004,-3.437068,655.5,4,5,270.0,0.35200000000000004,1,-0.02,-0.015,0.027000000000000003,-0.004,-0.022000000000000002,0.008,-1.59,0.003,0.19899999999999998,-0.01,0.004,3.1289999999999996,2,-1.0,-1.0,1,86.8,90.0,1,primary,2,1,40.533863000000004,-3.4361870000000003,1.869,86.8,0.6659999999999999,0.141,0.193
124,140.73,87.3,40.533863000000004,-3.437343,656.1,4,5,270.0,0.35200000000000004,1,-0.011000000000000001,-0.028999999999999998,0.016,-0.008,-0.009000000000000001,0.006999999999999999,-1.591,0.006,0.18899999999999997,0.081,0.033,3.12,2,-1.0,-1.0,0,87.3,90.0,1,primary,2,1,40.533863000000004,-3.4361870000000003,1.869,86.8,0.6779999999999999,0.131,0.191
125,141.74,86.9,40.533863000000004,-3.437619,658.1,4,5,269.6,0.35200000000000004,1,-0.023,-0.009000000000000001,0.006,-0.003,-0.001,-0.002,-1.588,0.013000000000000001,0.183,0.121,-0.004,3.1,2,-1.0,-1.0,0,86.9,90.0,1,primary,2,1,40.533863000000004,-3.4361870000000003,1.869,86.8,0.6890000000000001,0.122,0.18899999999999997
126,142.76,86.9,40.533867,-3.4379089999999994,658.6,4,5,269.6,0.35200000000000004,1,-0.048,0.009000000000000001,-0.011000000000000001,-0.035,0.006,0.004,-1.5859999999999999,-0.006999999999999999,0.16899999999999998,0.141,0.011000000000000001,3.13,2,-1.0,-1.0,0,86.9,90.0,1,primary,2,1,40.533863000000004,-3.4361870000000003,1.869,86.8,0.696,0.11699999999999999,0.187
127,143.77,86.4,40.533863000000004,-3.438192,659.2,4,5,268.9,0.703,1,0.013999999999999999,-0.031,0.009000000000000001,-0.0,-0.032,0.015,-1.59,0.004,0.16399999999999998,0.162,0.002,3.096,2,-1.0,-1.0,0,86.4,90.0,1,primary,2,1,40.533863000000004,-3.4361870000000003,1.869,86.8,0.706,0.107,0.18600000000000003
128,144.77,86.7,40.533863000000004,-3.438479,661.3,4,5,269.6,0.703,1,0.013999999999999999,-0.006,0.011000000000000001,0.013999999999999999,-0.013999999999999999,0.027000000000000003,-1.599,0.011000000000000001,0.156,0.162,-0.003,3.049,2,-1.0,-1.0,0,86.7,90.0,1,primary,2,1,40.533863000000004,-3.4361870000000003,1.869,86.8,0.718,0.098,0.184
129,145.76,87.3,40.533859,-3.438761,661.9,4,5,269.6,0.703,1,0.022000000000000002,0.01,0.042,-0.011000000000000001,0.002,0.027000000000000003,-1.611,0.01,0.152,0.071,-0.064,3.063,2,-1.0,-1.0,0,87.3,90.0,1,primary,2,1,40.533863000000004,-3.4361870000000003,1.869,86.8,0.7290000000000001,0.08900000000000001,0.182
130,146.75,89.5,40.533852,-3.439054,663.4,4,5,269.3,0.35200000000000004,1,-0.015,0.004,-0.016,-0.01,0.01,-0.005,-1.61,0.005,0.14400000000000002,0.111,-0.009000000000000001,3.2510000000000003,2,-1.0,-1.0,0,89.5,90.0,1,primary,2,1,40.533863000000004,-3.4361870000000003,1.869,86.8,0.741,0.078,0.18
131,147.78,91.0,40.533844,-3.439353,663.8,4,5,269.6,0.35200000000000004,1,-0.033,-0.008,-0.024,-0.027000000000000003,-0.006999999999999999,-0.005,-1.604,0.009000000000000001,0.138,0.051,0.001,3.29,2,-1.0,-1.0,0,91.0,90.0,1,primary,2,1,40.533863000000004,-3.4361870000000003,1.869,86.8,0.748,0.07200000000000001,0.179
132,148.75,91.5,40.533840000000005,-3.439659,664.4,4,5,269.3,0.35200000000000004,1,-0.003,-0.016,-0.021,0.012,-0.004,-0.008,-1.5930000000000002,-0.0,0.128,0.02,0.006999999999999999,3.295,2,-1.0,-1.0,0,91.5,90.0,1,primary,2,1,40.533863000000004,-3.4361870000000003,1.869,86.8,0.7490000000000001,0.071,0.179
133,149.75,91.5,40.533840000000005,-3.4399589999999995,664.5,4,5,269.3,0.35200000000000004,1,-0.003,-0.031,-0.006,-0.013000000000000001,-0.028999999999999998,0.001,-1.5859999999999999,0.016,0.129,0.051,0.032,3.319,2,-1.0,-1.0,0,91.5,90.0,1,primary,2,1,40.533863000000004,-3.4361870000000003,1.869,86.8,0.767,0.062,0.172
134,150.74,90.7,40.533825,-3.440265,665.3,4,5,268.9,0.35200000000000004,1,-0.015,0.024,0.002,-0.0,0.024,0.003,-1.589,0.006999999999999999,0.124,-0.071,-0.012,3.2739999999999996,2,-1.0,-1.0,0,90.7,90.0,1,primary,2,1,40.533854999999996,-3.4367730000000005,22.881,99.9,0.777,0.051,0.172
135,151.78,92.7,40.533821,-3.4405769999999998,665.8,4,5,269.3,0.35200000000000004,1,-0.0,-0.019,0.003,-0.006,-0.013999999999999999,-0.004,-1.588,-0.001,0.11699999999999999,-0.111,0.01,3.285,2,-1.0,-1.0,0,92.7,90.0,1,primary,2,1,40.533854999999996,-3.4367730000000005,22.881,99.9,0.778,0.05,0.172
136,152.73,94.9,40.533821,-3.4408819999999998,666.2,4,5,270.0,1.055,1,-0.022000000000000002,0.031,0.006999999999999999,-0.013000000000000001,0.01,0.003,-1.5930000000000002,0.002,0.111,-0.162,0.027000000000000003,3.299,2,-1.0,-1.0,0,94.9,90.0,1,primary,2,1,40.533854999999996,-3.4367730000000005,22.881,99.9,0.778,0.05,0.172
137,153.75,97.5,40.533825,-3.441204,666.4,4,5,270.0,0.703,1,0.031,-0.042,0.004,0.022000000000000002,-0.025,0.004,-1.588,0.003,0.10800000000000001,-0.172,-0.027999999999999997,3.325,2,-1.0,-1.0,0,97.5,90.0,1,primary,2,1,40.533854999999996,-3.4367730000000005,22.881,99.9,0.778,0.05,0.172
138,154.73,98.0,40.533825,-3.441525,666.7,4,5,269.6,0.35200000000000004,1,-0.002,-0.013999999999999999,-0.011000000000000001,-0.006999999999999999,-0.009000000000000001,-0.009000000000000001,-1.577,0.006999999999999999,0.106,-0.061,0.011000000000000001,3.43,2,-1.0,-1.0,0,98.0,90.0,1,primary,2,1,40.533854999999996,-3.4367730000000005,22.881,99.9,0.779,0.049,0.172
139,155.73,97.5,40.533825,-3.441844,666.7,4,5,269.6,0.35200000000000004,1,0.027999999999999997,-0.013999999999999999,-0.053,0.013999999999999999,-0.018000000000000002,-0.036000000000000004,-1.558,0.011000000000000001,0.106,-0.071,0.028999999999999998,3.468,2,-1.0,-1.0,0,97.5,90.0,1,primary,2,1,40.533854999999996,-3.4367730000000005,22.881,99.9,0.779,0.049,0.171
140,156.73,98.3,40.533821,-3.4421739999999996,666.3,4,5,269.6,0.0,1,0.032,0.028999999999999998,-0.027999999999999997,0.033,0.023,-0.019,-1.5419999999999998,0.004,0.10099999999999999,-0.091,-0.016,3.464,2,-1.0,-1.0,0,98.3,90.0,1,primary,2,1,40.533854999999996,-3.4367730000000005,22.881,99.9,0.787,0.049,0.16399999999999998
141,157.75,98.5,40.533817,-3.442504,666.1,4,5,269.6,0.0,1,-0.012,-0.003,0.012,-0.004,-0.003,0.003,-1.5390000000000001,0.011000000000000001,0.1,-0.121,-0.047,3.463,2,-1.0,-1.0,0,98.5,90.0,1,primary,2,1,40.533854999999996,-3.4367730000000005,22.881,99.9,0.787,0.049,0.163
142,158.73,98.5,40.533821,-3.4428339999999995,665.6,3,5,270.0,0.35200000000000004,1,0.021,-0.003,-0.01,0.012,-0.001,0.004,-1.5519999999999998,0.019,0.10099999999999999,0.01,0.025,3.457,2,-1.0,-1.0,0,98.5,90.0,1,primary,2,1,40.533854999999996,-3.4367730000000005,22.881,99.9,0.795,0.049,0.155
143,159.74,99.0,40.533821,-3.443165,665.7,3,5,269.6,0.35200000000000004,1,0.006999999999999999,0.043,0.005,-0.0,0.021,0.01,-1.555,0.017,0.10400000000000001,-0.02,0.005,3.485,2,-1.0,-1.0,0,99.0,90.0,1,primary,2,1,40.533854999999996,-3.4367730000000005,22.881,99.9,0.787,0.049,0.16399999999999998
144,160.75,99.9,40.533817,-3.443496,665.6,3,5,269.6,0.35200000000000004,1,-0.004,-0.02,-0.002,-0.009000000000000001,0.002,-0.0,-1.554,0.001,0.1,-0.10099999999999999,-0.043,3.495,2,-1.0,-1.0,0,99.9,90.0,1,primary,2,1,40.533854999999996,-3.4367730000000005,22.881,99.9,0.785,0.044000000000000004,0.171
145,161.74,99.9,40.533813,-3.443822,665.1,3,5,269.6,0.0,1,-0.039,-0.025,-0.01,-0.009000000000000001,-0.016,-0.006,-1.54,0.006999999999999999,0.10099999999999999,-0.071,-0.018000000000000002,3.5069999999999997,2,-1.0,-1.0,0,99.9,90.0,1,primary,2,1,40.533854999999996,-3.4367730000000005,22.881,99.9,0.778,0.042,0.18
146,162.74,100.0,40.533809999999995,-3.4441550000000003,664.1,3,5,270.0,0.35200000000000004,1,-0.021,-0.015,-0.021,-0.01,-0.026000000000000002,-0.003,-1.538,0.009000000000000001,0.102,-0.141,0.036000000000000004,3.503,2,-1.0,-1.0,0,100.0,90.0,1,primary,2,1,40.533854999999996,-3.4367730000000005,22.881,99.9,0.7709999999999999,0.042,0.187
147,163.74,100.6,40.533809999999995,-3.444489,663.7,3,5,269.6,0.35200000000000004,1,0.005,-0.009000000000000001,-0.017,-0.009000000000000001,-0.013000000000000001,-0.013999999999999999,-1.5219999999999998,0.003,0.10099999999999999,-0.242,-0.015,3.418,2,-1.0,-1.0,0,100.6,90.0,1,primary,2,1,40.533813,-3.4438230000000005,2.35,100.6,0.763,0.042,0.195
148,164.74,100.3,40.533809999999995,-3.444812,663.2,3,5,269.6,0.35200000000000004,1,-0.037000000000000005,0.004,-0.019,-0.031,0.013000000000000001,-0.016,-1.517,0.006999999999999999,0.09699999999999999,-0.273,0.023,3.42,2,-1.0,-1.0,0,100.3,90.0,1,primary,2,1,40.533813,-3.4438230000000005,2.35,100.6,0.762,0.042,0.196
149,165.74,101.0,40.533802,-3.4451419999999997,662.9,3,5,269.3,0.35200000000000004,1,0.027000000000000003,-0.031,0.040999999999999995,0.002,-0.011000000000000001,0.022000000000000002,-1.526,0.006999999999999999,0.096,-0.182,0.013000000000000001,3.364,2,-1.0,-1.0,0,101.0,90.0,1,primary,2,1,40.533809999999995,-3.444813,1.4880000000000002,99.3,0.757,0.04,0.203
150,166.75,99.3,40.533798,-3.445466,661.8,3,5,270.0,0.703,1,-0.011000000000000001,-0.016,0.016,0.016,-0.002,0.011000000000000001,-1.54,0.005,0.098,-0.212,0.027000000000000003,3.367,2,-1.0,-1.0,0,99.3,90.0,1,primary,2,1,40.533809999999995,-3.444813,1.4880000000000002,99.3,0.765,0.033,0.203
151,167.74,100.0,40.533794,-3.4457989999999996,661.5,3,5,269.6,0.35200000000000004,1,-0.065,-0.034,0.012,-0.031,-0.016,-0.005,-1.557,-0.002,0.098,-0.162,0.019,3.388,2,-1.0,-1.0,0,100.0,90.0,1,primary,2,1,40.533798,-3.445466,0.5529999999999999,100.0,0.782,0.022000000000000002,0.196
152,168.78,101.5,40.533794,-3.446135,661.4,3,5,270.0,0.35200000000000004,1,0.004,-0.022000000000000002,-0.008,0.0,-0.023,0.008,-1.5719999999999998,0.006,0.09699999999999999,-0.02,0.044000000000000004,3.372,2,-1.0,-1.0,0,101.5,90.0,1,primary,2,1,40.533794,-3.4458,1.255,101.5,0.784,0.013000000000000001,0.203
153,169.75,101.8,40.533794,-3.446468,661.2,3,5,269.6,0.35200000000000004,1,-0.001,-0.013999999999999999,-0.033,-0.006,-0.013000000000000001,-0.026000000000000002,-1.561,0.012,0.099,0.081,0.062,3.4360000000000004,2,-1.0,-1.0,0,101.8,90.0,1,primary,2,1,40.533794,-3.4464690000000004,0.601,103.1,0.7909999999999999,0.013000000000000001,0.196
154,170.76,103.1,40.533798,-3.446814,660.8,3,5,270.0,0.35200000000000004,1,0.035,-0.019,0.001,0.005,-0.004,-0.006999999999999999,-1.551,0.019,0.102,0.0,0.025,3.409,2,-1.0,-1.0,0,103.1,90.0,1,primary,2,1,40.533794,-3.4464690000000004,0.601,103.1,0.784,0.013000000000000001,0.203
155,171.73,103.4,40.533794,-3.4471510000000003,660.2,3,5,269.6,0.35200000000000004,1,0.006999999999999999,0.017,-0.032,-0.003,0.022000000000000002,-0.032,-1.5430000000000001,0.021,0.10400000000000001,0.04,0.002,3.4210000000000003,1,-1.0,-1.0,0,103.4,90.0,1,primary,2,1,40.533798,-3.446814,1.167,103.4,0.784,0.013000000000000001,0.203
156,172.74,103.2,40.533794,-3.44749,659.7,3,5,269.6,0.35200000000000004,1,-0.043,-0.002,-0.040999999999999995,-0.032,0.003,-0.042,-1.517,0.015,0.102,-0.01,-0.006,3.4210000000000003,2,-1.0,-1.0,0,103.2,90.0,1,primary,2,1,40.533794,-3.44749,0.7929999999999999,102.8,0.784,0.013000000000000001,0.203
157,173.77,102.8,40.533794,-3.4478269999999998,659.3,3,5,270.0,0.35200000000000004,1,-0.016,-0.015,-0.001,-0.018000000000000002,-0.015,-0.015,-1.5030000000000001,0.015,0.10099999999999999,0.01,-0.009000000000000001,3.44,2,-1.0,-1.0,0,102.8,90.0,1,primary,2,1,40.533794,-3.44749,0.7929999999999999,102.8,0.7909999999999999,0.013000000000000001,0.196
158,174.74,101.3,40.533791,-3.4481580000000003,658.8,3,5,269.6,0.35200000000000004,1,-0.001,-0.015,0.003,-0.023,0.005,-0.003,-1.5019999999999998,0.003,0.10099999999999999,-0.01,-0.023,3.429,2,-1.0,-1.0,0,101.3,90.0,1,primary,2,1,40.533794,-3.4478269999999998,0.696,101.3,0.784,0.013000000000000001,0.203
159,175.77,100.0,40.533787,-3.4484790000000003,657.8,3,5,269.6,0.35200000000000004,1,-0.032,-0.035,-0.024,-0.013000000000000001,-0.024,-0.011000000000000001,-1.493,0.012,0.102,0.02,-0.013999999999999999,3.365,1,-1.0,-1.0,0,100.0,90.0,1,primary,2,1,40.533791,-3.4481580000000003,0.953,100.0,0.7829999999999999,0.013000000000000001,0.204
160,176.83,98.8,40.533787,-3.4487959999999998,657.1,3,5,269.6,0.0,1,-0.024,-0.008,0.017,-0.021,0.001,0.011000000000000001,-1.501,0.017,0.102,0.0,0.012,3.4730000000000003,2,-1.0,-1.0,0,98.8,90.0,1,primary,2,1,40.533787,-3.4484790000000003,0.532,98.8,0.784,0.013000000000000001,0.203
161,177.74,97.7,40.533783,-3.449114,656.4,3,5,269.6,0.0,1,-0.005,-0.013999999999999999,0.022000000000000002,-0.004,-0.003,0.033,-1.518,0.011000000000000001,0.10300000000000001,0.03,0.016,3.411,2,-1.0,-1.0,0,97.7,90.0,1,primary,2,1,40.533787,-3.4487970000000003,0.8320000000000001,97.7,0.7829999999999999,0.013000000000000001,0.204
162,178.77,97.6,40.533778999999996,-3.4494309999999997,655.6,3,5,269.6,0.0,1,-0.028999999999999998,0.038,0.023,-0.033,0.042,0.023,-1.53,0.011000000000000001,0.102,-0.02,0.002,3.406,2,-1.0,-1.0,0,97.6,90.0,1,primary,2,1,40.533783,-3.449114,1.9040000000000001,98.1,0.785,0.013000000000000001,0.203
163,179.79,98.1,40.533775,-3.449755,655.4,3,5,269.6,0.0,1,-0.015,-0.013000000000000001,-0.034,0.006,-0.031,-0.013000000000000001,-1.531,0.0,0.099,-0.04,-0.019,3.3489999999999998,2,-1.0,-1.0,0,98.1,90.0,1,primary,2,1,40.533783,-3.449114,1.9040000000000001,98.1,0.7829999999999999,0.013000000000000001,0.204
164,180.75,98.8,40.533778999999996,-3.450078,655.0,3,5,270.0,0.35200000000000004,1,0.025,-0.006999999999999999,-0.027999999999999997,0.023,-0.006,-0.022000000000000002,-1.5130000000000001,0.002,0.1,0.051,0.026000000000000002,3.435,2,-1.0,-1.0,1,98.8,90.0,1,primary,2,1,40.533775,-3.449756,1.23,98.8,0.785,0.013000000000000001,0.203
165,181.79,98.1,40.533775,-3.4504010000000003,654.4,3,5,269.6,0.35200000000000004,1,0.003,0.005,-0.016,-0.002,-0.012,-0.01,-1.506,0.004,0.10099999999999999,0.111,0.015,3.4139999999999997,1,-1.0,-1.0,0,98.1,90.0,1,primary,2,1,40.533775,-3.449756,1.23,98.8,0.7829999999999999,0.013000000000000001,0.205
166,182.75,97.0,40.533775,-3.450714,653.7,3,5,269.6,0.35200000000000004,1,0.012,-0.009000000000000001,-0.002,-0.01,-0.006,0.006,-1.4980000000000002,0.006,0.102,0.20199999999999999,-0.026000000000000002,3.42,1,-1.0,-1.0,0,97.0,90.0,1,primary,2,1,40.533775,-3.4504010000000003,1.0070000000000001,97.0,0.779,0.013000000000000001,0.20800000000000002
167,183.75,95.8,40.533772,-3.451026,653.5,3,5,269.6,0.0,1,-0.008,-0.019,0.016,0.026000000000000002,-0.008,-0.001,-1.494,0.012,0.10099999999999999,0.111,-0.024,3.44,2,-1.0,-1.0,0,95.8,90.0,1,primary,2,1,40.533775,-3.4504010000000003,1.0070000000000001,97.0,0.7809999999999999,0.012,0.207
168,184.75,94.8,40.533775,-3.451338,652.9,3,5,269.6,0.0,1,0.005,-0.008,0.009000000000000001,0.002,0.004,0.019,-1.506,0.013999999999999999,0.102,0.061,0.001,3.458,2,-1.0,-1.0,0,94.8,90.0,1,primary,2,1,40.533772,-3.451026,1.2690000000000001,94.8,0.78,0.011000000000000001,0.209
169,185.75,93.3,40.533772,-3.451639,652.2,3,5,269.6,0.0,1,0.001,-0.009000000000000001,0.018000000000000002,0.003,-0.009000000000000001,0.012,-1.5230000000000001,0.013999999999999999,0.10400000000000001,0.091,-0.01,3.377,2,-1.0,-1.0,0,93.3,90.0,1,primary,2,1,40.533772,-3.451026,1.2690000000000001,94.8,0.7809999999999999,0.009000000000000001,0.21
170,186.77,93.5,40.533768,-3.451947,652.1,3,5,269.3,0.35200000000000004,1,-0.013000000000000001,0.015,-0.038,0.0,0.02,-0.02,-1.53,0.006999999999999999,0.10099999999999999,0.061,-0.035,3.341,2,-1.0,-1.0,0,93.5,90.0,1,primary,2,1,40.533772,-3.451639,1.1740000000000002,93.5,0.775,0.009000000000000001,0.21600000000000003
171,187.75,93.9,40.533764,-3.452257,652.3,3,5,269.6,0.35200000000000004,1,-0.033,0.002,-0.013999999999999999,-0.026000000000000002,0.002,-0.013999999999999999,-1.511,0.006,0.099,0.091,-0.011000000000000001,3.4189999999999996,2,-1.0,-1.0,0,93.9,90.0,1,primary,2,1,40.533772,-3.451639,1.1740000000000002,93.5,0.774,0.008,0.218
172,188.73,93.0,40.533764,-3.4525629999999996,651.3,3,5,269.6,0.35200000000000004,1,-0.018000000000000002,0.001,0.019,-0.01,0.002,0.01,-1.5190000000000001,0.013000000000000001,0.102,0.10099999999999999,0.009000000000000001,3.359,2,-1.0,-1.0,0,93.0,90.0,1,primary,2,1,40.533764,-3.452258,1.594,92.3,0.778,0.002,0.22
173,189.76,92.3,40.53376,-3.452862,651.6,3,5,269.6,0.0,1,-0.017,0.01,0.048,-0.025,0.006,0.033,-1.534,0.013000000000000001,0.10099999999999999,0.04,-0.023,3.3760000000000003,2,-1.0,-1.0,0,92.3,90.0,1,primary,2,1,40.533764,-3.452258,1.594,92.3,0.782,0.0,0.218
174,190.75,92.6,40.53376,-3.453161,650.8,3,5,269.6,0.0,1,-0.037000000000000005,0.013000000000000001,-0.038,-0.016,0.012,-0.040999999999999995,-1.525,0.012,0.099,0.03,0.023,3.367,2,-1.0,-1.0,0,92.6,90.0,1,primary,2,1,40.533764,-3.452258,1.594,92.3,0.7759999999999999,0.0,0.22399999999999998
175,191.75,93.1,40.53376,-3.453468,650.7,3,5,269.6,0.0,1,-0.0,-0.015,-0.006999999999999999,-0.011000000000000001,-0.013999999999999999,-0.012,-1.511,0.013999999999999999,0.099,0.121,0.02,3.425,2,-1.0,-1.0,0,93.1,90.0,1,primary,2,1,40.53376,-3.452863,3.093,91.8,0.778,0.0,0.222
176,192.75,91.8,40.53376,-3.453765,650.0,3,5,269.6,0.0,1,-0.011000000000000001,-0.005,0.018000000000000002,-0.016,-0.001,0.01,-1.5190000000000001,0.022000000000000002,0.10099999999999999,0.071,0.013999999999999999,3.377,2,-1.0,-1.0,0,91.8,90.0,1,primary,2,1,40.53376,-3.452863,3.093,91.8,0.7759999999999999,0.0,0.22399999999999998
177,193.75,91.4,40.533756,-3.4540620000000004,649.8,3,5,269.6,0.0,1,-0.026000000000000002,-0.021,0.025,-0.019,-0.016,0.028999999999999998,-1.5319999999999998,0.019,0.105,0.061,-0.021,3.327,2,-1.0,-1.0,0,91.4,90.0,1,primary,2,1,40.53376,-3.452863,3.093,91.8,0.774,0.0,0.226
178,194.76,91.4,40.533749,-3.454363,649.5,3,5,269.3,0.35200000000000004,1,-0.02,-0.003,-0.022000000000000002,-0.016,0.011000000000000001,-0.016,-1.531,0.023,0.106,-0.061,-0.055999999999999994,3.373,2,-1.0,-1.0,0,91.4,90.0,1,primary,2,1,40.533756,-3.4540629999999997,2.636,91.5,0.768,0.0,0.23199999999999998
179,195.73,91.6,40.533741,-3.4546639999999997,648.9,3,5,269.3,0.35200000000000004,1,-0.001,0.017,-0.001,0.003,0.012,0.004,-1.528,0.02,0.10400000000000001,-0.253,-0.027999999999999997,3.387,2,-1.0,-1.0,0,91.6,90.0,1,primary,2,1,40.533756,-3.4540629999999997,2.636,91.5,0.7659999999999999,0.0,0.23399999999999999
180,196.76,91.5,40.533737,-3.454962,648.7,3,5,269.3,0.0,1,-0.023,0.016,-0.01,-0.031,0.018000000000000002,-0.015,-1.514,0.018000000000000002,0.10300000000000001,-0.40399999999999997,0.022000000000000002,3.438,2,-1.0,-1.0,0,91.5,90.0,1,primary,2,1,40.533756,-3.4540629999999997,2.636,91.5,0.768,0.0,0.23199999999999998
181,197.79,90.6,40.533737,-3.455253,647.9,3,5,269.3,0.0,1,-0.02,0.003,0.006,-0.005,0.006,0.021,-1.521,0.006,0.10300000000000001,-0.475,0.011000000000000001,3.435,2,-1.0,-1.0,0,90.6,90.0,1,primary,2,1,40.533756,-3.4540629999999997,2.636,91.5,0.758,0.004,0.23800000000000002
182,198.76,90.0,40.533737,-3.455546,647.6,3,5,269.3,0.0,1,-0.005,-0.002,0.013000000000000001,-0.011000000000000001,-0.003,0.023,-1.541,-0.006,0.096,-0.485,0.01,3.343,2,-1.0,-1.0,0,90.0,90.0,1,primary,2,1,40.533756,-3.4540629999999997,2.636,91.5,0.752,0.013999999999999999,0.23399999999999999
183,199.82,90.6,40.533737,-3.4558489999999997,647.4,3,5,269.6,0.35200000000000004,1,-0.048,-0.052000000000000005,-0.033,-0.027999999999999997,-0.046,-0.015,-1.548,0.004,0.09,-0.374,0.012,3.375,2,-1.0,-1.0,0,90.6,90.0,1,primary,2,1,40.533756,-3.4540629999999997,2.636,91.5,0.741,0.019,0.24
184,200.76,91.5,40.533737,-3.456149,647.1,3,5,270.0,0.703,1,0.006999999999999999,-0.023,-0.011000000000000001,-0.009000000000000001,-0.021,-0.011000000000000001,-1.5319999999999998,0.013000000000000001,0.094,-0.273,0.033,3.42,1,-1.0,-1.0,0,91.5,90.0,1,primary,2,1,40.533756,-3.4540629999999997,2.636,91.5,0.7390000000000001,0.019,0.242
185,201.77,91.2,40.533737,-3.4564470000000003,647.0,3,5,270.0,0.35200000000000004,1,-0.021,-0.006999999999999999,-0.011000000000000001,-0.003,-0.004,-0.003,-1.527,0.016,0.09699999999999999,-0.23199999999999998,0.027999999999999997,3.412,2,-1.0,-1.0,0,91.2,90.0,1,primary,2,1,40.533756,-3.4540629999999997,2.636,91.5,0.741,0.019,0.24
186,202.77,90.5,40.533733000000005,-3.456744,646.9,3,5,269.6,0.35200000000000004,1,0.004,-0.003,-0.025,-0.0,0.004,-0.011000000000000001,-1.521,0.018000000000000002,0.099,-0.172,0.040999999999999995,3.4589999999999996,2,-1.0,-1.0,0,90.5,90.0,1,primary,2,1,40.533737,-3.454962,11.269,90.7,0.7390000000000001,0.019,0.242
187,203.73,89.8,40.533733000000005,-3.4570440000000002,646.4,3,5,269.6,0.35200000000000004,1,-0.018000000000000002,0.004,0.02,-0.023,-0.0,0.013000000000000001,-1.521,0.017,0.099,-0.222,-0.002,3.405,2,-1.0,-1.0,0,89.8,90.0,1,primary,2,1,40.533737,-3.454962,11.269,90.7,0.7390000000000001,0.019,0.242
188,204.79,89.0,40.53373,-3.457336,646.3,3,5,269.6,0.0,1,-0.038,0.009000000000000001,0.02,-0.034,0.002,0.024,-1.5490000000000002,0.006999999999999999,0.096,-0.212,-0.003,3.353,2,-1.0,-1.0,0,89.0,90.0,1,primary,2,1,40.533737,-3.454962,11.269,90.7,0.7390000000000001,0.019,0.242
189,205.73,89.1,40.533726,-3.4576290000000003,646.5,3,5,269.6,0.0,1,-0.004,-0.011000000000000001,-0.016,-0.006999999999999999,-0.006999999999999999,-0.0,-1.5619999999999998,-0.001,0.094,-0.23199999999999998,0.043,3.418,2,-1.0,-1.0,0,89.1,90.0,1,primary,2,1,40.533737,-3.454962,11.269,90.7,0.735,0.019,0.24600000000000002
190,206.74,90.1,40.533726,-3.457925,646.6,3,5,270.0,0.35200000000000004,1,-0.009000000000000001,0.004,-0.002,-0.027000000000000003,0.005,-0.009000000000000001,-1.5630000000000002,0.011000000000000001,0.095,-0.111,0.033,3.367,2,-1.0,-1.0,0,90.1,90.0,1,primary,2,1,40.533737,-3.454962,11.269,90.7,0.737,0.019,0.244
