,Timestamp (seconds),Speed (km/h),Latitude coordinate (degrees),Longitude coordinate (degrees),Altitude (meters),Vertical accuracy (degrees),Horizontal accuracy (degrees),Course (degrees),Difcourse: course variation (degrees),Boolean of system activated (1 if >50km/h),Acceleration in X (Gs),Acceleration in Y (Gs),Acceleration in Z (Gs),Acceleration in X filtered by KF (Gs),Acceleration in Y filtered by KF (Gs),Acceleration in Z filtered by KF (Gs),Roll (degrees),Pitch (degrees),Yaw (degrees),X: car position relative to lane center (meters),Phi: car angle relative to lane curvature (degrees),W: road width (meters),"State of the lane det. algorithm [-1=calibrating, 0=initializing, 1=undetected, 2=detected/running]",Distance to ahead vehicle in current lane (meters) [value -1 means no car is detected in front],Time of impact to ahead vehicle (seconds) [distance related to own speed],Number of detected vehicles in this frame (traffic),GPS speed (km/h) [same as in RAW GPS],Maximum allowed speed of current road (km/h),"Reliability of obtained maxspeed (0=unknown, 1=reliable, 2=used previously obtained maxspeed,3=estimated by type of road)","Type of road (motorway, trunk, secondary...)",Number of lanes in current road,"Estimated current lane (1=right lane, 2=first left lane, 3=second left lane, etc) [experimental]",GPS Latitude used to query OSM (degrees),GPS Longitude used to query OSM (degrees),OSM delay to answer query (seconds),GPS speed (km/h) [same as in RAW GPS]],Ratio normal (base 1),Ratio drowsy (base 1),Ratio aggressive (base 1)
0,22.94,0.0,40.519276,-3.4130550000000004,618.0,10,165,-1.0,-1.0,0,-0.036000000000000004,-0.015,0.008,-0.026000000000000002,-0.011000000000000001,0.002,-1.591,0.025,0.069,-9.0,-9.0,-9.0,-9,-1.0,-1.0,0,87.7,100.0,1,primary,3,1,40.51873,-3.409775,0.609,92.2,1.0,0.0,0.0
1,23.92,87.7,40.518543,-3.4095760000000004,624.2,8,10,324.5,35.508,1,-0.027000000000000003,-0.009000000000000001,0.027999999999999997,-0.019,-0.004,0.03,-1.594,0.031,0.076,0.0,-0.0,3.5,-1,-1.0,-1.0,0,87.7,100.0,1,primary,3,1,40.51873,-3.409775,0.609,92.2,1.0,0.0,0.0
2,24.95,90.6,40.51873,-3.409775,621.5,4,5,324.1,0.35200000000000004,1,-0.040999999999999995,-0.031,-0.006999999999999999,-0.028999999999999998,-0.024,0.001,-1.6130000000000002,0.044000000000000004,0.09300000000000001,0.0,-0.0,3.5,-1,-1.0,-1.0,0,90.6,100.0,1,primary,3,1,40.51873,-3.409775,0.609,92.2,1.0,0.0,0.0
3,25.93,92.2,40.518936,-3.409934,622.5,4,5,323.8,0.703,1,-0.038,-0.023,-0.003,-0.06,0.001,0.001,-1.618,0.034,0.10400000000000001,0.0,-0.0,3.5,-1,-1.0,-1.0,0,92.2,100.0,1,primary,3,1,40.51873,-3.409775,0.609,92.2,1.0,0.0,0.0
4,26.93,93.3,40.519135,-3.4101239999999997,623.0,3,5,323.1,1.055,1,0.044000000000000004,0.027000000000000003,0.005,0.019,0.035,0.002,-1.62,0.013000000000000001,0.099,0.0,-0.0,3.5,-1,38.19,1.47,1,93.3,100.0,1,primary,3,1,40.518936,-3.409934,0.596,93.3,1.0,0.0,0.0
5,27.94,94.7,40.519290999999996,-3.410303,623.4,3,5,323.1,0.703,1,-0.015,-0.027000000000000003,-0.035,-0.001,-0.021,-0.025,-1.614,0.005,0.087,-0.05,0.032,2.705,1,-1.0,-1.0,1,94.7,100.0,1,primary,3,1,40.519135,-3.4101239999999997,0.645,94.7,1.0,0.0,0.0
6,28.96,96.0,40.519482,-3.4104870000000003,623.3,3,5,323.8,0.703,1,0.04,-0.013000000000000001,-0.006,0.015,-0.015,-0.023,-1.604,0.008,0.085,0.0,-0.0,3.485,0,30.07,1.13,1,96.0,100.0,1,primary,3,1,40.519290999999996,-3.410303,0.9840000000000001,96.0,1.0,0.0,0.0
7,29.96,91.4,40.519669,-3.410653,624.1,3,5,323.8,0.703,1,-0.005,-0.02,0.015,-0.023,-0.001,-0.009000000000000001,-1.589,0.008,0.084,0.0,-0.0,3.485,0,23.61,0.93,1,91.4,100.0,1,primary,3,1,40.519482,-3.4104879999999995,1.0390000000000001,91.4,1.0,0.0,0.0
8,31.0,97.1,40.519847999999996,-3.4108440000000004,625.1,3,5,324.1,0.35200000000000004,1,-0.023,0.016,-0.017,-0.011000000000000001,0.01,-0.004,-1.584,0.016,0.087,-0.1,0.016,4.082,2,-1.0,-1.0,1,97.1,100.0,1,primary,3,1,40.519847999999996,-3.4108440000000004,0.539,96.7,1.0,0.0,0.0
9,31.92,96.7,40.520039000000004,-3.411056,624.8,3,5,323.8,0.35200000000000004,1,0.006999999999999999,0.008,0.009000000000000001,-0.006,0.019,0.003,-1.5830000000000002,0.008,0.086,0.16899999999999998,0.171,3.702,2,-1.0,-1.0,1,96.7,100.0,1,primary,3,1,40.519847999999996,-3.4108440000000004,0.539,96.7,1.0,0.0,0.0
10,32.94,96.8,40.520241,-3.411239,624.2,3,5,323.8,0.35200000000000004,1,-0.039,-0.005,0.011000000000000001,-0.053,0.004,0.002,-1.589,0.001,0.081,0.18899999999999997,0.008,2.764,2,-1.0,-1.0,1,96.8,100.0,1,primary,2,1,40.520039000000004,-3.411056,0.57,96.8,0.998,0.002,0.0
11,33.93,96.9,40.520435,-3.4114199999999997,624.7,3,5,324.1,0.35200000000000004,1,0.064,-0.003,-0.009000000000000001,0.006999999999999999,0.009000000000000001,0.001,-1.579,0.004,0.079,0.1,0.01,2.735,2,-1.0,-1.0,0,96.9,100.0,1,primary,2,1,40.520241,-3.4112400000000003,0.5870000000000001,96.9,0.998,0.002,0.0
12,34.92,97.1,40.520664000000004,-3.411603,624.9,3,5,324.5,0.703,1,-0.142,0.016,-0.03,-0.08,0.011000000000000001,-0.022000000000000002,-1.577,0.012,0.076,0.08,0.012,2.832,2,-1.0,-1.0,0,97.1,100.0,1,primary,2,1,40.520435,-3.4114199999999997,0.736,97.1,0.998,0.002,0.0
13,35.97,96.9,40.520874,-3.41181,626.7,3,5,324.5,0.35200000000000004,1,-0.057999999999999996,-0.015,-0.003,-0.081,0.001,-0.03,-1.5719999999999998,0.009000000000000001,0.07400000000000001,0.12,0.018000000000000002,2.8110000000000004,2,-1.0,-1.0,0,96.9,100.0,1,primary,2,1,40.520664000000004,-3.411603,0.753,96.9,0.998,0.002,0.0
14,36.92,96.8,40.521034,-3.411976,632.4,3,5,324.5,0.0,1,-0.009000000000000001,-0.002,-0.045,0.011000000000000001,-0.018000000000000002,-0.044000000000000004,-1.567,0.025,0.077,0.259,0.013000000000000001,2.772,2,-1.0,-1.0,0,96.8,100.0,1,primary,2,1,40.520874,-3.41181,0.6809999999999999,96.8,0.9990000000000001,0.001,0.0
15,37.92,95.0,40.521190999999995,-3.412152,632.8,3,5,324.5,0.0,1,0.013999999999999999,-0.013000000000000001,0.002,-0.032,0.006999999999999999,0.003,-1.5590000000000002,0.022000000000000002,0.076,0.359,-0.004,2.7760000000000002,2,-1.0,-1.0,0,95.0,100.0,1,primary,2,1,40.521034,-3.411976,0.7070000000000001,95.0,0.995,0.005,0.0
16,38.95,93.6,40.521442,-3.412376,624.7,3,5,324.8,0.35200000000000004,1,0.005,-0.01,-0.012,0.013000000000000001,-0.004,-0.005,-1.564,0.018000000000000002,0.075,0.46799999999999997,0.005,2.783,2,-1.0,-1.0,0,93.6,100.0,1,primary,2,1,40.521190999999995,-3.412152,0.6,94.5,0.9640000000000001,0.036000000000000004,0.0
17,39.91,92.8,40.521629,-3.412551,625.4,3,5,325.2,0.35200000000000004,1,-0.039,0.027000000000000003,-0.001,-0.011000000000000001,0.031,-0.008,-1.567,-0.001,0.065,0.767,0.027000000000000003,2.766,2,-1.0,-1.0,0,92.8,100.0,1,primary,2,1,40.521442,-3.4123769999999998,0.524,93.6,0.9329999999999999,0.067,0.0
18,40.94,92.0,40.521839,-3.412715,627.2,3,5,325.9,1.055,1,0.015,-0.025,-0.026000000000000002,-0.0,-0.012,-0.02,-1.571,-0.002,0.055,0.0,-0.0,3.405,0,-1.0,-1.0,0,92.0,100.0,1,primary,2,1,40.521629,-3.412551,0.857,92.0,0.762,0.08800000000000001,0.15
19,41.94,91.0,40.522038,-3.412878,628.7,3,5,326.6,1.406,1,0.009000000000000001,-0.036000000000000004,-0.003,0.006999999999999999,-0.035,-0.008,-1.564,0.018000000000000002,0.057999999999999996,0.0,-0.0,3.404,0,-1.0,-1.0,0,91.0,100.0,1,primary,2,1,40.521839,-3.412715,0.779,92.0,0.7659999999999999,0.084,0.15
20,42.93,90.4,40.522228000000005,-3.413044,630.9,3,5,325.9,0.703,1,-0.004,-0.019,0.022000000000000002,-0.040999999999999995,-0.037000000000000005,0.008,-1.569,0.042,0.078,0.688,0.177,3.508,1,-1.0,-1.0,0,90.4,100.0,1,primary,2,1,40.522038,-3.412879,0.902,90.4,0.773,0.08199999999999999,0.145
21,43.91,91.1,40.52243,-3.4132029999999998,633.5,3,5,327.3,1.406,1,-0.031,-0.019,0.021,-0.004,-0.023,0.001,-1.58,0.034,0.10099999999999999,1.365,0.23399999999999999,4.124,1,-1.0,-1.0,0,91.1,100.0,1,primary,2,1,40.522228000000005,-3.413044,0.8240000000000001,91.1,0.759,0.10300000000000001,0.138
22,44.93,89.7,40.522602,-3.413379,633.8,3,5,323.8,3.516,1,-0.021,-0.04,0.01,-0.028999999999999998,-0.03,0.01,-1.581,0.047,0.133,0.14,0.045,2.803,2,-1.0,-1.0,0,89.7,100.0,1,primary,2,1,40.52243,-3.413204,0.9109999999999999,89.7,0.754,0.114,0.132
23,45.92,86.5,40.52277,-3.413551,631.5,3,5,322.4,4.922,1,0.005,-0.028999999999999998,-0.019,0.0,-0.019,0.0,-1.59,0.054000000000000006,0.17300000000000001,0.1,-0.064,2.7739999999999996,2,-1.0,-1.0,0,86.5,100.0,1,primary,2,1,40.522602,-3.41338,0.8740000000000001,86.5,0.764,0.109,0.127
24,46.91,86.1,40.52293,-3.413735,632.7,3,5,320.3,3.516,1,-0.051,0.012,0.005,-0.049,0.017,-0.008,-1.6,0.036000000000000004,0.209,-0.13,-0.069,2.7760000000000002,2,-1.0,-1.0,0,86.1,100.0,1,primary,2,1,40.52277,-3.413551,0.631,86.5,0.773,0.105,0.122
25,47.97,85.7,40.52309,-3.4139239999999997,633.7,3,5,318.2,4.218999999999999,1,0.03,0.013999999999999999,0.017,0.027000000000000003,0.008,0.015,-1.594,0.015,0.242,-0.249,-0.068,2.73,2,-1.0,-1.0,0,85.7,100.0,1,primary,2,1,40.52309,-3.4139239999999997,0.5479999999999999,85.7,0.782,0.10099999999999999,0.11699999999999999
26,48.94,85.5,40.523243,-3.4141169999999996,635.4,3,5,316.4,3.867,1,-0.11900000000000001,0.012,0.013000000000000001,-0.10400000000000001,-0.003,0.006,-1.5959999999999999,0.01,0.27699999999999997,-0.45799999999999996,-0.079,2.821,2,-1.0,-1.0,0,85.5,100.0,1,primary,2,1,40.52309,-3.4139239999999997,0.5479999999999999,85.7,0.787,0.1,0.113
27,49.91,85.4,40.523396000000005,-3.414317,636.0,3,5,314.3,3.867,1,-0.005,0.018000000000000002,0.025,-0.044000000000000004,0.011000000000000001,-0.004,-1.6,0.003,0.299,-0.508,-0.069,2.917,2,-1.0,-1.0,0,85.4,100.0,1,primary,2,1,40.523243,-3.414118,0.604,85.5,0.7759999999999999,0.115,0.109
28,50.95,85.2,40.523540000000004,-3.4145230000000004,637.1,3,5,312.9,3.516,1,-0.033,0.033,0.01,-0.015,0.03,0.017,-1.591,0.002,0.32,-0.568,0.023,2.7460000000000004,2,-1.0,-1.0,0,85.2,90.0,3,tertiary_link,1,1,40.523396000000005,-3.414317,0.584,85.4,0.763,0.132,0.105
29,51.94,85.3,40.523682,-3.4147300000000005,637.8,3,5,311.1,3.1639999999999997,1,0.012,-0.025,0.006999999999999999,0.002,-0.013000000000000001,0.008,-1.608,-0.013999999999999999,0.34,-0.46799999999999997,0.08800000000000001,2.6630000000000003,2,-1.0,-1.0,0,85.3,90.0,3,tertiary_link,1,1,40.523540000000004,-3.4145230000000004,0.813,85.3,0.753,0.145,0.102
30,52.91,85.7,40.523819,-3.414949,638.2,3,5,309.4,3.516,1,0.027000000000000003,-0.031,0.02,0.027999999999999997,-0.025,0.008,-1.609,-0.002,0.371,-0.369,0.059000000000000004,2.7030000000000003,2,-1.0,-1.0,0,85.7,90.0,3,tertiary_link,1,1,40.523682,-3.4147300000000005,1.19,85.7,0.743,0.158,0.099
31,53.98,86.3,40.523949,-3.415178,638.8,3,5,307.3,3.867,1,0.021,0.006,0.023,0.005,-0.003,0.008,-1.617,-0.006,0.39299999999999996,-0.33899999999999997,0.102,2.739,2,-1.0,-1.0,0,86.3,90.0,3,tertiary_link,1,1,40.523949,-3.415179,0.8859999999999999,87.2,0.7440000000000001,0.161,0.096
32,54.92,87.2,40.524075,-3.4154169999999997,639.6,3,5,305.2,4.218999999999999,1,-0.01,0.001,-0.004,0.017,0.002,0.003,-1.6159999999999999,-0.013999999999999999,0.41,-0.319,0.084,2.5989999999999998,2,-1.0,-1.0,0,87.2,90.0,3,tertiary_link,1,1,40.523949,-3.415179,0.8859999999999999,87.2,0.747,0.16,0.09300000000000001
33,55.98,88.2,40.524193,-3.415658,638.9,3,5,303.4,3.867,1,0.031,-0.035,0.0,-0.002,-0.02,-0.01,-1.614,0.006,0.428,-0.239,0.07400000000000001,2.674,2,-1.0,-1.0,0,88.2,90.0,3,tertiary_link,1,1,40.524075,-3.4154169999999997,0.8690000000000001,88.2,0.754,0.156,0.09
34,56.92,89.1,40.524307,-3.4159040000000003,640.2,3,5,301.3,3.867,1,0.013999999999999999,-0.0,-0.015,-0.032,0.012,-0.009000000000000001,-1.607,0.024,0.452,-0.289,0.09,2.735,2,-1.0,-1.0,0,89.1,90.0,3,tertiary_link,1,1,40.524193,-3.415658,0.7290000000000001,88.2,0.76,0.152,0.08800000000000001
35,57.91,89.9,40.524418,-3.4161639999999998,640.4,3,5,299.2,4.218999999999999,1,-0.0,0.04,-0.006,0.011000000000000001,0.027000000000000003,-0.001,-1.601,0.013000000000000001,0.46299999999999997,-0.319,0.091,2.6839999999999997,2,-1.0,-1.0,0,89.9,90.0,3,tertiary_link,1,1,40.524307,-3.4159040000000003,0.652,89.1,0.765,0.15,0.085
36,58.91,90.6,40.524521,-3.416429,639.7,3,5,297.4,3.867,1,0.004,-0.011000000000000001,-0.027000000000000003,0.018000000000000002,-0.013000000000000001,-0.028999999999999998,-1.585,0.006,0.47200000000000003,-0.22899999999999998,0.09,2.759,2,-1.0,-1.0,0,90.6,100.0,1,primary,2,1,40.524418,-3.4161639999999998,0.847,90.6,0.772,0.145,0.083
37,59.92,90.7,40.524623999999996,-3.416697,640.0,3,5,295.7,3.516,1,0.006999999999999999,-0.027000000000000003,-0.016,0.01,-0.018000000000000002,-0.02,-1.557,0.027000000000000003,0.491,-0.1,0.092,2.7569999999999997,2,-1.0,-1.0,0,90.7,100.0,1,primary,2,1,40.524521,-3.416429,0.81,90.7,0.778,0.141,0.08
38,60.92,90.6,40.524715,-3.4169699999999996,639.2,3,5,292.9,4.57,1,-0.06,0.026000000000000002,-0.027999999999999997,-0.026000000000000002,0.017,-0.017,-1.556,0.031,0.51,-0.12,0.02,2.957,1,-1.0,-1.0,0,90.6,100.0,1,primary,2,1,40.524623999999996,-3.416697,0.8240000000000001,90.6,0.784,0.138,0.078
39,61.92,90.6,40.524799,-3.417249,638.8,3,5,290.7,4.922,1,-0.091,0.09,-0.015,-0.066,0.057999999999999996,-0.021,-1.55,0.026000000000000002,0.512,0.46799999999999997,0.17800000000000002,4.21,2,-1.0,-1.0,0,90.6,100.0,1,primary,2,1,40.524715,-3.4169709999999998,0.7909999999999999,90.6,0.787,0.13699999999999998,0.076
40,62.92,90.4,40.524871999999995,-3.417533,638.2,3,5,289.3,3.516,1,0.032,0.013000000000000001,0.013000000000000001,-0.032,-0.002,-0.009000000000000001,-1.5390000000000001,0.025,0.507,0.409,-0.07400000000000001,3.676,2,-1.0,-1.0,0,90.4,100.0,1,primary,2,1,40.524799,-3.41725,0.6940000000000001,90.6,0.7929999999999999,0.133,0.07400000000000001
41,63.92,89.9,40.52494,-3.417811,637.6,3,5,287.9,2.812,1,-0.004,0.026000000000000002,-0.028999999999999998,-0.013999999999999999,0.024,-0.009000000000000001,-1.531,0.016,0.501,0.13,-0.083,3.0180000000000002,2,-1.0,-1.0,0,89.9,100.0,1,primary,2,1,40.524871999999995,-3.417533,1.3030000000000002,89.9,0.7979999999999999,0.129,0.073
42,64.92,89.2,40.525005,-3.418089,637.3,3,5,286.9,2.461,1,-0.076,0.019,-0.019,-0.040999999999999995,0.017,-0.005,-1.5130000000000001,0.026000000000000002,0.49,0.09,0.006999999999999999,2.897,2,-1.0,-1.0,0,89.2,100.0,1,primary,2,1,40.524871999999995,-3.417533,1.3030000000000002,89.9,0.8029999999999999,0.126,0.071
43,65.93,88.4,40.525065999999995,-3.418365,637.1,3,5,285.8,2.109,1,-0.069,0.05,-0.025,0.008,0.035,0.004,-1.52,0.027000000000000003,0.46799999999999997,0.04,0.015,2.87,2,-1.0,-1.0,0,88.4,80.0,1,primary,1,1,40.525005,-3.418089,1.274,88.4,0.807,0.124,0.069
44,66.92,87.8,40.525124,-3.4186400000000003,636.8,3,5,285.5,1.406,1,0.015,0.033,0.005,-0.013000000000000001,0.027999999999999997,-0.023,-1.51,0.036000000000000004,0.43700000000000006,-0.02,-0.009000000000000001,2.87,2,-1.0,-1.0,0,87.8,80.0,1,primary,1,1,40.525005,-3.418089,1.274,88.4,0.8079999999999999,0.121,0.071
45,67.96,86.0,40.525177,-3.418905,636.2,3,5,285.5,0.35200000000000004,1,0.028999999999999998,0.027000000000000003,-0.001,0.011000000000000001,0.031,-0.002,-1.511,0.012,0.39799999999999996,0.0,0.011000000000000001,2.873,2,-1.0,-1.0,0,86.0,80.0,1,primary,1,1,40.525124,-3.4186400000000003,2.133,85.1,0.809,0.11800000000000001,0.073
46,68.91,85.1,40.52523,-3.419171,635.5,3,5,286.5,1.055,1,0.003,0.028999999999999998,0.004,-0.008,0.023,0.003,-1.515,0.012,0.361,0.19899999999999998,0.042,2.8539999999999996,2,-1.0,-1.0,0,85.1,80.0,1,primary,1,1,40.525124,-3.4186400000000003,2.133,85.1,0.809,0.11599999999999999,0.075
47,69.94,84.1,40.525295,-3.4194410000000004,635.2,3,5,287.6,2.109,1,0.003,0.043,0.006999999999999999,-0.006999999999999999,0.037000000000000005,0.005,-1.5130000000000001,0.01,0.318,0.528,0.049,2.9760000000000004,2,-1.0,-1.0,0,84.1,80.0,1,primary,1,1,40.525124,-3.4186400000000003,2.133,85.1,0.805,0.11800000000000001,0.077
48,70.92,83.3,40.52536,-3.4197,635.3,3,5,288.6,2.109,1,-0.031,0.017,0.032,-0.057,0.016,0.002,-1.5119999999999998,0.011000000000000001,0.272,0.757,0.006,2.895,2,-1.0,-1.0,0,83.3,80.0,1,primary,1,1,40.525295,-3.4194410000000004,1.902,82.5,0.7929999999999999,0.128,0.078
49,71.95,82.5,40.525428999999995,-3.4199599999999997,635.1,3,5,290.4,2.812,1,-0.031,-0.01,0.013999999999999999,-0.023,-0.008,-0.001,-1.51,0.013999999999999999,0.22399999999999998,0.977,0.033,2.958,2,-1.0,-1.0,0,82.5,80.0,1,primary,1,1,40.525295,-3.4194410000000004,1.902,82.5,0.784,0.136,0.08
50,72.91,81.3,40.525501,-3.4202169999999996,633.5,3,5,291.4,2.812,1,-0.033,0.006,0.002,-0.018000000000000002,-0.006999999999999999,-0.002,-1.5130000000000001,0.027999999999999997,0.18899999999999997,1.0170000000000001,-0.013000000000000001,2.9210000000000003,2,-1.0,-1.0,0,81.3,80.0,1,primary,1,1,40.525428999999995,-3.4199610000000003,1.217,81.3,0.774,0.145,0.081
51,73.93,80.4,40.525589000000004,-3.4204519999999996,632.6,3,5,293.2,2.812,1,-0.006,0.001,0.006,-0.013999999999999999,0.0,-0.006,-1.521,0.027999999999999997,0.156,0.867,-0.051,2.847,2,-1.0,-1.0,0,80.4,80.0,1,primary,1,1,40.525428999999995,-3.4199610000000003,1.217,81.3,0.764,0.153,0.083
52,74.92,79.1,40.525673,-3.420694,631.0,3,5,294.3,2.812,1,-0.025,0.038,-0.028999999999999998,0.004,0.027000000000000003,-0.017,-1.525,0.012,0.11599999999999999,0.6579999999999999,-0.084,2.8160000000000003,2,-1.0,-1.0,0,79.1,80.0,1,primary,1,1,40.525589000000004,-3.4204519999999996,1.4380000000000002,79.1,0.758,0.161,0.081
53,75.93,78.2,40.525764,-3.4209199999999997,629.5,3,5,296.7,3.516,1,0.008,-0.031,-0.012,0.017,-0.022000000000000002,-0.009000000000000001,-1.534,-0.004,0.078,0.6679999999999999,-0.019,2.679,2,-1.0,-1.0,0,78.2,80.0,1,primary,1,1,40.525589000000004,-3.4204519999999996,1.4380000000000002,79.1,0.7509999999999999,0.16899999999999998,0.079
54,76.91,78.1,40.525856,-3.421143,630.6,3,5,298.5,4.218999999999999,1,-0.039,0.013000000000000001,0.012,-0.016,-0.005,-0.004,-1.548,-0.009000000000000001,0.049,0.628,-0.024,2.801,2,-1.0,-1.0,0,78.1,100.0,3,primary_link,1,1,40.525764,-3.420921,1.5419999999999998,78.1,0.746,0.17600000000000002,0.078
55,77.92,78.5,40.525963,-3.421357,630.2,3,5,300.2,3.516,1,-0.068,0.038,-0.011000000000000001,-0.045,0.013000000000000001,-0.011000000000000001,-1.558,-0.023,0.009000000000000001,0.359,-0.061,2.824,2,-1.0,-1.0,0,78.5,100.0,3,primary_link,1,1,40.525764,-3.420921,1.5419999999999998,78.1,0.741,0.182,0.077
56,78.91,79.0,40.526066,-3.4215769999999996,629.5,3,5,303.8,5.273,1,-0.016,0.009000000000000001,0.03,-0.006,0.002,0.023,-1.577,-0.033,-0.039,0.18899999999999997,-0.003,2.7,2,-1.0,-1.0,0,79.0,100.0,1,primary,2,1,40.525963,-3.421357,1.5,79.0,0.745,0.179,0.076
57,79.93,81.0,40.526192,-3.421792,629.0,3,5,306.9,6.68,1,0.045,-0.036000000000000004,0.018000000000000002,0.013000000000000001,-0.026000000000000002,0.013000000000000001,-1.5959999999999999,-0.038,-0.081,0.16899999999999998,-0.006,2.698,2,-1.0,-1.0,0,81.0,100.0,1,primary,2,1,40.525963,-3.421357,1.5,79.0,0.7490000000000001,0.177,0.075
58,80.95,82.7,40.526314,-3.422007,629.5,3,5,308.7,4.922,1,-0.018000000000000002,-0.038,-0.003,-0.038,-0.023,-0.021,-1.599,-0.031,-0.11800000000000001,0.19899999999999998,0.044000000000000004,2.701,2,-1.0,-1.0,0,81.0,90.0,1,primary,2,1,40.526192,-3.421792,1.5390000000000001,82.7,0.753,0.174,0.07400000000000001
59,81.91,83.6,40.526447,-3.422211,628.7,3,5,311.1,4.218999999999999,1,0.003,-0.016,-0.032,-0.009000000000000001,-0.017,-0.025,-1.585,-0.033,-0.152,0.319,0.07200000000000001,2.755,2,-1.0,-1.0,0,83.6,90.0,1,primary,2,1,40.526192,-3.421792,1.5390000000000001,82.7,0.754,0.174,0.07200000000000001
60,82.93,84.3,40.526588000000004,-3.422411,628.8,3,5,313.9,5.273,1,-0.008,-0.033,-0.013999999999999999,-0.016,-0.035,-0.017,-1.568,-0.024,-0.177,0.44799999999999995,0.083,2.727,2,-1.0,-1.0,0,84.3,90.0,1,primary,2,1,40.526192,-3.421792,1.5390000000000001,82.7,0.75,0.179,0.071
61,83.91,84.8,40.526733,-3.4226050000000003,628.6,3,5,315.7,4.57,1,-0.006,-0.009000000000000001,-0.009000000000000001,0.025,-0.003,-0.01,-1.556,-0.021,-0.198,0.478,0.040999999999999995,2.7680000000000002,2,-1.0,-1.0,0,84.8,90.0,1,primary,2,1,40.526192,-3.421792,1.5390000000000001,82.7,0.742,0.188,0.07
62,84.93,85.0,40.526894,-3.422786,628.4,3,5,317.8,3.867,1,0.006999999999999999,-0.004,-0.022000000000000002,0.003,-0.005,-0.023,-1.555,-0.027000000000000003,-0.222,0.33899999999999997,0.067,2.76,2,-1.0,-1.0,0,85.0,90.0,1,primary,2,1,40.526192,-3.421792,1.5390000000000001,82.7,0.733,0.19699999999999998,0.07
63,85.92,84.5,40.527046,-3.422978,627.3,3,5,320.3,4.57,1,0.025,-0.004,0.036000000000000004,-0.006,0.006,0.02,-1.5530000000000002,-0.02,-0.251,0.299,0.008,2.77,2,-1.0,-1.0,0,84.5,90.0,1,primary,2,1,40.526447,-3.422211,7.101,86.7,0.731,0.19899999999999998,0.07
64,86.91,84.5,40.52721,-3.42315,626.2,3,5,322.7,4.922,1,-0.006,-0.018000000000000002,-0.001,-0.015,0.004,0.006999999999999999,-1.564,-0.027999999999999997,-0.278,0.309,0.032,2.7769999999999997,2,-1.0,-1.0,0,84.5,90.0,1,primary,2,1,40.526447,-3.422211,7.101,86.7,0.731,0.19899999999999998,0.07
65,87.93,85.8,40.527386,-3.423313,625.4,4,5,325.2,4.922,1,0.019,-0.005,0.024,0.015,0.0,0.023,-1.577,-0.023,-0.295,0.319,0.052000000000000005,2.8080000000000003,2,-1.0,-1.0,0,85.8,90.0,1,primary,2,1,40.526447,-3.422211,7.101,86.7,0.731,0.19899999999999998,0.07
66,88.97,86.7,40.527565,-3.4234730000000004,624.9,4,5,327.3,4.57,1,-0.01,-0.011000000000000001,-0.01,-0.021,-0.008,-0.01,-1.5759999999999998,-0.027000000000000003,-0.314,0.369,0.055,2.8169999999999997,2,-1.0,-1.0,0,86.7,90.0,1,primary,2,1,40.526447,-3.422211,7.101,86.7,0.73,0.19899999999999998,0.07
67,89.92,87.6,40.527744,-3.423625,624.8,3,5,329.4,4.218999999999999,1,-0.01,-0.025,-0.015,-0.002,-0.018000000000000002,-0.017,-1.577,-0.042,-0.32899999999999996,0.33899999999999997,0.031,2.782,2,-1.0,-1.0,0,87.6,90.0,1,primary,2,1,40.526447,-3.422211,7.101,86.7,0.725,0.204,0.07
68,90.93,88.1,40.527935,-3.4237599999999997,624.6,3,5,331.5,4.218999999999999,1,-0.02,-0.019,-0.024,-0.035,-0.023,-0.026000000000000002,-1.578,-0.040999999999999995,-0.33299999999999996,0.409,0.025,2.792,2,-1.0,-1.0,0,88.1,90.0,1,primary,2,1,40.527744,-3.423625,2.5669999999999997,88.3,0.7190000000000001,0.21100000000000002,0.07
69,91.94,88.3,40.52813,-3.423892,624.0,3,5,332.6,3.1639999999999997,1,0.001,-0.048,-0.031,0.009000000000000001,-0.048,-0.022000000000000002,-1.5759999999999998,-0.028999999999999998,-0.326,0.488,0.05,2.758,2,-1.0,-1.0,0,88.3,90.0,1,primary,2,1,40.527744,-3.423625,2.5669999999999997,88.3,0.71,0.22,0.071
70,92.94,88.4,40.528313,-3.424028,623.0,3,5,333.3,1.758,1,-0.012,-0.035,-0.001,-0.037000000000000005,-0.037000000000000005,-0.026000000000000002,-1.574,-0.025,-0.309,0.488,-0.018000000000000002,2.784,2,-1.0,-1.0,0,88.4,90.0,1,primary,2,1,40.527744,-3.423625,2.5669999999999997,88.3,0.6990000000000001,0.23,0.071
71,93.93,88.5,40.528519,-3.42415,622.7,3,5,333.6,1.055,1,-0.017,-0.012,-0.005,-0.021,-0.021,-0.01,-1.5630000000000002,-0.018000000000000002,-0.28600000000000003,0.478,-0.061,2.798,2,-1.0,-1.0,0,88.5,90.0,1,primary,2,1,40.527744,-3.423625,2.5669999999999997,88.3,0.69,0.24,0.071
72,94.91,88.6,40.528717,-3.4242839999999997,622.7,3,5,333.6,0.35200000000000004,1,0.01,-0.026000000000000002,-0.002,0.011000000000000001,-0.028999999999999998,-0.005,-1.556,-0.003,-0.26,0.369,0.02,2.763,2,-1.0,-1.0,0,88.6,90.0,1,primary,2,1,40.527744,-3.423625,2.5669999999999997,88.3,0.68,0.25,0.071
73,96.0,88.3,40.528915000000005,-3.424413,622.9,3,5,333.3,0.35200000000000004,1,0.055,-0.003,-0.006999999999999999,0.024,-0.003,0.002,-1.544,0.002,-0.22399999999999998,0.33899999999999997,0.002,2.7569999999999997,2,-1.0,-1.0,0,88.3,90.0,1,primary,2,1,40.527744,-3.423625,2.5669999999999997,88.3,0.677,0.251,0.071
74,96.97,88.3,40.529106,-3.4245419999999998,622.6,3,5,332.9,0.703,1,-0.042,0.009000000000000001,-0.013999999999999999,-0.026000000000000002,0.006999999999999999,-0.008,-1.5490000000000002,-0.009000000000000001,-0.192,0.349,-0.013999999999999999,2.793,2,-1.0,-1.0,0,88.3,90.0,1,primary,2,1,40.528313,-3.424028,7.574,86.7,0.6779999999999999,0.251,0.071
75,98.01,87.9,40.529312,-3.424672,622.7,3,5,332.2,1.055,1,-0.077,0.006999999999999999,0.0,-0.059000000000000004,0.001,-0.006999999999999999,-1.5430000000000001,-0.013999999999999999,-0.156,0.419,-0.031,2.7539999999999996,2,-1.0,-1.0,0,87.9,90.0,1,primary,2,1,40.528313,-3.424028,7.574,86.7,0.675,0.255,0.071
76,98.94,87.3,40.529507,-3.424811,622.7,3,5,331.5,1.406,1,-0.051,-0.064,0.043,-0.11,-0.043,0.006999999999999999,-1.544,-0.017,-0.11699999999999999,0.26899999999999996,-0.031,2.92,2,-1.0,-1.0,0,87.3,90.0,1,primary,2,1,40.528313,-3.424028,7.574,86.7,0.68,0.248,0.07200000000000001
77,99.91,86.7,40.52969,-3.424949,622.7,3,5,330.5,1.758,1,0.018000000000000002,-0.01,0.036000000000000004,0.001,-0.012,0.025,-1.536,-0.01,-0.081,0.14,-0.063,2.8110000000000004,2,-1.0,-1.0,0,86.7,90.0,1,primary,2,1,40.528313,-3.424028,7.574,86.7,0.69,0.23800000000000002,0.07200000000000001
78,100.91,87.2,40.529881,-3.425097,621.4,3,5,329.1,2.461,1,0.026000000000000002,0.019,0.047,0.024,0.0,0.040999999999999995,-1.535,0.009000000000000001,-0.043,0.209,0.004,2.781,2,-1.0,-1.0,0,87.2,90.0,1,primary,2,1,40.528313,-3.424028,7.574,86.7,0.75,0.23,0.02
79,101.91,87.8,40.530066999999995,-3.4252519999999995,619.2,3,5,328.0,2.461,1,-0.128,0.013999999999999999,0.10300000000000001,-0.10099999999999999,-0.006,0.021,-1.558,0.018000000000000002,-0.002,0.22899999999999998,0.008,2.964,2,-1.0,-1.0,0,87.2,90.0,1,primary,2,1,40.529881,-3.425097,0.595,87.2,0.75,0.231,0.02
80,102.97,87.8,40.530246999999996,-3.4254059999999997,619.6,3,5,326.2,2.812,1,-0.006,-0.01,0.001,0.003,-0.006999999999999999,0.017,-1.5530000000000002,0.021,0.05,0.149,0.002,2.83,2,-1.0,-1.0,0,87.8,90.0,1,primary,2,1,40.530066999999995,-3.4252519999999995,0.708,87.8,0.7509999999999999,0.23,0.019
81,103.91,88.5,40.530426,-3.4255739999999997,619.7,3,5,324.5,3.516,1,-0.027999999999999997,-0.002,-0.027999999999999997,-0.027999999999999997,0.016,-0.021,-1.544,0.02,0.092,0.06,0.017,2.813,2,-1.0,-1.0,0,88.5,90.0,1,primary,2,1,40.530246999999996,-3.425407,0.871,88.5,0.76,0.221,0.02
82,104.91,87.2,40.530594,-3.4257419999999996,619.9,3,5,322.7,3.516,1,-0.051,0.017,-0.004,-0.046,0.03,-0.006999999999999999,-1.54,0.022000000000000002,0.136,-0.01,0.043,2.864,2,-1.0,-1.0,0,87.2,90.0,1,primary,2,1,40.530426,-3.4255739999999997,0.5489999999999999,88.5,0.7659999999999999,0.215,0.019
83,105.91,87.9,40.530766,-3.425926,618.8,3,5,321.3,3.1639999999999997,1,0.006,0.013000000000000001,0.012,-0.018000000000000002,0.013000000000000001,0.008,-1.531,0.011000000000000001,0.16899999999999998,-0.02,0.021,2.853,2,-1.0,-1.0,0,87.9,90.0,1,primary,2,1,40.530766,-3.425926,0.522,87.9,0.765,0.215,0.02
84,106.91,88.9,40.530933000000005,-3.4261169999999996,618.4,3,5,319.2,3.516,1,0.008,0.022000000000000002,-0.011000000000000001,-0.012,0.023,-0.008,-1.54,0.013000000000000001,0.203,-0.13,0.013999999999999999,2.908,2,-1.0,-1.0,0,88.9,90.0,1,primary,2,1,40.530766,-3.425926,0.522,87.9,0.765,0.21600000000000003,0.02
85,107.95,87.5,40.53109,-3.426318,617.6,3,5,318.2,3.1639999999999997,1,-0.043,0.006,-0.043,-0.018000000000000002,0.011000000000000001,-0.017,-1.571,-0.006,0.22899999999999998,-0.18899999999999997,0.038,2.875,2,-1.0,-1.0,0,87.5,90.0,1,primary,2,1,40.530933000000005,-3.4261169999999996,0.52,88.9,0.765,0.215,0.02
86,108.92,87.6,40.531258,-3.426514,616.3,3,5,316.8,2.461,1,-0.07,0.026000000000000002,-0.002,-0.024,-0.001,-0.011000000000000001,-1.5619999999999998,0.009000000000000001,0.25,-0.149,0.079,2.846,2,-1.0,-1.0,0,87.6,90.0,1,primary,2,1,40.53109,-3.426318,0.575,87.5,0.767,0.214,0.02
87,109.92,88.5,40.531418,-3.426709,616.1,3,5,316.1,2.109,1,-0.059000000000000004,0.025,0.04,-0.106,0.035,-0.005,-1.575,0.017,0.273,-0.13,0.063,2.843,2,-1.0,-1.0,0,88.5,90.0,1,primary,2,1,40.531258,-3.426514,0.669,87.6,0.7759999999999999,0.204,0.02
88,110.91,87.9,40.531574,-3.4269190000000003,615.0,3,5,313.9,2.812,1,-0.013999999999999999,0.047,0.01,-0.013999999999999999,0.035,0.005,-1.564,0.002,0.29,-0.149,0.087,2.853,2,-1.0,-1.0,0,87.9,90.0,1,primary,2,1,40.531418,-3.426709,0.608,88.5,0.787,0.19399999999999998,0.019
89,111.94,87.2,40.531723,-3.4271260000000003,615.5,3,5,312.5,3.516,1,-0.04,0.009000000000000001,0.001,-0.038,0.024,-0.008,-1.565,-0.006,0.299,-0.09,0.054000000000000006,2.843,2,-1.0,-1.0,0,87.2,90.0,1,primary,2,1,40.531574,-3.4269199999999995,0.616,87.9,0.7959999999999999,0.185,0.019
90,112.96,86.7,40.531876000000004,-3.427341,615.4,3,5,311.5,2.461,1,-0.054000000000000006,0.01,-0.006999999999999999,-0.028999999999999998,-0.003,-0.002,-1.5719999999999998,-0.001,0.314,0.11,0.059000000000000004,2.859,2,-1.0,-1.0,0,86.7,90.0,1,primary,2,1,40.531723,-3.4271260000000003,0.743,87.2,0.8059999999999999,0.175,0.018000000000000002
91,113.92,85.7,40.532009,-3.4275550000000004,615.9,3,5,309.4,3.1639999999999997,1,-0.07,0.006999999999999999,-0.008,-0.042,-0.008,-0.0,-1.589,0.0,0.33399999999999996,0.19899999999999998,0.035,2.8280000000000003,2,-1.0,-1.0,0,85.7,90.0,1,primary,2,1,40.531876000000004,-3.427341,1.278,85.7,0.8109999999999999,0.171,0.018000000000000002
92,114.98,86.7,40.532146000000004,-3.427781,616.6,3,5,308.0,3.516,1,-0.001,0.016,0.016,-0.013000000000000001,0.004,0.008,-1.5959999999999999,0.006,0.35200000000000004,0.19899999999999998,0.023,2.7760000000000002,2,-1.0,-1.0,0,86.7,90.0,1,primary,2,1,40.532146000000004,-3.427781,0.506,86.7,0.813,0.16899999999999998,0.018000000000000002
93,115.96,83.0,40.532276,-3.427996,617.2,3,5,307.3,2.109,1,-0.003,0.004,0.001,-0.015,0.011000000000000001,0.005,-1.594,0.006,0.36200000000000004,0.159,0.002,2.7969999999999997,2,-1.0,-1.0,0,83.0,90.0,1,primary,2,1,40.532146000000004,-3.427781,0.506,86.7,0.8140000000000001,0.168,0.017
94,116.96,85.8,40.532387,-3.428235,618.3,3,5,304.8,3.1639999999999997,1,-0.031,0.024,0.009000000000000001,-0.032,0.002,-0.002,-1.599,0.016,0.379,0.19899999999999998,0.013999999999999999,2.7769999999999997,2,-1.0,-1.0,0,85.8,90.0,1,primary,2,1,40.532276,-3.427996,0.963,85.8,0.8140000000000001,0.168,0.017
95,117.92,85.5,40.532515999999994,-3.4284660000000002,619.2,3,5,303.0,4.218999999999999,1,-0.04,0.026000000000000002,-0.008,-0.024,0.018000000000000002,-0.008,-1.615,-0.002,0.392,0.179,0.004,2.7689999999999997,2,-1.0,-1.0,0,85.5,90.0,1,primary,2,1,40.532515999999994,-3.4284660000000002,0.45899999999999996,85.5,0.816,0.16699999999999998,0.017
96,118.92,85.1,40.532627000000005,-3.428699,621.2,3,5,301.3,3.516,1,-0.003,-0.008,-0.028999999999999998,-0.006999999999999999,0.006,-0.01,-1.597,0.005,0.405,0.149,-0.012,2.7119999999999997,2,-1.0,-1.0,0,85.1,90.0,1,primary,2,1,40.532515999999994,-3.4284660000000002,0.45899999999999996,85.5,0.816,0.16699999999999998,0.017
97,119.92,84.5,40.532734000000005,-3.4289449999999997,622.4,3,5,299.9,3.1639999999999997,1,-0.037000000000000005,-0.017,-0.003,-0.019,-0.006,0.006,-1.6059999999999999,-0.006999999999999999,0.42,0.03,-0.025,2.73,2,-1.0,-1.0,0,84.5,90.0,1,primary,2,1,40.532627000000005,-3.428699,0.604,85.1,0.816,0.168,0.016
98,120.94,84.3,40.532845,-3.429179,623.4,3,5,298.5,2.812,1,-0.049,-0.001,0.0,-0.045,-0.011000000000000001,-0.008,-1.611,-0.015,0.433,-0.07,0.009000000000000001,2.759,2,-1.0,-1.0,0,84.3,90.0,1,primary,2,1,40.532734000000005,-3.4289449999999997,0.628,84.5,0.816,0.168,0.017
99,121.92,83.8,40.532951000000004,-3.42942,624.5,3,5,296.7,3.1639999999999997,1,-0.031,-0.015,-0.004,-0.036000000000000004,0.005,-0.009000000000000001,-1.619,-0.009000000000000001,0.44299999999999995,-0.27899999999999997,0.047,2.766,2,-1.0,-1.0,0,83.8,90.0,1,primary,2,1,40.532845,-3.429179,0.594,84.3,0.8170000000000001,0.16699999999999998,0.016
100,122.92,84.1,40.533043,-3.429668,625.4,3,5,295.3,3.1639999999999997,1,-0.03,0.026000000000000002,0.016,-0.011000000000000001,0.011000000000000001,0.013000000000000001,-1.618,-0.003,0.44799999999999995,-0.439,0.055999999999999994,2.718,2,-1.0,-1.0,0,84.1,90.0,1,primary,2,1,40.533043,-3.429669,0.532,84.1,0.81,0.174,0.017
101,123.92,84.5,40.533127,-3.429922,626.2,3,5,293.9,2.812,1,-0.015,0.039,0.022000000000000002,-0.003,0.016,-0.006,-1.626,-0.026000000000000002,0.449,-0.508,0.057999999999999996,2.735,2,-1.0,-1.0,0,84.5,90.0,1,primary,2,1,40.533043,-3.429669,0.532,84.1,0.8,0.184,0.016
102,124.92,85.0,40.533211,-3.4301760000000003,627.4,3,5,293.9,1.406,1,-0.076,-0.033,-0.016,-0.02,-0.027000000000000003,-0.013000000000000001,-1.6230000000000002,-0.03,0.449,-0.389,0.099,2.815,2,-1.0,-1.0,0,85.0,90.0,1,primary,2,1,40.533127,-3.4299230000000005,0.52,84.5,0.79,0.19399999999999998,0.016
103,125.92,84.3,40.533291,-3.4304309999999996,629.3,3,5,291.8,2.109,1,-0.018000000000000002,-0.002,-0.109,-0.005,-0.016,-0.08199999999999999,-1.6219999999999999,-0.018000000000000002,0.457,-0.32899999999999996,0.121,2.799,2,-1.0,-1.0,0,84.3,90.0,1,primary,2,1,40.533211,-3.4301760000000003,0.654,85.0,0.784,0.2,0.017
104,126.93,81.9,40.533367,-3.430686,630.0,3,5,290.0,3.867,1,-0.011000000000000001,0.005,0.048,-0.003,0.005,0.033,-1.599,-0.021,0.46,-0.27899999999999997,0.153,2.7769999999999997,2,-1.0,-1.0,0,81.9,90.0,1,primary,2,1,40.533291,-3.4304309999999996,0.833,81.9,0.7829999999999999,0.2,0.016
105,127.92,82.2,40.533432,-3.430933,630.4,3,5,288.6,3.1639999999999997,1,0.063,-0.031,0.009000000000000001,0.022000000000000002,-0.019,0.015,-1.619,-0.006999999999999999,0.466,-0.12,0.19,2.679,2,-1.0,-1.0,0,82.2,90.0,1,primary,2,1,40.533367,-3.430686,0.705,81.9,0.785,0.201,0.013999999999999999
106,128.92,83.3,40.533497,-3.431192,631.6,3,5,286.9,3.1639999999999997,1,-0.013000000000000001,0.016,0.013999999999999999,0.024,0.004,0.021,-1.633,-0.005,0.47700000000000004,-0.13,0.076,2.7739999999999996,2,-1.0,-1.0,0,83.3,90.0,1,primary,2,1,40.533432,-3.430933,0.732,82.2,0.787,0.201,0.012
107,129.93,84.6,40.533553999999995,-3.431463,632.7,3,5,285.5,3.1639999999999997,1,-0.034,-0.032,0.01,-0.025,-0.027000000000000003,0.009000000000000001,-1.64,-0.008,0.478,-0.12,0.028999999999999998,2.6660000000000004,2,-1.0,-1.0,0,84.6,90.0,1,primary,2,1,40.533497,-3.431192,0.535,83.3,0.7929999999999999,0.196,0.01
108,130.93,85.9,40.533607,-3.4317339999999996,633.7,3,5,283.7,3.1639999999999997,1,-0.001,-0.032,0.003,-0.031,-0.013000000000000001,-0.004,-1.649,0.01,0.49200000000000005,-0.239,0.10300000000000001,2.679,2,-1.0,-1.0,0,85.9,90.0,1,primary,2,1,40.533553999999995,-3.431463,0.59,84.6,0.8059999999999999,0.18600000000000003,0.008
109,131.96,86.8,40.533649,-3.432014,635.5,3,5,281.6,3.867,1,-0.04,0.040999999999999995,-0.009000000000000001,-0.026000000000000002,0.040999999999999995,-0.013999999999999999,-1.653,0.006,0.501,-0.409,0.063,2.7439999999999998,2,-1.0,-1.0,0,86.8,90.0,1,primary,2,1,40.533607,-3.4317339999999996,0.585,85.9,0.8140000000000001,0.18,0.006
110,132.93,87.6,40.533703,-3.432296,637.2,3,5,280.5,3.1639999999999997,1,-0.026000000000000002,0.037000000000000005,0.018000000000000002,-0.013000000000000001,0.035,0.008,-1.641,-0.013999999999999999,0.494,-0.46799999999999997,0.081,2.8160000000000003,2,-1.0,-1.0,0,87.6,90.0,1,primary,2,1,40.533649,-3.432014,0.71,86.8,0.818,0.18,0.002
111,133.96,88.5,40.533737,-3.432582,638.1,3,5,279.5,2.109,1,0.05,-0.055,0.006,0.006999999999999999,-0.027000000000000003,-0.0,-1.6280000000000001,-0.016,0.488,-0.359,0.132,2.82,2,-1.0,-1.0,0,88.5,90.0,1,primary,2,1,40.533703,-3.432297,1.149,88.5,0.82,0.18,0.0
112,134.93,88.2,40.533768,-3.4328800000000004,639.5,3,5,278.4,2.109,1,-0.012,-0.023,-0.012,-0.027999999999999997,-0.021,-0.017,-1.611,0.001,0.496,-0.309,0.217,2.85,2,-1.0,-1.0,0,88.2,90.0,1,primary,2,1,40.533768,-3.4328809999999996,0.705,88.2,0.8290000000000001,0.171,0.0
113,135.93,87.1,40.533794,-3.433161,640.6,3,5,276.3,3.1639999999999997,1,0.018000000000000002,0.016,-0.019,0.025,-0.005,-0.015,-1.6059999999999999,0.011000000000000001,0.507,-0.289,0.19399999999999998,2.787,2,-1.0,-1.0,0,87.1,90.0,1,primary,2,1,40.533768,-3.4328809999999996,0.705,88.2,0.84,0.16,0.0
114,136.91,85.4,40.533813,-3.433443,641.9,3,5,274.2,4.218999999999999,1,0.023,0.026000000000000002,-0.038,0.002,0.011000000000000001,-0.035,-1.5719999999999998,0.012,0.512,-0.39899999999999997,0.133,2.918,2,-1.0,-1.0,0,85.4,90.0,1,primary,2,1,40.533794,-3.433161,0.8490000000000001,87.1,0.846,0.154,0.0
115,137.93,83.2,40.533821,-3.4337120000000003,642.8,3,5,273.5,2.812,1,-0.013999999999999999,0.021,0.040999999999999995,-0.011000000000000001,0.008,0.022000000000000002,-1.571,-0.009000000000000001,0.494,-0.45799999999999996,0.121,2.8489999999999998,2,-1.0,-1.0,0,83.2,90.0,1,primary,2,1,40.533813,-3.433443,0.741,85.4,0.845,0.155,0.0
116,138.93,82.7,40.533821,-3.433995,643.8,3,5,273.2,1.055,1,-0.046,0.009000000000000001,0.012,-0.038,0.009000000000000001,0.008,-1.59,-0.001,0.483,-0.488,0.073,2.8110000000000004,2,-1.0,-1.0,0,82.7,90.0,1,primary,2,1,40.533821,-3.4337120000000003,0.9840000000000001,82.7,0.835,0.165,0.0
117,139.93,81.9,40.533821,-3.434268,644.7,3,5,272.1,1.406,1,0.032,0.008,0.047,-0.011000000000000001,0.006,0.036000000000000004,-1.6130000000000002,-0.005,0.466,-0.429,0.125,2.727,2,-1.0,-1.0,0,81.9,90.0,1,primary,2,1,40.533821,-3.433995,0.672,82.7,0.825,0.175,0.0
118,140.91,82.4,40.533825,-3.4345410000000003,645.5,3,5,271.1,2.109,1,-0.071,0.001,-0.018000000000000002,-0.05,0.0,0.008,-1.604,0.005,0.45799999999999996,-0.359,0.125,2.767,2,-1.0,-1.0,0,82.4,90.0,1,primary,2,1,40.533821,-3.434268,1.338,82.4,0.82,0.18,0.0
119,141.93,81.5,40.533833,-3.4348059999999996,646.7,3,5,270.4,1.758,1,0.042,0.008,-0.057,0.001,0.009000000000000001,-0.051,-1.577,-0.002,0.439,-0.33899999999999997,0.138,2.8819999999999997,2,-1.0,-1.0,0,81.5,90.0,1,primary,2,1,40.533821,-3.434268,1.338,82.4,0.818,0.182,0.0
120,142.93,80.4,40.533833,-3.435072,647.5,3,5,270.0,1.055,1,-0.011000000000000001,-0.006,0.022000000000000002,-0.025,0.008,0.035,-1.6019999999999999,-0.001,0.42,-0.26899999999999996,0.172,2.7230000000000003,2,-1.0,-1.0,0,80.4,90.0,1,primary,2,1,40.533833,-3.434807,0.961,80.4,0.8220000000000001,0.17800000000000002,0.0
121,143.91,81.1,40.533833,-3.4353309999999997,648.5,3,5,270.4,0.35200000000000004,1,-0.005,0.016,0.01,-0.013999999999999999,0.009000000000000001,0.017,-1.635,-0.006,0.397,-0.209,0.18899999999999997,2.637,2,-1.0,-1.0,0,80.4,90.0,1,primary,2,1,40.533833,-3.435072,0.8079999999999999,80.4,0.831,0.16899999999999998,0.0
122,144.95,82.9,40.533836,-3.435603,649.7,3,5,270.4,0.35200000000000004,1,0.015,-0.008,0.02,-0.017,-0.005,0.019,-1.663,-0.001,0.37200000000000005,-0.1,0.19399999999999998,2.569,2,-1.0,-1.0,0,82.9,90.0,1,primary,2,1,40.533833,-3.4353309999999997,0.846,81.1,0.84,0.16,0.0
123,145.92,84.8,40.533833,-3.4358800000000005,651.0,3,5,270.4,0.0,1,-0.040999999999999995,0.001,0.009000000000000001,-0.024,0.003,0.001,-1.673,0.013000000000000001,0.355,0.239,0.157,2.62,2,-1.0,-1.0,0,84.8,90.0,1,primary,2,1,40.533836,-3.435604,0.9490000000000001,84.8,0.8420000000000001,0.158,0.0
124,146.98,86.8,40.533833,-3.4361599999999997,652.7,3,5,270.0,0.35200000000000004,1,-0.036000000000000004,-0.012,0.009000000000000001,-0.026000000000000002,-0.005,0.01,-1.6680000000000001,0.033,0.341,0.319,0.07400000000000001,2.457,2,-1.0,-1.0,0,86.8,90.0,1,primary,2,1,40.533833,-3.4358800000000005,1.7719999999999998,86.8,0.841,0.159,0.0
125,147.95,88.8,40.533836,-3.436436,654.4,3,5,269.6,0.703,1,0.042,-0.004,0.01,0.006,0.001,0.003,-1.659,0.03,0.33299999999999996,0.39899999999999997,-0.036000000000000004,2.489,2,-1.0,-1.0,0,88.8,90.0,1,primary,2,1,40.533833,-3.4358800000000005,1.7719999999999998,86.8,0.8320000000000001,0.168,0.0
126,148.99,89.4,40.533844,-3.436726,655.3,3,5,270.0,0.35200000000000004,1,0.028999999999999998,-0.006999999999999999,-0.003,0.025,-0.002,-0.0,-1.649,0.015,0.317,0.429,-0.019,2.467,2,-1.0,-1.0,0,89.4,90.0,1,primary,2,1,40.533836,-3.436436,1.22,89.4,0.823,0.177,0.0
127,149.94,90.2,40.533844,-3.437018,657.3,3,5,270.0,0.35200000000000004,1,-0.021,-0.001,-0.015,-0.013999999999999999,0.004,-0.012,-1.643,0.019,0.308,0.429,0.009000000000000001,2.596,2,-1.0,-1.0,0,90.2,90.0,1,primary,2,1,40.533836,-3.436436,1.22,89.4,0.815,0.183,0.002
128,150.93,91.5,40.533840000000005,-3.437318,659.9,3,5,269.6,0.35200000000000004,1,0.002,-0.025,-0.002,0.004,-0.011000000000000001,0.001,-1.642,0.015,0.3,0.439,0.022000000000000002,2.495,2,-1.0,-1.0,0,90.2,90.0,1,primary,2,1,40.533844,-3.437018,1.261,91.5,0.81,0.18600000000000003,0.004
129,151.97,91.8,40.533836,-3.437607,660.7,3,5,269.3,0.703,1,0.008,0.016,0.003,0.01,0.009000000000000001,-0.0,-1.6369999999999998,0.013999999999999999,0.293,0.409,-0.012,2.505,2,-1.0,-1.0,0,91.8,90.0,1,primary,2,1,40.533844,-3.437018,1.261,91.5,0.8079999999999999,0.18600000000000003,0.006
130,152.99,92.2,40.533829,-3.437914,661.5,3,5,269.6,0.35200000000000004,1,-0.03,0.013999999999999999,-0.052000000000000005,0.005,0.022000000000000002,-0.043,-1.617,0.012,0.284,0.39899999999999997,-0.035,2.503,2,-1.0,-1.0,0,92.2,90.0,1,primary,2,1,40.533844,-3.437018,1.261,91.5,0.8059999999999999,0.18600000000000003,0.008
131,153.94,92.0,40.533825,-3.4382230000000003,663.5,3,5,269.6,0.35200000000000004,1,0.002,-0.009000000000000001,-0.027000000000000003,0.017,-0.013999999999999999,-0.013999999999999999,-1.604,0.015,0.27899999999999997,0.389,-0.02,2.519,2,-1.0,-1.0,0,92.0,90.0,1,primary,2,1,40.533844,-3.437018,1.261,91.5,0.804,0.18600000000000003,0.01
132,154.94,89.9,40.533829,-3.438518,664.1,3,5,269.3,0.35200000000000004,1,-0.009000000000000001,0.006,-0.042,-0.017,0.0,-0.039,-1.5659999999999998,0.015,0.27699999999999997,0.349,-0.053,2.6519999999999997,2,-1.0,-1.0,0,89.9,90.0,1,primary,2,1,40.533844,-3.437018,1.261,91.5,0.807,0.183,0.01
133,155.94,88.4,40.533825,-3.4388120000000004,663.8,3,5,269.3,0.35200000000000004,1,0.033,-0.002,0.022000000000000002,0.013999999999999999,-0.0,0.021,-1.57,0.017,0.272,0.249,-0.085,2.5810000000000004,2,-1.0,-1.0,0,88.4,90.0,1,primary,2,1,40.533844,-3.437018,1.261,91.5,0.809,0.18100000000000002,0.01
134,156.94,88.2,40.533821,-3.4391089999999997,664.1,3,5,269.6,0.35200000000000004,1,-0.027999999999999997,0.031,0.013999999999999999,0.003,0.021,0.017,-1.604,0.016,0.267,0.249,0.016,2.62,2,-1.0,-1.0,0,88.2,90.0,1,primary,2,1,40.533844,-3.437018,1.261,91.5,0.809,0.18100000000000002,0.01
135,157.91,89.0,40.533833,-3.439389,665.8,3,5,269.6,0.35200000000000004,1,0.035,-0.009000000000000001,0.017,-0.006,-0.002,0.023,-1.608,0.018000000000000002,0.261,0.33899999999999997,-0.09,2.602,2,-1.0,-1.0,0,89.0,90.0,1,primary,2,1,40.533844,-3.437018,1.261,91.5,0.813,0.177,0.01
136,158.91,90.1,40.533844,-3.439678,666.4,3,5,270.0,0.35200000000000004,1,-0.033,0.016,0.009000000000000001,-0.002,-0.008,-0.001,-1.607,0.021,0.254,0.33899999999999997,-0.087,2.697,2,-1.0,-1.0,0,90.1,90.0,1,primary,2,1,40.533836,-3.437607,13.205,88.7,0.81,0.179,0.012
137,159.91,91.8,40.533844,-3.439972,668.0,3,5,269.6,0.35200000000000004,1,-0.015,-0.002,-0.001,-0.036000000000000004,0.003,-0.002,-1.6119999999999999,0.027000000000000003,0.254,0.419,-0.04,2.64,2,-1.0,-1.0,0,91.8,90.0,1,primary,2,1,40.533836,-3.437607,13.205,88.7,0.8009999999999999,0.185,0.013999999999999999
138,160.91,91.3,40.533840000000005,-3.4402699999999995,667.6,3,5,269.6,0.35200000000000004,1,-0.024,0.01,-0.037000000000000005,0.0,0.013000000000000001,-0.034,-1.59,0.03,0.252,0.478,-0.031,2.718,2,-1.0,-1.0,0,91.3,90.0,1,primary,2,1,40.533836,-3.437607,13.205,88.7,0.789,0.196,0.016
139,161.93,90.5,40.533840000000005,-3.440571,667.7,3,5,269.6,0.0,1,0.013000000000000001,0.001,-0.004,-0.011000000000000001,-0.002,-0.025,-1.5759999999999998,0.025,0.253,0.5479999999999999,-0.07,2.688,2,-1.0,-1.0,0,90.5,90.0,1,primary,2,1,40.533836,-3.437607,13.205,88.7,0.777,0.20600000000000002,0.018000000000000002
140,162.91,89.4,40.533836,-3.44086,668.0,3,5,269.6,0.0,1,0.038,0.040999999999999995,0.026000000000000002,0.022000000000000002,0.031,0.013000000000000001,-1.5659999999999998,0.033,0.254,0.478,-0.073,2.682,2,-1.0,-1.0,0,89.4,90.0,1,primary,2,1,40.533836,-3.437607,13.205,88.7,0.767,0.215,0.018000000000000002
141,163.91,88.9,40.533829,-3.441156,667.8,3,5,270.4,0.703,1,-0.001,0.002,0.009000000000000001,0.004,0.0,0.006,-1.555,0.024,0.254,0.33899999999999997,-0.051,2.741,2,-1.0,-1.0,0,88.9,90.0,1,primary,2,1,40.533836,-3.437607,13.205,88.7,0.759,0.223,0.018000000000000002
142,164.91,88.7,40.533825,-3.441437,667.7,3,5,269.6,0.703,1,-0.04,0.012,0.009000000000000001,-0.027999999999999997,0.016,0.001,-1.556,0.019,0.251,0.27899999999999997,-0.069,2.8139999999999996,2,-1.0,-1.0,0,88.7,90.0,1,primary,2,1,40.533836,-3.437607,13.205,88.7,0.759,0.223,0.018000000000000002
143,165.91,87.7,40.533817,-3.441711,668.5,4,5,269.6,0.703,1,0.009000000000000001,0.008,0.0,-0.009000000000000001,0.006999999999999999,-0.013999999999999999,-1.551,0.017,0.249,0.19899999999999998,0.042,2.92,2,-1.0,-1.0,0,87.7,90.0,1,primary,2,1,40.533817,-3.441711,0.715,87.7,0.759,0.223,0.018000000000000002
144,166.93,86.9,40.533813,-3.4420019999999996,667.9,4,5,269.6,0.0,1,0.032,-0.013000000000000001,-0.06,0.021,-0.01,-0.042,-1.5619999999999998,0.01,0.251,0.18899999999999997,0.034,2.859,2,-1.0,-1.0,0,86.9,90.0,1,primary,2,1,40.533817,-3.441711,0.715,87.7,0.76,0.223,0.018000000000000002
145,167.91,85.8,40.533813,-3.4422870000000003,667.7,3,5,269.6,0.0,1,0.023,0.0,-0.028999999999999998,0.022000000000000002,-0.004,-0.025,-1.555,0.012,0.258,0.14,0.037000000000000005,2.845,2,-1.0,-1.0,0,85.8,90.0,1,primary,2,1,40.533813,-3.4420019999999996,0.8340000000000001,85.8,0.759,0.223,0.018000000000000002
146,168.92,84.8,40.533809999999995,-3.4425739999999996,667.6,4,5,269.3,0.35200000000000004,1,0.023,-0.017,0.011000000000000001,0.012,-0.012,0.011000000000000001,-1.546,0.024,0.26899999999999996,-0.02,0.102,2.861,2,-1.0,-1.0,0,84.8,90.0,1,primary,2,1,40.533813,-3.4422879999999996,0.653,85.8,0.759,0.223,0.018000000000000002
147,169.91,85.2,40.533809999999995,-3.442844,666.7,4,5,269.3,0.35200000000000004,1,-0.059000000000000004,0.024,0.005,-0.027999999999999997,0.024,0.01,-1.554,0.006,0.267,-0.11,0.096,2.696,2,-1.0,-1.0,0,85.2,90.0,1,primary,2,1,40.533809999999995,-3.442575,0.7090000000000001,84.8,0.76,0.223,0.018000000000000002
148,170.92,85.9,40.533809999999995,-3.4431260000000004,666.7,3,5,269.3,0.0,1,-0.03,-0.028999999999999998,0.004,-0.028999999999999998,-0.013000000000000001,-0.0,-1.5619999999999998,0.004,0.263,-0.159,0.2,2.804,2,-1.0,-1.0,0,85.9,90.0,1,primary,2,1,40.533809999999995,-3.442844,0.6,85.2,0.76,0.223,0.018000000000000002
149,171.92,85.1,40.533806,-3.443407,667.9,3,5,269.6,0.35200000000000004,1,-0.017,0.006,-0.003,0.004,-0.005,0.001,-1.554,0.025,0.28,-0.249,0.147,2.823,2,-1.0,-1.0,0,85.1,90.0,1,primary,2,1,40.533809999999995,-3.4431260000000004,0.621,85.9,0.759,0.223,0.018000000000000002
150,172.94,85.1,40.533798,-3.443692,666.4,3,5,269.3,0.35200000000000004,1,-0.018000000000000002,0.042,-0.015,-0.035,0.043,-0.02,-1.5630000000000002,0.012,0.281,-0.259,0.128,2.861,2,-1.0,-1.0,0,85.1,90.0,1,primary,2,1,40.533806,-3.443407,0.6609999999999999,85.1,0.759,0.223,0.018000000000000002
151,173.92,85.0,40.533791,-3.443976,667.2,4,5,270.0,0.703,1,0.016,0.01,-0.006999999999999999,0.006,0.006999999999999999,-0.016,-1.556,-0.003,0.275,-0.149,0.168,2.888,2,-1.0,-1.0,0,85.0,90.0,1,primary,2,1,40.533798,-3.443692,0.684,85.1,0.759,0.223,0.018000000000000002
152,174.92,84.5,40.533794,-3.4442489999999997,666.5,4,5,270.7,1.406,1,-0.006,-0.01,0.011000000000000001,-0.005,-0.021,-0.011000000000000001,-1.556,0.013999999999999999,0.278,0.11,0.191,2.8489999999999998,2,-1.0,-1.0,0,84.5,90.0,1,primary,2,1,40.533791,-3.443976,0.495,85.0,0.759,0.223,0.018000000000000002
153,175.92,84.6,40.533798,-3.4445300000000003,665.8,4,5,269.6,1.055,1,-0.032,-0.035,-0.017,-0.019,-0.028999999999999998,-0.011000000000000001,-1.546,0.033,0.315,0.179,0.07200000000000001,2.95,2,-1.0,-1.0,1,84.6,90.0,1,primary,2,1,40.533794,-3.4442489999999997,0.629,84.5,0.759,0.223,0.018000000000000002
154,176.92,84.9,40.533802,-3.44481,664.2,3,5,269.3,1.406,1,-0.061,0.025,-0.013999999999999999,-0.038,0.017,-0.01,-1.5630000000000002,0.036000000000000004,0.314,0.13,0.015,2.843,2,-1.0,-1.0,1,84.9,90.0,1,primary,2,1,40.533798,-3.4445300000000003,0.536,84.6,0.76,0.222,0.018000000000000002
155,177.92,85.4,40.533809999999995,-3.4450730000000003,662.9,4,5,269.6,0.35200000000000004,1,-0.013999999999999999,0.031,0.003,-0.006,0.027999999999999997,0.006,-1.578,0.025,0.316,0.0,0.013000000000000001,2.844,2,-1.0,-1.0,0,85.4,90.0,1,primary,2,1,40.533802,-3.44481,0.664,84.9,0.76,0.222,0.018000000000000002
156,178.91,87.0,40.533809999999995,-3.4453650000000002,663.7,4,5,270.4,1.055,1,0.023,0.018000000000000002,0.011000000000000001,0.040999999999999995,0.008,0.017,-1.58,0.013999999999999999,0.314,-0.09,0.055,2.7319999999999998,2,35.04,1.45,1,87.0,90.0,1,primary,2,1,40.533809999999995,-3.4450730000000003,0.6859999999999999,85.4,0.76,0.222,0.018000000000000002
157,179.94,88.0,40.533817,-3.445646,662.7,4,5,270.0,0.35200000000000004,1,-0.035,0.013999999999999999,0.013000000000000001,-0.015,-0.002,-0.004,-1.5830000000000002,0.001,0.31,-0.149,0.114,2.761,2,35.63,1.46,1,88.0,90.0,1,primary,2,1,40.533809999999995,-3.4453650000000002,0.748,87.0,0.759,0.223,0.018000000000000002
158,180.92,89.4,40.533806,-3.445938,662.9,4,5,269.6,0.703,1,-0.036000000000000004,-0.013000000000000001,-0.018000000000000002,-0.027999999999999997,-0.02,-0.016,-1.5730000000000002,0.002,0.31,-0.03,0.109,2.863,2,37.17,1.52,1,88.0,90.0,1,primary,2,1,40.533817,-3.445646,0.636,88.0,0.759,0.223,0.018000000000000002
159,181.92,89.8,40.533806,-3.4462339999999996,662.9,3,5,269.6,0.35200000000000004,1,0.001,-0.009000000000000001,-0.028999999999999998,-0.01,0.0,-0.022000000000000002,-1.569,0.011000000000000001,0.309,0.04,0.046,2.8510000000000004,2,38.32,1.54,1,89.8,90.0,1,primary,2,1,40.533806,-3.445938,0.797,89.4,0.759,0.223,0.018000000000000002
160,182.94,90.3,40.533802,-3.4465199999999996,663.1,3,5,270.0,0.35200000000000004,1,0.047,-0.035,0.02,0.013999999999999999,-0.023,0.006999999999999999,-1.546,0.021,0.307,0.22899999999999998,0.044000000000000004,2.839,2,41.24,1.64,1,90.3,90.0,1,primary,2,1,40.533806,-3.4462339999999996,0.672,89.8,0.764,0.21600000000000003,0.02
161,183.92,89.9,40.533802,-3.4468120000000004,664.1,3,5,270.0,0.35200000000000004,1,-0.027999999999999997,0.004,0.005,-0.006999999999999999,0.015,-0.002,-1.5430000000000001,0.027999999999999997,0.31,0.389,0.013000000000000001,2.8789999999999996,2,44.3,1.77,1,89.9,90.0,1,primary,2,1,40.533802,-3.4465199999999996,0.809,90.3,0.773,0.207,0.02
162,184.95,91.8,40.533802,-3.4471190000000003,664.3,4,5,270.7,0.703,1,-0.019,-0.003,0.004,-0.013999999999999999,-0.006,-0.002,-1.541,0.037000000000000005,0.315,0.429,0.025,2.8739999999999997,2,44.4,1.74,1,91.8,90.0,1,primary,2,1,40.533802,-3.4468129999999997,0.889,91.8,0.78,0.198,0.022000000000000002
163,185.93,88.1,40.533798,-3.447406,664.5,4,5,269.6,1.055,1,0.004,0.01,0.028999999999999998,-0.026000000000000002,0.017,0.024,-1.5330000000000001,0.033,0.316,0.22899999999999998,-0.046,2.85,2,53.89,2.2,1,88.1,90.0,1,primary,2,1,40.533802,-3.4471190000000003,0.863,88.1,0.784,0.195,0.022000000000000002
164,186.94,89.3,40.533817,-3.4476739999999997,663.8,4,5,269.3,1.406,1,-0.024,0.016,0.032,-0.03,0.003,0.016,-1.547,0.018000000000000002,0.313,0.159,-0.015,2.853,2,60.15,2.42,1,89.3,90.0,1,primary,2,1,40.533798,-3.447407,0.7809999999999999,88.1,0.784,0.19399999999999998,0.022000000000000002
165,187.96,89.1,40.533809999999995,-3.4479830000000002,659.5,4,5,269.6,0.35200000000000004,1,0.025,0.003,-0.004,0.019,0.0,-0.002,-1.568,0.011000000000000001,0.314,0.06,0.025,2.812,2,57.02,2.3,1,89.1,90.0,1,primary,2,1,40.533817,-3.4476739999999997,1.0090000000000001,89.1,0.784,0.19399999999999998,0.022000000000000002
166,188.92,90.2,40.533817,-3.4482760000000003,657.4,4,5,269.3,0.35200000000000004,1,0.039,0.013000000000000001,0.005,0.01,-0.01,-0.001,-1.556,0.016,0.313,-0.03,0.023,2.875,2,55.42,2.21,1,90.2,90.0,1,primary,2,1,40.533817,-3.4476739999999997,1.0090000000000001,89.1,0.7809999999999999,0.195,0.024
167,189.95,90.5,40.533813,-3.448577,657.2,4,5,269.6,0.35200000000000004,1,-0.006999999999999999,-0.013999999999999999,-0.025,0.005,-0.012,-0.011000000000000001,-1.557,0.013000000000000001,0.314,-0.149,0.024,2.872,2,54.28,2.16,1,90.5,90.0,1,primary,2,1,40.533817,-3.4482760000000003,1.0979999999999999,90.5,0.78,0.19399999999999998,0.026000000000000002
168,190.92,90.6,40.533813,-3.448874,658.3,4,5,269.6,0.35200000000000004,1,-0.049,-0.01,0.005,-0.034,0.002,0.012,-1.564,-0.006999999999999999,0.304,-0.18899999999999997,0.084,2.8939999999999997,2,-1.0,-1.0,0,90.6,90.0,1,primary,2,1,40.533817,-3.4482760000000003,1.0979999999999999,90.5,0.778,0.19399999999999998,0.027999999999999997
169,191.91,91.9,40.533817,-3.4491669999999996,658.3,4,5,270.0,0.35200000000000004,1,0.002,-0.039,-0.012,0.005,-0.023,-0.001,-1.569,0.004,0.305,-0.12,0.10300000000000001,2.8489999999999998,2,-1.0,-1.0,0,90.6,90.0,1,primary,2,1,40.533813,-3.448874,1.869,91.7,0.778,0.192,0.03
170,192.92,91.7,40.533802,-3.4494550000000004,657.8,4,5,269.6,0.35200000000000004,1,-0.028999999999999998,0.013000000000000001,-0.034,-0.025,0.019,-0.018000000000000002,-1.561,0.018000000000000002,0.308,-0.18899999999999997,0.081,2.847,2,-1.0,-1.0,0,91.7,90.0,1,primary,2,1,40.533813,-3.448874,1.869,91.7,0.787,0.18100000000000002,0.032
171,193.93,92.4,40.533809999999995,-3.449751,658.0,4,5,269.6,0.35200000000000004,1,-0.026000000000000002,0.003,-0.034,0.006999999999999999,-0.006999999999999999,-0.035,-1.554,0.016,0.313,-0.179,0.096,2.924,2,-1.0,-1.0,0,91.7,90.0,1,primary,2,1,40.533802,-3.4494559999999996,0.919,92.4,0.795,0.171,0.034
172,194.93,92.1,40.533806,-3.4500610000000003,657.7,4,5,269.6,0.0,1,0.011000000000000001,0.032,-0.006999999999999999,-0.005,0.006,-0.002,-1.524,0.008,0.313,-0.309,0.026000000000000002,2.89,2,-1.0,-1.0,0,92.1,90.0,1,primary,2,1,40.533809999999995,-3.449751,1.002,92.1,0.794,0.17,0.035
173,195.93,91.8,40.533806,-3.450361,657.9,4,5,269.6,0.0,1,0.013999999999999999,0.033,-0.015,0.013999999999999999,0.012,0.003,-1.5219999999999998,0.006999999999999999,0.309,-0.27899999999999997,0.085,2.8989999999999996,2,-1.0,-1.0,0,91.8,90.0,1,primary,2,1,40.533806,-3.450361,0.7090000000000001,91.8,0.7909999999999999,0.171,0.038
174,196.95,90.2,40.533802,-3.45066,656.9,4,5,270.0,0.35200000000000004,1,0.009000000000000001,-0.027999999999999997,0.006999999999999999,0.006999999999999999,-0.022000000000000002,0.013999999999999999,-1.5330000000000001,0.011000000000000001,0.309,-0.209,0.11,2.917,2,-1.0,-1.0,0,90.2,90.0,1,primary,2,1,40.533806,-3.450361,0.7090000000000001,91.8,0.794,0.16699999999999998,0.039
175,197.93,90.1,40.533802,-3.450964,656.5,4,5,269.6,0.35200000000000004,1,-0.043,-0.018000000000000002,0.002,-0.040999999999999995,-0.02,0.011000000000000001,-1.5230000000000001,0.03,0.319,-0.27899999999999997,0.086,3.034,2,-1.0,-1.0,0,90.1,90.0,1,primary,2,1,40.533802,-3.45066,0.7759999999999999,90.2,0.8009999999999999,0.158,0.040999999999999995
176,198.93,89.9,40.533794,-3.4512690000000004,656.5,4,5,269.6,0.35200000000000004,1,-0.051,0.019,0.006,-0.027999999999999997,0.026000000000000002,0.002,-1.5430000000000001,0.011000000000000001,0.318,-0.369,0.08800000000000001,2.884,2,-1.0,-1.0,0,89.9,90.0,1,primary,2,1,40.533802,-3.450964,0.759,90.1,0.812,0.147,0.040999999999999995
177,200.0,90.5,40.533794,-3.4515629999999997,656.1,4,5,269.6,0.0,1,-0.005,0.003,0.022000000000000002,0.006999999999999999,0.006999999999999999,0.025,-1.5630000000000002,0.024,0.32299999999999995,-0.409,0.053,2.793,2,-1.0,-1.0,0,90.5,90.0,1,primary,2,1,40.533794,-3.4512690000000004,0.684,89.9,0.8190000000000001,0.138,0.043
178,200.97,91.5,40.533791,-3.4518760000000004,655.9,4,5,269.3,0.35200000000000004,1,0.008,-0.024,0.006999999999999999,0.001,-0.013000000000000001,0.006999999999999999,-1.5719999999999998,0.025,0.32799999999999996,-0.46799999999999997,0.033,2.773,2,-1.0,-1.0,0,91.5,90.0,1,primary,2,1,40.533794,-3.4515629999999997,0.728,90.5,0.812,0.14300000000000002,0.045
179,201.95,92.4,40.533791,-3.452168,655.9,4,5,268.9,0.703,1,0.003,-0.005,-0.01,-0.015,0.004,-0.003,-1.574,0.013000000000000001,0.332,-0.718,0.02,2.852,2,-1.0,-1.0,0,92.4,90.0,1,primary,2,1,40.533791,-3.4518760000000004,0.768,91.5,0.8029999999999999,0.15,0.047
180,202.93,93.5,40.533794,-3.452462,656.6,4,5,269.3,0.35200000000000004,1,-0.031,0.009000000000000001,-0.034,-0.015,0.018000000000000002,-0.016,-1.568,-0.013000000000000001,0.321,-0.8170000000000001,0.061,2.889,2,-1.0,-1.0,0,92.4,90.0,1,primary,2,1,40.533791,-3.452169,0.764,92.4,0.79,0.16,0.05
181,203.98,93.7,40.533791,-3.4527730000000005,655.5,4,5,270.0,1.055,1,-0.01,-0.037000000000000005,0.013000000000000001,-0.017,-0.006999999999999999,0.008,-1.557,-0.005,0.307,-0.608,0.071,2.88,2,-1.0,-1.0,0,93.7,90.0,1,primary,2,1,40.533794,-3.452463,0.778,93.5,0.778,0.17,0.052000000000000005
182,204.93,94.2,40.533791,-3.4530830000000003,654.4,4,5,270.0,0.703,1,-0.001,-0.023,-0.027000000000000003,0.004,-0.027000000000000003,-0.022000000000000002,-1.555,0.018000000000000002,0.318,-0.39899999999999997,0.063,2.822,2,-1.0,-1.0,0,94.2,90.0,1,primary,2,1,40.533791,-3.452774,0.9059999999999999,94.2,0.768,0.179,0.053
183,205.93,93.6,40.533783,-3.453393,655.6,4,5,269.3,0.703,1,0.017,0.006999999999999999,-0.017,-0.017,0.017,-0.022000000000000002,-1.5390000000000001,0.024,0.324,-0.46799999999999997,0.028999999999999998,2.8960000000000004,2,-1.0,-1.0,0,93.6,90.0,1,primary,2,1,40.533791,-3.4530839999999996,0.5329999999999999,94.2,0.754,0.19,0.055999999999999994
184,206.95,93.2,40.533775,-3.4537050000000002,655.4,3,5,269.6,0.35200000000000004,1,-0.013000000000000001,0.006,-0.013999999999999999,0.01,0.0,-0.011000000000000001,-1.534,0.011000000000000001,0.321,-0.45799999999999996,0.042,2.835,2,-1.0,-1.0,0,93.2,90.0,1,primary,2,1,40.533783,-3.4533940000000003,0.605,93.6,0.743,0.2,0.057
185,207.93,92.7,40.533775,-3.454014,655.6,4,5,269.6,0.35200000000000004,1,-0.062,0.032,0.003,-0.04,0.032,0.013999999999999999,-1.524,0.011000000000000001,0.321,-0.488,0.049,2.8789999999999996,2,-1.0,-1.0,0,92.7,90.0,1,primary,2,1,40.533775,-3.453706,0.57,93.2,0.74,0.201,0.059000000000000004
186,208.91,91.9,40.533775,-3.4543129999999995,655.4,4,5,269.6,0.0,1,-0.011000000000000001,0.013999999999999999,0.045,0.013999999999999999,0.003,0.042,-1.524,0.012,0.32,-0.45799999999999996,0.036000000000000004,2.839,2,-1.0,-1.0,0,91.9,90.0,1,primary,2,1,40.533775,-3.454314,0.475,91.9,0.738,0.201,0.061
187,209.92,92.6,40.533768,-3.454614,653.5,4,5,269.6,0.0,1,-0.011000000000000001,0.009000000000000001,0.03,-0.017,0.001,0.026000000000000002,-1.531,0.02,0.321,-0.46799999999999997,0.024,2.9189999999999996,2,-1.0,-1.0,0,92.6,90.0,1,primary,2,1,40.533775,-3.454314,0.475,91.9,0.737,0.201,0.062
188,210.94,93.4,40.53376,-3.4549260000000004,652.9,4,5,269.3,0.35200000000000004,1,-0.10300000000000001,0.03,0.009000000000000001,-0.055999999999999994,0.008,0.006999999999999999,-1.545,0.03,0.326,-0.488,0.022000000000000002,2.832,2,-1.0,-1.0,0,93.4,90.0,1,primary,2,1,40.533768,-3.454614,0.635,92.6,0.736,0.20199999999999999,0.062
189,211.95,92.6,40.53376,-3.455227,652.2,4,5,269.3,0.35200000000000004,1,-0.025,0.005,0.005,-0.006,0.011000000000000001,0.005,-1.5530000000000002,0.004,0.321,-0.588,0.028999999999999998,2.82,1,-1.0,-1.0,0,92.6,90.0,1,primary,2,1,40.53376,-3.4549260000000004,0.581,93.4,0.7340000000000001,0.203,0.063
190,212.96,92.7,40.53376,-3.4555279999999997,651.1,4,5,270.0,0.703,1,0.024,-0.02,-0.026000000000000002,0.027999999999999997,-0.016,-0.01,-1.538,-0.001,0.312,-0.508,0.064,2.8710000000000004,2,-1.0,-1.0,0,92.7,90.0,1,primary,2,1,40.53376,-3.455228,0.63,92.6,0.7340000000000001,0.203,0.063
191,213.91,91.1,40.533756,-3.4558269999999998,649.5,4,5,270.7,1.406,1,0.035,0.003,0.013999999999999999,0.022000000000000002,-0.002,0.002,-1.528,0.001,0.309,-0.349,0.08,2.8960000000000004,1,-1.0,-1.0,0,91.1,90.0,1,primary,2,1,40.53376,-3.4555279999999997,0.503,92.7,0.737,0.201,0.062
192,214.92,90.3,40.53376,-3.456136,649.7,4,5,270.4,0.35200000000000004,1,-0.019,-0.006999999999999999,-0.013999999999999999,-0.015,-0.008,-0.009000000000000001,-1.5390000000000001,0.008,0.306,-0.13,0.08,2.895,2,-1.0,-1.0,0,90.3,90.0,1,primary,2,1,40.533756,-3.455828,0.67,91.1,0.742,0.19399999999999998,0.064
