,Timestamp (seconds),Speed (km/h),Latitude coordinate (degrees),Longitude coordinate (degrees),Altitude (meters),Vertical accuracy (degrees),Horizontal accuracy (degrees),Course (degrees),Difcourse: course variation (degrees),Boolean of system activated (1 if >50km/h),Acceleration in X (Gs),Acceleration in Y (Gs),Acceleration in Z (Gs),Acceleration in X filtered by KF (Gs),Acceleration in Y filtered by KF (Gs),Acceleration in Z filtered by KF (Gs),Roll (degrees),Pitch (degrees),Yaw (degrees),X: car position relative to lane center (meters),Phi: car angle relative to lane curvature (degrees),W: road width (meters),"State of the lane det. algorithm [-1=calibrating, 0=initializing, 1=undetected, 2=detected/running]",Distance to ahead vehicle in current lane (meters) [value -1 means no car is detected in front],Time of impact to ahead vehicle (seconds) [distance related to own speed],Number of detected vehicles in this frame (traffic),GPS speed (km/h) [same as in RAW GPS],Maximum allowed speed of current road (km/h),"Reliability of obtained maxspeed (0=unknown, 1=reliable, 2=used previously obtained maxspeed,3=estimated by type of road)","Type of road (motorway, trunk, secondary...)",Number of lanes in current road,"Estimated current lane (1=right lane, 2=first left lane, 3=second left lane, etc) [experimental]",GPS Latitude used to query OSM (degrees),GPS Longitude used to query OSM (degrees),OSM delay to answer query (seconds),GPS speed (km/h) [same as in RAW GPS]],Ratio normal (base 1),Ratio drowsy (base 1),Ratio aggressive (base 1)
0,21.5,0.0,40.518184999999995,-3.409276,620.0,48,30,319.6,0.0,0,-0.003,0.017,0.005,0.022000000000000002,0.012,0.004,-1.5630000000000002,0.023,0.021,-9.0,-9.0,-9.0,-9,-1.0,-1.0,0,82.3,100.0,1,primary,3,1,40.518829,-3.409868,1.9340000000000002,83.8,1.0,0.0,0.0
1,22.53,82.3,40.518341,-3.409413,625.9,4,5,324.1,35.859,1,-0.003,-0.001,-0.012,-0.013000000000000001,0.003,-0.002,-1.5730000000000002,0.03,0.019,0.0,-0.0,3.5,-1,-1.0,-1.0,0,82.3,100.0,1,primary,3,1,40.518829,-3.409868,1.9340000000000002,83.8,1.0,0.0,0.0
2,23.53,84.2,40.518494,-3.409551,623.5,3,5,324.1,4.57,1,-0.034,0.006999999999999999,0.008,-0.006999999999999999,0.022000000000000002,0.009000000000000001,-1.567,0.032,0.019,0.0,-0.0,3.5,-1,-1.0,-1.0,0,84.2,100.0,1,primary,3,1,40.518829,-3.409868,1.9340000000000002,83.8,1.0,0.0,0.0
3,24.5,84.3,40.518654,-3.409704,622.7,3,5,324.8,0.703,1,-0.032,-0.019,-0.024,-0.006999999999999999,-0.026000000000000002,-0.005,-1.568,0.031,0.021,0.0,-0.0,3.5,-1,-1.0,-1.0,0,84.3,100.0,1,primary,3,1,40.518829,-3.409868,1.9340000000000002,83.8,1.0,0.0,0.0
4,25.5,84.3,40.518829,-3.409868,623.4,3,5,324.5,0.35200000000000004,1,-0.079,0.043,-0.006999999999999999,-0.048,0.039,-0.025,-1.564,0.027000000000000003,0.018000000000000002,0.0,-0.0,3.5,-1,-1.0,-1.0,0,84.3,100.0,1,primary,3,1,40.518829,-3.409868,1.9340000000000002,83.8,1.0,0.0,0.0
5,26.5,84.5,40.519009000000004,-3.4100379999999997,622.3,3,5,324.5,0.35200000000000004,1,-0.02,-0.040999999999999995,-0.022000000000000002,-0.02,-0.02,-0.013999999999999999,-1.554,0.019,0.015,-0.364,-0.044000000000000004,3.6460000000000004,2,-1.0,-1.0,0,84.5,100.0,1,primary,3,1,40.518829,-3.409868,1.9340000000000002,83.8,1.0,0.0,0.0
6,27.56,83.8,40.519184,-3.410199,623.1,3,5,324.5,0.0,1,-0.017,0.033,-0.011000000000000001,-0.001,0.025,0.0,-1.527,0.015,0.011000000000000001,-0.444,-0.045,3.529,2,-1.0,-1.0,0,83.8,100.0,1,primary,3,1,40.518829,-3.409868,1.9340000000000002,83.8,1.0,0.0,0.0
7,28.48,82.5,40.519352000000005,-3.410354,624.1,3,5,324.5,0.0,1,0.006999999999999999,-0.02,0.039,-0.006999999999999999,0.001,0.04,-1.541,0.009000000000000001,0.0,-0.313,0.065,3.5060000000000002,2,-1.0,-1.0,0,82.5,100.0,1,primary,3,1,40.519184,-3.410199,1.778,80.5,1.0,0.0,0.0
8,29.5,80.5,40.519508,-3.410501,624.5,3,5,324.5,0.0,1,-0.057,-0.016,0.019,-0.024,-0.021,0.016,-1.5590000000000002,0.025,0.004,-0.212,0.08199999999999999,3.451,2,-1.0,-1.0,0,80.5,100.0,1,primary,3,1,40.519184,-3.410199,1.778,80.5,1.0,0.0,0.0
9,30.5,84.7,40.519688,-3.4106690000000004,624.5,3,5,323.4,1.055,1,0.026000000000000002,-0.017,0.013000000000000001,0.015,-0.009000000000000001,0.017,-1.5719999999999998,0.027000000000000003,0.01,-0.172,0.07400000000000001,3.4130000000000003,2,-1.0,-1.0,0,84.7,100.0,1,primary,3,1,40.519508,-3.4105019999999997,1.248,82.4,1.0,0.0,0.0
10,31.5,82.4,40.519852,-3.410825,625.4,3,5,324.5,1.055,1,-0.022000000000000002,-0.027999999999999997,-0.012,-0.013999999999999999,-0.017,-0.009000000000000001,-1.58,0.03,0.013999999999999999,-0.20199999999999999,0.015,3.466,2,-1.0,-1.0,0,82.4,100.0,1,primary,3,1,40.519508,-3.4105019999999997,1.248,82.4,1.0,0.0,0.0
11,32.49,82.8,40.52002,-3.4109800000000003,626.1,3,5,324.5,1.055,1,-0.02,0.027000000000000003,-0.032,-0.006999999999999999,0.027000000000000003,-0.012,-1.587,0.027000000000000003,0.015,-0.384,0.001,3.448,2,-1.0,-1.0,0,82.8,100.0,1,primary,3,1,40.519852,-3.410825,2.076,83.7,0.998,0.002,0.0
12,33.5,83.7,40.520191,-3.4111339999999997,627.1,3,5,324.1,0.35200000000000004,1,-0.023,-0.023,0.013999999999999999,-0.055999999999999994,-0.026000000000000002,-0.016,-1.59,0.002,0.002,-0.40399999999999997,0.063,3.478,2,-1.0,-1.0,0,83.7,100.0,1,primary,3,1,40.519852,-3.410825,2.076,83.7,0.998,0.002,0.0
13,34.49,84.6,40.520363,-3.411289,626.5,3,5,324.5,0.35200000000000004,1,-0.08800000000000001,-0.032,-0.006999999999999999,-0.040999999999999995,-0.018000000000000002,-0.006999999999999999,-1.5819999999999999,0.017,0.002,-0.33299999999999996,0.055,3.391,2,-1.0,-1.0,0,84.6,100.0,1,primary,3,1,40.519852,-3.410825,2.076,83.7,0.998,0.002,0.0
14,35.51,85.3,40.520538,-3.4114519999999997,626.5,3,5,324.8,0.703,1,0.113,-0.022000000000000002,-0.022000000000000002,0.081,0.006999999999999999,-0.006999999999999999,-1.5759999999999998,0.03,0.003,-0.23199999999999998,0.028999999999999998,3.378,2,-1.0,-1.0,0,85.3,100.0,1,primary,2,1,40.520363,-3.411289,2.22,86.8,0.9990000000000001,0.001,0.0
15,36.5,86.2,40.520714,-3.4116169999999997,626.3,3,5,324.8,0.35200000000000004,1,-0.031,-0.0,-0.006999999999999999,-0.028999999999999998,-0.006999999999999999,0.008,-1.5859999999999999,0.028999999999999998,0.004,-0.111,0.046,3.429,2,-1.0,-1.0,0,86.2,100.0,1,primary,2,1,40.520363,-3.411289,2.22,86.8,0.9990000000000001,0.001,0.0
16,37.51,86.8,40.520889000000004,-3.411779,626.8,3,5,324.5,0.35200000000000004,1,-0.016,-0.054000000000000006,0.004,-0.003,0.001,0.002,-1.575,0.031,0.005,-0.152,0.054000000000000006,3.432,2,-1.0,-1.0,0,86.8,100.0,1,primary,2,1,40.520363,-3.411289,2.22,86.8,0.9990000000000001,0.001,0.0
17,38.53,87.5,40.521069,-3.411946,626.8,3,5,324.5,0.35200000000000004,1,-0.07400000000000001,-0.001,-0.013000000000000001,-0.022000000000000002,-0.004,-0.023,-1.579,0.025,0.003,-0.121,0.073,3.4530000000000003,2,-1.0,-1.0,0,87.5,100.0,1,primary,2,1,40.520889000000004,-3.411779,2.365,87.7,0.9990000000000001,0.001,0.0
18,39.49,87.4,40.521244,-3.4121129999999997,627.1,3,5,324.5,0.0,1,0.043,-0.048,0.037000000000000005,-0.02,-0.035,0.01,-1.587,0.027999999999999997,0.003,-0.061,0.042,3.361,2,-1.0,-1.0,0,87.4,100.0,1,primary,2,1,40.520889000000004,-3.411779,2.365,87.7,0.9990000000000001,0.001,0.0
19,40.51,87.7,40.521423,-3.4122809999999997,627.6,3,5,324.5,0.0,1,0.006,-0.002,0.016,0.013999999999999999,-0.001,0.017,-1.584,0.027000000000000003,0.001,0.03,0.025,3.367,2,-1.0,-1.0,0,87.7,100.0,1,primary,2,1,40.520889000000004,-3.411779,2.365,87.7,0.9990000000000001,0.001,0.0
20,41.48,88.2,40.521599,-3.4124449999999995,628.0,3,5,324.8,0.35200000000000004,1,-0.049,0.01,-0.01,-0.045,0.004,-0.003,-1.589,0.036000000000000004,0.005,0.04,-0.006,3.398,2,-1.0,-1.0,0,88.2,100.0,1,primary,2,1,40.521423,-3.4122809999999997,2.5980000000000003,88.7,0.9990000000000001,0.001,0.0
21,42.48,88.5,40.521778000000005,-3.412611,628.2,3,5,324.5,0.35200000000000004,1,-0.07400000000000001,0.013999999999999999,-0.026000000000000002,-0.052000000000000005,0.002,-0.019,-1.59,0.04,0.009000000000000001,-0.01,-0.0,3.427,2,-1.0,-1.0,0,88.5,100.0,1,primary,2,1,40.521423,-3.4122809999999997,2.5980000000000003,88.7,0.9990000000000001,0.001,0.0
22,43.54,88.7,40.521957,-3.412782,629.2,3,5,324.5,0.35200000000000004,1,0.002,0.022000000000000002,-0.011000000000000001,-0.021,0.013000000000000001,0.004,-1.591,0.031,0.009000000000000001,-0.04,0.046,3.445,2,-1.0,-1.0,0,88.7,100.0,1,primary,2,1,40.521423,-3.4122809999999997,2.5980000000000003,88.7,0.9990000000000001,0.001,0.0
23,44.51,89.0,40.522137,-3.412954,629.7,3,5,324.1,0.35200000000000004,1,-0.037000000000000005,-0.032,0.022000000000000002,-0.057999999999999996,-0.028999999999999998,0.017,-1.588,0.023,0.008,-0.04,0.044000000000000004,3.457,2,-1.0,-1.0,0,89.0,100.0,1,primary,2,1,40.521957,-3.412782,2.002,90.1,0.9990000000000001,0.001,0.0
24,45.51,90.1,40.522324,-3.413128,629.9,3,5,324.8,0.703,1,0.009000000000000001,-0.009000000000000001,-0.006999999999999999,-0.019,-0.024,-0.002,-1.594,0.025,0.022000000000000002,-0.192,-0.008,3.383,2,-1.0,-1.0,0,90.1,100.0,1,primary,2,1,40.521957,-3.412782,2.002,90.1,0.9990000000000001,0.001,0.0
25,46.5,88.1,40.522498999999996,-3.4132949999999997,630.8,3,5,323.8,1.055,1,-0.045,-0.035,0.016,-0.024,-0.017,0.011000000000000001,-1.595,0.027000000000000003,0.038,-0.212,0.013000000000000001,3.3560000000000003,2,-1.0,-1.0,0,88.1,100.0,1,primary,2,1,40.521957,-3.412782,2.002,90.1,0.9990000000000001,0.001,0.0
26,47.5,87.7,40.522671,-3.413468,631.5,3,5,323.1,1.758,1,0.011000000000000001,-0.017,-0.006999999999999999,0.018000000000000002,-0.026000000000000002,-0.004,-1.591,0.038,0.067,-0.152,0.054000000000000006,3.4530000000000003,2,-1.0,-1.0,0,87.7,100.0,1,primary,2,1,40.522498999999996,-3.4132949999999997,1.719,89.9,0.9990000000000001,0.001,0.0
27,48.49,89.9,40.522846,-3.413646,632.0,3,5,321.7,2.109,1,0.026000000000000002,-0.013999999999999999,-0.015,-0.004,-0.012,-0.004,-1.591,0.032,0.098,-0.10099999999999999,0.008,3.407,1,-1.0,-1.0,0,89.9,100.0,1,primary,2,1,40.522498999999996,-3.4132949999999997,1.719,89.9,0.9990000000000001,0.001,0.0
28,49.53,89.8,40.52301,-3.4138339999999996,633.3,3,5,319.9,3.1639999999999997,1,-0.099,-0.062,-0.013999999999999999,-0.033,-0.043,0.008,-1.5919999999999999,0.022000000000000002,0.133,-0.02,-0.028999999999999998,3.3810000000000002,2,-1.0,-1.0,0,89.8,100.0,1,primary,2,1,40.522846,-3.413646,0.946,89.8,0.9990000000000001,0.001,0.0
29,50.5,89.6,40.52317,-3.4140370000000004,634.5,3,5,317.8,3.867,1,0.063,0.004,-0.005,0.038,-0.002,-0.016,-1.598,0.033,0.17300000000000001,-0.071,-0.033,3.4810000000000003,2,-1.0,-1.0,0,89.6,100.0,1,primary,2,1,40.52301,-3.4138339999999996,0.688,89.6,0.9990000000000001,0.001,0.0
30,51.57,89.6,40.523334999999996,-3.414246,635.4,3,5,315.7,4.218999999999999,1,-0.035,0.023,-0.004,0.012,0.012,0.004,-1.59,0.03,0.20600000000000002,-0.242,-0.047,3.4939999999999998,2,-1.0,-1.0,0,89.6,100.0,1,primary,2,1,40.52317,-3.4140370000000004,1.608,89.6,0.9990000000000001,0.001,0.0
31,52.49,89.6,40.523491,-3.41446,636.1,3,5,313.2,4.57,1,0.013000000000000001,0.022000000000000002,-0.005,-0.006,0.006999999999999999,-0.017,-1.584,0.004,0.226,-0.455,0.005,3.4219999999999997,2,-1.0,-1.0,0,89.6,100.0,1,primary,2,1,40.52317,-3.4140370000000004,1.608,89.6,0.9990000000000001,0.001,0.0
32,53.48,89.7,40.523635999999996,-3.414681,637.0,3,5,311.1,4.57,1,-0.0,-0.004,0.065,0.008,0.001,0.026000000000000002,-1.577,0.005,0.24600000000000002,-0.525,0.023,3.3480000000000003,2,-1.0,-1.0,0,89.7,90.0,3,tertiary_link,1,1,40.523491,-3.41446,1.245,89.9,0.997,0.003,0.0
33,54.51,89.9,40.523785,-3.4149089999999998,637.8,3,5,309.7,3.516,1,0.065,0.011000000000000001,-0.004,0.016,0.001,0.031,-1.577,0.021,0.273,-0.475,0.011000000000000001,3.516,2,-1.0,-1.0,0,89.9,90.0,3,tertiary_link,1,1,40.523491,-3.41446,1.245,89.9,0.991,0.009000000000000001,0.0
34,55.55,90.3,40.523918,-3.4151559999999996,638.5,3,5,307.6,3.516,1,0.033,-0.033,0.036000000000000004,0.009000000000000001,-0.011000000000000001,0.027000000000000003,-1.577,0.022000000000000002,0.295,-0.444,0.044000000000000004,3.438,2,-1.0,-1.0,0,90.3,90.0,3,tertiary_link,1,1,40.523785,-3.4149089999999998,0.9990000000000001,90.3,0.992,0.008,0.0
35,56.59,91.9,40.524178000000006,-3.415664,639.1,3,5,303.0,4.57,1,0.002,0.006,0.008,0.028999999999999998,0.001,0.006,-1.5759999999999998,0.017,0.313,-0.495,0.055999999999999994,3.3339999999999996,2,-1.0,-1.0,0,90.3,90.0,3,tertiary_link,1,1,40.524048,-3.4154089999999995,0.8270000000000001,91.9,0.992,0.008,0.0
36,57.5,91.9,40.524178000000006,-3.415664,639.1,3,5,303.0,4.57,1,-0.004,0.004,0.01,-0.006,-0.006,0.016,-1.5830000000000002,0.025,0.332,-0.505,0.022000000000000002,3.397,2,-1.0,-1.0,0,91.9,90.0,3,tertiary_link,1,1,40.524048,-3.4154089999999995,0.8270000000000001,91.9,0.991,0.009000000000000001,0.0
37,58.49,92.1,40.524303,-3.415932,639.5,3,5,300.2,4.218999999999999,1,-0.057,0.01,-0.021,-0.02,0.006999999999999999,-0.003,-1.575,0.024,0.348,-0.485,0.019,3.3760000000000003,2,-1.0,-1.0,0,92.1,90.0,3,tertiary_link,1,1,40.524178000000006,-3.415664,0.9890000000000001,92.1,0.991,0.009000000000000001,0.0
38,59.57,93.0,40.524429,-3.4162150000000002,639.8,3,5,298.5,4.57,1,-0.024,-0.008,0.01,-0.01,0.006999999999999999,0.001,-1.5730000000000002,0.018000000000000002,0.359,-0.475,0.040999999999999995,3.3689999999999998,2,-1.0,-1.0,0,93.0,100.0,1,primary,2,1,40.524303,-3.415932,0.992,93.0,0.9890000000000001,0.011000000000000001,0.0
39,60.48,93.4,40.52454,-3.416472,640.6,3,5,296.4,3.867,1,0.079,-0.006,-0.036000000000000004,0.064,-0.009000000000000001,-0.027000000000000003,-1.5659999999999998,0.024,0.373,-0.475,0.051,3.42,2,-1.0,-1.0,0,93.4,100.0,1,primary,2,1,40.524429,-3.4162150000000002,1.215,95.5,0.9890000000000001,0.011000000000000001,0.0
40,61.5,95.5,40.524639,-3.416746,640.1,3,5,294.6,3.867,1,0.081,-0.028999999999999998,-0.027999999999999997,0.042,-0.019,-0.023,-1.547,0.036000000000000004,0.392,-0.495,0.038,3.3939999999999997,1,-1.0,-1.0,0,95.5,100.0,1,primary,2,1,40.524429,-3.4162150000000002,1.215,95.5,0.9890000000000001,0.011000000000000001,0.0
41,62.52,93.5,40.524734,-3.417025,640.1,3,5,291.8,4.57,1,0.043,0.023,-0.0,0.032,0.031,0.003,-1.5230000000000001,0.03,0.397,-0.586,-0.002,3.617,1,-1.0,-1.0,0,93.5,100.0,1,primary,2,1,40.524639,-3.416746,1.584,93.1,0.982,0.018000000000000002,0.0
42,63.49,93.1,40.524815000000004,-3.417304,639.9,3,5,290.0,4.57,1,-0.177,-0.021,0.033,-0.11199999999999999,-0.005,0.017,-1.5319999999999998,0.018000000000000002,0.38799999999999996,-0.444,0.098,4.226,2,-1.0,-1.0,0,93.1,100.0,1,primary,2,1,40.524639,-3.416746,1.584,93.1,0.97,0.03,0.0
43,64.5,94.3,40.524887,-3.417592,639.4,3,5,289.3,2.461,1,-0.094,0.02,-0.003,-0.055999999999999994,0.015,0.002,-1.548,0.016,0.381,-0.293,0.025,3.978,2,-1.0,-1.0,0,94.3,100.0,1,primary,2,1,40.524815000000004,-3.4173050000000003,0.997,94.3,0.971,0.028999999999999998,0.0
44,65.49,97.1,40.524963,-3.417886,638.6,3,5,288.3,1.758,1,-0.006999999999999999,0.02,-0.001,-0.022000000000000002,0.008,-0.015,-1.541,0.015,0.363,-0.28300000000000003,0.066,3.6069999999999998,2,-1.0,-1.0,0,97.1,100.0,1,primary,2,1,40.524887,-3.417592,1.446,96.3,0.972,0.027999999999999997,0.0
45,66.49,96.3,40.525040000000004,-3.41819,638.5,3,5,286.5,2.812,1,-0.018000000000000002,-0.008,0.008,-0.013000000000000001,0.011000000000000001,0.017,-1.551,0.027999999999999997,0.344,-0.131,0.077,3.497,2,-1.0,-1.0,0,96.3,100.0,1,primary,2,1,40.524887,-3.417592,1.446,96.3,0.972,0.027999999999999997,0.0
46,67.49,96.5,40.525104999999996,-3.4184910000000004,637.4,3,5,285.8,2.461,1,0.001,0.027000000000000003,-0.01,-0.009000000000000001,0.035,-0.018000000000000002,-1.537,0.013999999999999999,0.307,0.0,0.04,3.4930000000000003,2,-1.0,-1.0,0,96.5,80.0,1,primary,1,1,40.525040000000004,-3.41819,0.691,96.5,0.973,0.027000000000000003,0.0
47,68.5,97.6,40.525166,-3.4187849999999997,637.0,3,5,286.5,0.703,1,-0.039,-0.003,-0.044000000000000004,-0.04,0.004,-0.031,-1.518,0.022000000000000002,0.27899999999999997,0.20199999999999999,0.039,3.596,2,-1.0,-1.0,0,97.6,80.0,1,primary,1,1,40.525104999999996,-3.4184910000000004,1.609,96.5,0.9420000000000001,0.026000000000000002,0.032
48,69.5,96.5,40.525242,-3.419089,636.2,4,5,286.5,0.703,1,0.03,0.022000000000000002,0.006999999999999999,0.042,0.026000000000000002,-0.012,-1.5019999999999998,0.031,0.244,0.384,0.040999999999999995,3.5869999999999997,2,-1.0,-1.0,0,96.5,80.0,1,primary,1,1,40.525104999999996,-3.4184910000000004,1.609,96.5,0.9129999999999999,0.026000000000000002,0.062
49,70.54,94.7,40.525318,-3.419397,635.5,4,5,286.5,0.0,1,-0.018000000000000002,0.027999999999999997,-0.013999999999999999,-0.04,0.036000000000000004,-0.018000000000000002,-1.495,0.011000000000000001,0.19,0.5760000000000001,0.043,3.537,2,-1.0,-1.0,0,94.7,80.0,1,primary,1,1,40.525242,-3.419089,0.633,94.7,0.898,0.027000000000000003,0.075
50,71.5,93.0,40.525387,-3.419682,634.6,4,5,288.3,1.758,1,-0.046,0.013000000000000001,-0.009000000000000001,-0.055,0.015,-0.016,-1.496,0.001,0.138,0.657,0.069,3.562,2,-1.0,-1.0,0,93.0,80.0,1,primary,1,1,40.525318,-3.419397,1.213,93.6,0.8740000000000001,0.038,0.08800000000000001
51,72.5,93.6,40.525459000000005,-3.419973,634.0,4,5,289.7,3.1639999999999997,1,0.006,-0.008,-0.009000000000000001,-0.004,0.013999999999999999,-0.012,-1.5,-0.008,0.079,0.657,0.063,3.572,2,-1.0,-1.0,0,93.6,80.0,1,primary,1,1,40.525318,-3.419397,1.213,93.6,0.852,0.048,0.1
52,73.51,90.8,40.525543,-3.420257,633.0,4,5,291.4,3.1639999999999997,1,0.002,-0.04,0.005,-0.002,0.0,-0.013000000000000001,-1.499,-0.033,0.018000000000000002,0.899,0.102,3.5589999999999997,2,-1.0,-1.0,0,90.8,80.0,1,primary,1,1,40.525459000000005,-3.419974,0.935,90.8,0.83,0.059000000000000004,0.11199999999999999
53,74.56,89.1,40.525631,-3.420519,632.3,4,5,293.6,3.867,1,-0.006999999999999999,-0.06,-0.011000000000000001,0.023,-0.053,-0.002,-1.494,0.012,-0.008,0.9390000000000001,0.03,3.417,2,-1.0,-1.0,0,89.1,80.0,1,primary,1,1,40.525543,-3.420258,0.7859999999999999,89.1,0.8079999999999999,0.069,0.12300000000000001
54,75.49,87.6,40.525719,-3.420784,631.9,4,5,294.6,3.1639999999999997,1,0.015,0.012,-0.028999999999999998,0.043,0.019,-0.025,-1.495,-0.002,-0.045,0.8590000000000001,-0.0,3.4360000000000004,2,-1.0,-1.0,0,87.6,80.0,1,primary,1,1,40.525543,-3.420258,0.7859999999999999,89.1,0.8,0.078,0.12300000000000001
55,76.49,88.0,40.525814000000004,-3.421036,630.8,4,5,297.1,3.516,1,-0.017,0.013999999999999999,0.023,-0.032,0.017,0.02,-1.5090000000000001,-0.031,-0.09,0.9490000000000001,0.008,3.702,2,-1.0,-1.0,0,88.0,80.0,1,primary,1,1,40.525631,-3.420519,2.594,86.1,0.7809999999999999,0.086,0.133
56,77.52,86.1,40.525921000000004,-3.421279,630.8,6,5,298.8,4.218999999999999,1,0.055999999999999994,-0.016,0.02,0.01,0.011000000000000001,0.021,-1.5230000000000001,-0.048,-0.149,0.626,-0.08,3.523,2,-1.0,-1.0,0,86.1,80.0,1,primary,1,1,40.525631,-3.420519,2.594,86.1,0.772,0.095,0.133
57,78.5,86.3,40.526024,-3.421522,630.6,4,5,302.3,5.273,1,-0.013000000000000001,0.001,0.005,-0.025,-0.004,-0.011000000000000001,-1.528,-0.055999999999999994,-0.201,0.7070000000000001,0.05,3.424,2,-1.0,-1.0,0,86.3,100.0,1,primary,2,1,40.525921000000004,-3.421279,1.4380000000000002,86.4,0.763,0.105,0.132
58,79.58,86.0,40.526302,-3.4219980000000003,629.4,6,5,308.0,7.031000000000001,1,0.013000000000000001,0.009000000000000001,-0.017,-0.01,-0.009000000000000001,-0.006,-1.53,-0.042,-0.237,0.727,0.023,3.4419999999999997,2,-1.0,-1.0,0,86.4,100.0,1,primary,2,1,40.525921000000004,-3.421279,1.4380000000000002,86.4,0.754,0.113,0.132
59,80.48,86.0,40.526302,-3.4219980000000003,629.4,6,5,308.0,5.625,1,-0.049,-0.040999999999999995,-0.0,-0.027999999999999997,-0.035,-0.004,-1.5390000000000001,-0.039,-0.273,0.677,0.040999999999999995,3.423,2,-1.0,-1.0,0,86.0,90.0,1,primary,2,1,40.526157,-3.421757,1.383,85.7,0.7490000000000001,0.122,0.13
60,81.58,85.6,40.526573,-3.422426,629.1,4,5,312.5,4.57,1,-0.045,-0.013999999999999999,-0.013999999999999999,-0.037000000000000005,-0.012,-0.01,-1.54,-0.033,-0.307,0.535,-0.002,3.513,2,-1.0,-1.0,0,85.7,90.0,1,primary,2,1,40.526157,-3.421757,1.383,85.7,0.7440000000000001,0.129,0.127
61,82.51,85.6,40.526573,-3.422426,629.1,4,5,312.5,4.57,1,-0.042,-0.017,0.013999999999999999,-0.033,-0.02,0.011000000000000001,-1.5390000000000001,-0.025,-0.336,0.40399999999999997,-0.005,3.451,2,-1.0,-1.0,0,85.6,90.0,1,primary,2,1,40.526436,-3.4222080000000004,1.022,85.6,0.747,0.129,0.125
62,83.5,85.8,40.526718,-3.422643,628.7,4,5,315.0,4.57,1,-0.026000000000000002,-0.001,-0.016,-0.011000000000000001,-0.002,-0.003,-1.541,-0.031,-0.36700000000000005,0.34299999999999997,0.035,3.411,2,-1.0,-1.0,0,85.8,90.0,1,primary,2,1,40.526436,-3.4222080000000004,1.022,85.6,0.7490000000000001,0.129,0.122
63,84.5,86.2,40.526871,-3.4228449999999997,627.9,4,5,317.1,4.57,1,-0.022000000000000002,-0.028999999999999998,-0.016,-0.012,-0.011000000000000001,-0.017,-1.546,-0.03,-0.39399999999999996,0.253,0.04,3.452,2,-1.0,-1.0,0,86.2,90.0,1,primary,2,1,40.526718,-3.422644,1.113,86.2,0.7509999999999999,0.129,0.12
64,85.5,87.3,40.527035,-3.4230370000000003,627.5,4,5,319.9,4.922,1,0.017,-0.008,0.011000000000000001,-0.026000000000000002,-0.001,0.006,-1.544,-0.033,-0.42100000000000004,0.111,-0.006,3.488,2,-1.0,-1.0,0,87.3,90.0,1,primary,2,1,40.527035,-3.4230370000000003,0.863,86.9,0.753,0.129,0.11800000000000001
65,86.51,86.9,40.527203,-3.4232129999999996,627.5,4,5,321.7,4.57,1,0.022000000000000002,0.002,0.013999999999999999,-0.003,-0.01,-0.006,-1.5430000000000001,-0.033,-0.44799999999999995,0.03,0.011000000000000001,3.5210000000000004,2,-1.0,-1.0,0,86.9,90.0,1,primary,2,1,40.527035,-3.4230370000000003,0.863,86.9,0.753,0.129,0.11800000000000001
66,87.5,87.3,40.527374,-3.423369,626.8,4,5,324.5,4.57,1,0.06,-0.022000000000000002,-0.02,0.04,-0.005,-0.011000000000000001,-1.5390000000000001,-0.036000000000000004,-0.469,0.071,0.048,3.5180000000000002,2,-1.0,-1.0,0,87.3,90.0,1,primary,2,1,40.527203,-3.4232129999999996,1.067,87.3,0.754,0.128,0.11800000000000001
67,88.5,87.6,40.527569,-3.4235269999999995,626.6,4,5,327.0,5.273,1,-0.049,-0.006,-0.013000000000000001,-0.038,-0.018000000000000002,-0.006999999999999999,-1.53,-0.028999999999999998,-0.483,0.081,0.057999999999999996,3.5389999999999997,2,-1.0,-1.0,0,87.6,90.0,1,primary,2,1,40.527203,-3.4232129999999996,1.067,87.3,0.7559999999999999,0.128,0.11599999999999999
68,89.5,87.7,40.527756,-3.4236769999999996,626.2,4,5,329.1,4.57,1,-0.027000000000000003,-0.03,-0.011000000000000001,-0.011000000000000001,-0.021,-0.021,-1.52,-0.036000000000000004,-0.493,0.051,0.085,3.565,2,-1.0,-1.0,0,87.7,90.0,1,primary,2,1,40.527569,-3.4235269999999995,1.131,88.2,0.754,0.128,0.11800000000000001
69,90.5,88.2,40.527946,-3.4238160000000004,625.6,4,5,331.2,4.218999999999999,1,0.002,-0.040999999999999995,0.013000000000000001,-0.036000000000000004,-0.043,0.02,-1.535,-0.018000000000000002,-0.486,0.091,0.067,3.457,2,-1.0,-1.0,0,88.2,90.0,1,primary,2,1,40.527569,-3.4235269999999995,1.131,88.2,0.754,0.128,0.11800000000000001
70,91.5,87.6,40.528145,-3.423953,625.2,4,5,332.2,3.1639999999999997,1,-0.005,-0.05,0.027000000000000003,-0.017,-0.04,0.013999999999999999,-1.54,-0.013999999999999999,-0.47200000000000003,0.0,0.022000000000000002,3.429,2,-1.0,-1.0,0,87.6,90.0,1,primary,2,1,40.527946,-3.4238169999999997,1.051,87.6,0.7559999999999999,0.128,0.11599999999999999
71,92.5,89.9,40.528339,-3.424087,624.7,4,5,333.3,2.109,1,-0.025,-0.008,0.027000000000000003,-0.024,-0.008,0.027999999999999997,-1.557,-0.012,-0.456,-0.152,0.022000000000000002,3.404,2,-1.0,-1.0,0,89.9,90.0,1,primary,2,1,40.527946,-3.4238169999999997,1.051,87.6,0.7559999999999999,0.128,0.11599999999999999
72,93.52,90.0,40.528542,-3.4242230000000005,624.5,4,5,333.3,1.055,1,0.008,-0.031,0.03,-0.043,-0.026000000000000002,0.033,-1.57,-0.025,-0.436,-0.141,0.017,3.4219999999999997,2,-1.0,-1.0,0,90.0,90.0,1,primary,2,1,40.528339,-3.424087,1.605,91.5,0.754,0.128,0.11800000000000001
73,94.55,91.5,40.528751,-3.424351,624.2,3,5,333.6,0.35200000000000004,1,-0.027000000000000003,-0.031,-0.018000000000000002,-0.059000000000000004,-0.027999999999999997,-0.0,-1.56,-0.017,-0.408,-0.04,0.05,3.495,2,-1.0,-1.0,0,91.5,90.0,1,primary,2,1,40.528339,-3.424087,1.605,91.5,0.754,0.128,0.11800000000000001
74,95.5,92.8,40.52895,-3.4244839999999996,624.0,3,5,333.6,0.35200000000000004,1,0.006,-0.018000000000000002,-0.001,-0.017,-0.013999999999999999,-0.013999999999999999,-1.531,-0.011000000000000001,-0.381,0.121,0.039,3.466,2,-1.0,-1.0,0,92.8,90.0,1,primary,2,1,40.528751,-3.424351,0.7190000000000001,92.8,0.7490000000000001,0.128,0.122
75,96.51,92.9,40.529167,-3.424628,623.8,3,5,333.3,0.35200000000000004,1,0.109,-0.005,-0.03,0.07200000000000001,0.005,-0.003,-1.5219999999999998,-0.006999999999999999,-0.342,0.23199999999999998,0.02,3.4389999999999996,2,-1.0,-1.0,0,92.9,90.0,1,primary,2,1,40.52895,-3.424485,0.9670000000000001,92.9,0.747,0.129,0.124
76,97.51,91.4,40.529362,-3.4247650000000003,623.5,3,5,332.2,1.406,1,-0.067,-0.013999999999999999,-0.07,-0.006999999999999999,-0.006999999999999999,-0.042,-1.4969999999999999,0.005,-0.304,0.20199999999999999,0.004,3.6310000000000002,2,-1.0,-1.0,0,91.4,90.0,1,primary,2,1,40.529167,-3.424628,0.7759999999999999,91.4,0.747,0.128,0.124
77,98.49,89.5,40.52956,-3.424899,623.4,4,5,331.2,2.109,1,-0.055999999999999994,0.026000000000000002,-0.015,-0.061,0.011000000000000001,-0.019,-1.496,0.01,-0.266,-0.02,-0.021,3.5269999999999997,2,-1.0,-1.0,0,89.5,90.0,1,primary,2,1,40.529362,-3.4247650000000003,1.6130000000000002,91.2,0.745,0.129,0.127
78,99.49,91.2,40.529758,-3.425044,623.2,4,5,330.1,2.109,1,0.048,-0.023,0.021,0.003,-0.021,-0.002,-1.495,0.015,-0.231,-0.061,0.006999999999999999,3.583,2,-1.0,-1.0,0,91.2,90.0,1,primary,2,1,40.529362,-3.4247650000000003,1.6130000000000002,91.2,0.745,0.129,0.126
79,100.49,86.7,40.529945,-3.425193,622.4,4,5,329.1,2.109,1,-0.048,-0.048,0.006999999999999999,-0.032,-0.018000000000000002,-0.008,-1.4809999999999999,0.042,-0.184,-0.20199999999999999,-0.005,3.701,2,-1.0,-1.0,0,86.7,90.0,1,primary,2,1,40.529758,-3.425045,1.5590000000000002,85.9,0.7440000000000001,0.129,0.126
80,101.51,85.9,40.530128000000005,-3.425339,621.9,4,5,327.3,2.812,1,0.018000000000000002,0.063,0.066,0.015,0.081,0.064,-1.506,0.02,-0.147,-0.505,-0.021,3.5589999999999997,2,-1.0,-1.0,0,85.9,90.0,1,primary,2,1,40.529758,-3.425045,1.5590000000000002,85.9,0.742,0.129,0.129
81,102.52,86.5,40.530312,-3.425496,621.3,4,5,325.5,3.516,1,0.021,0.018000000000000002,0.032,0.054000000000000006,0.002,0.021,-1.5430000000000001,0.009000000000000001,-0.11599999999999999,-0.606,0.004,3.49,2,-1.0,-1.0,0,86.5,90.0,1,primary,2,1,40.530128000000005,-3.425339,1.633,86.2,0.7340000000000001,0.138,0.129
82,103.53,86.2,40.530483000000004,-3.4256599999999997,620.9,4,5,324.8,2.461,1,-0.05,0.008,-0.042,-0.001,0.006,-0.016,-1.5430000000000001,0.013000000000000001,-0.075,-0.495,0.064,3.543,2,-1.0,-1.0,0,86.2,90.0,1,primary,2,1,40.530128000000005,-3.425339,1.633,86.2,0.725,0.146,0.129
83,104.49,87.3,40.530654999999996,-3.425821,620.1,4,5,323.4,2.109,1,0.001,0.02,-0.04,0.009000000000000001,0.024,-0.046,-1.5230000000000001,0.016,-0.037000000000000005,-0.455,0.044000000000000004,3.622,2,-1.0,-1.0,0,87.3,90.0,1,primary,2,1,40.530483000000004,-3.4256599999999997,1.0390000000000001,87.3,0.725,0.146,0.129
84,105.54,86.8,40.530823,-3.425985,620.1,3,5,321.7,3.1639999999999997,1,-0.052000000000000005,0.022000000000000002,-0.025,-0.037000000000000005,0.02,-0.013000000000000001,-1.501,0.006,-0.009000000000000001,-0.434,0.06,3.628,2,-1.0,-1.0,0,86.8,90.0,1,primary,2,1,40.530823,-3.425986,0.8809999999999999,85.3,0.726,0.146,0.129
85,106.52,85.3,40.530991,-3.42616,619.9,3,5,320.3,3.1639999999999997,1,-0.042,-0.004,0.027999999999999997,-0.027000000000000003,0.002,0.012,-1.505,0.0,0.016,-0.414,0.11199999999999999,3.63,2,-1.0,-1.0,1,85.3,90.0,1,primary,2,1,40.530823,-3.425986,0.8809999999999999,85.3,0.726,0.146,0.129
86,107.6,84.0,40.5313,-3.4265239999999997,618.6,3,5,316.8,3.1639999999999997,1,-0.033,0.013999999999999999,0.042,-0.049,0.013000000000000001,0.051,-1.544,0.002,0.039,-0.313,0.054000000000000006,3.5260000000000002,2,-1.0,-1.0,0,83.3,90.0,1,primary,2,1,40.530991,-3.42616,0.799,83.3,0.726,0.146,0.129
87,108.59,85.6,40.531452,-3.426721,618.7,3,5,315.4,3.516,1,-0.027000000000000003,0.016,0.013999999999999999,-0.021,0.01,0.016,-1.556,0.006999999999999999,0.061,-0.212,0.052000000000000005,3.5439999999999996,2,-1.0,-1.0,0,84.0,90.0,1,primary,2,1,40.531143,-3.4263339999999998,0.83,84.0,0.728,0.145,0.126
88,109.52,85.6,40.531452,-3.426721,618.7,3,5,315.4,3.1639999999999997,1,-0.036000000000000004,0.024,-0.023,-0.04,0.026000000000000002,-0.011000000000000001,-1.5530000000000002,0.016,0.081,-0.20199999999999999,0.015,3.517,2,-1.0,-1.0,0,85.6,90.0,1,primary,2,1,40.5313,-3.4265239999999997,0.972,85.6,0.725,0.146,0.129
89,110.5,85.5,40.531597,-3.4269260000000004,618.8,3,5,313.9,2.812,1,-0.034,0.017,0.03,-0.047,0.018000000000000002,0.012,-1.545,-0.006999999999999999,0.09300000000000001,-0.182,0.023,3.56,2,-1.0,-1.0,1,85.5,90.0,1,primary,2,1,40.531452,-3.4267220000000003,0.71,85.5,0.726,0.146,0.129
90,111.48,86.2,40.53175,-3.4271230000000004,618.9,3,5,312.9,2.461,1,-0.036000000000000004,0.006,0.025,-0.04,-0.016,0.005,-1.557,0.0,0.109,-0.172,0.026000000000000002,3.543,2,-1.0,-1.0,0,86.2,90.0,1,primary,2,1,40.531597,-3.4269269999999996,0.7120000000000001,86.2,0.725,0.146,0.129
91,112.48,84.7,40.531887,-3.4273260000000003,618.7,4,5,311.5,2.461,1,0.003,0.009000000000000001,-0.002,-0.009000000000000001,0.005,0.006999999999999999,-1.5659999999999998,0.006,0.127,-0.121,0.026000000000000002,3.54,2,-1.0,-1.0,0,84.7,90.0,1,primary,2,1,40.53175,-3.4271239999999996,0.945,84.7,0.728,0.146,0.126
92,113.48,85.0,40.532024,-3.427537,619.4,3,5,309.4,3.516,1,-0.038,0.009000000000000001,-0.005,-0.022000000000000002,0.018000000000000002,-0.005,-1.5759999999999998,0.001,0.142,-0.192,0.0,3.475,2,-1.0,-1.0,0,85.0,90.0,1,primary,2,1,40.531887,-3.4273260000000003,0.77,85.0,0.727,0.14400000000000002,0.129
93,114.48,84.9,40.532154,-3.4277559999999996,619.7,3,5,307.6,3.867,1,-0.018000000000000002,-0.016,0.048,-0.03,-0.003,0.032,-1.574,-0.003,0.152,-0.293,0.07,3.497,2,-1.0,-1.0,0,84.9,90.0,1,primary,2,1,40.532024,-3.427537,1.075,84.9,0.733,0.141,0.126
94,115.48,84.4,40.532284000000004,-3.4279800000000002,620.2,3,5,306.9,2.461,1,0.026000000000000002,0.004,0.018000000000000002,-0.02,0.004,0.01,-1.5759999999999998,-0.005,0.163,-0.33299999999999996,0.05,3.5439999999999996,2,-1.0,-1.0,0,84.4,90.0,1,primary,2,1,40.532024,-3.427537,1.075,84.9,0.733,0.141,0.126
95,116.51,85.3,40.53241,-3.428208,620.9,3,5,305.5,2.109,1,-0.024,0.016,-0.015,-0.013999999999999999,0.004,-0.006,-1.587,-0.001,0.17600000000000002,-0.303,0.035,3.503,2,-1.0,-1.0,0,85.3,90.0,1,primary,2,1,40.532284000000004,-3.4279800000000002,0.917,85.3,0.735,0.141,0.124
96,117.51,84.8,40.532536,-3.42844,621.8,3,5,303.4,3.516,1,0.002,-0.003,0.019,-0.015,-0.005,0.013999999999999999,-1.587,-0.008,0.18600000000000003,-0.263,0.023,3.4560000000000004,2,-1.0,-1.0,0,84.8,90.0,1,primary,2,1,40.53241,-3.428208,1.578,83.9,0.738,0.14,0.122
97,118.5,83.9,40.53265,-3.428666,622.6,3,5,302.0,3.516,1,-0.044000000000000004,-0.018000000000000002,0.013999999999999999,-0.024,-0.006,0.011000000000000001,-1.584,-0.003,0.19699999999999998,-0.222,0.034,3.4339999999999997,2,-1.0,-1.0,0,83.9,90.0,1,primary,2,1,40.53241,-3.428208,1.578,83.9,0.74,0.14,0.12
98,119.57,83.4,40.532856,-3.429135,624.2,4,5,299.2,2.109,1,-0.031,-0.004,-0.006999999999999999,-0.01,0.009000000000000001,-0.006999999999999999,-1.591,-0.013999999999999999,0.203,-0.172,0.034,3.457,2,-1.0,-1.0,0,81.9,90.0,1,primary,2,1,40.53265,-3.428666,1.087,83.4,0.743,0.139,0.11800000000000001
99,120.5,83.4,40.532856,-3.429135,624.2,4,5,299.2,2.812,1,-0.006,-0.0,0.006,-0.021,-0.013999999999999999,0.005,-1.5919999999999999,0.002,0.218,-0.03,0.026000000000000002,3.455,2,-1.0,-1.0,0,83.4,90.0,1,primary,2,1,40.532856,-3.429135,0.831,84.0,0.745,0.139,0.11599999999999999
100,121.52,84.0,40.532955,-3.4293720000000003,625.8,3,5,297.8,3.516,1,0.013000000000000001,0.002,0.005,-0.006999999999999999,0.012,0.009000000000000001,-1.595,0.005,0.23,-0.081,0.027999999999999997,3.431,2,-1.0,-1.0,0,84.0,90.0,1,primary,2,1,40.532856,-3.429135,0.831,84.0,0.745,0.139,0.11599999999999999
101,122.52,82.8,40.533051,-3.42962,627.0,3,5,296.0,3.1639999999999997,1,-0.002,0.034,-0.031,-0.008,0.023,-0.001,-1.598,0.003,0.23399999999999999,-0.131,0.027999999999999997,3.457,2,-1.0,-1.0,0,82.8,90.0,1,primary,2,1,40.532955,-3.4293730000000004,2.193,82.3,0.75,0.134,0.11599999999999999
102,123.53,83.0,40.533138,-3.429871,628.3,3,5,294.6,3.1639999999999997,1,-0.009000000000000001,0.005,0.005,-0.023,0.001,0.0,-1.597,-0.001,0.24100000000000002,-0.141,0.016,3.4360000000000004,2,-1.0,-1.0,0,83.0,90.0,1,primary,2,1,40.532955,-3.4293730000000004,2.193,82.3,0.759,0.125,0.11599999999999999
103,124.49,82.3,40.533221999999995,-3.430131,629.1,3,5,292.9,3.1639999999999997,1,-0.027999999999999997,-0.006,-0.021,-0.019,0.001,-0.026000000000000002,-1.588,-0.006,0.24600000000000002,-0.152,0.013999999999999999,3.478,2,-1.0,-1.0,0,82.3,90.0,1,primary,2,1,40.532955,-3.4293730000000004,2.193,82.3,0.759,0.125,0.11599999999999999
104,125.49,81.6,40.533295,-3.4303800000000004,630.5,3,5,291.8,2.812,1,-0.046,0.019,-0.017,-0.013000000000000001,0.009000000000000001,0.003,-1.595,-0.013999999999999999,0.247,-0.172,0.013000000000000001,3.4589999999999996,2,-1.0,-1.0,0,81.6,90.0,1,primary,2,1,40.533221999999995,-3.430132,1.0290000000000001,81.6,0.759,0.125,0.11599999999999999
105,126.48,81.0,40.533367,-3.4306360000000002,631.7,3,5,290.4,2.461,1,0.02,-0.028999999999999998,-0.018000000000000002,0.02,-0.02,-0.003,-1.5959999999999999,-0.006,0.252,-0.131,0.012,3.437,2,-1.0,-1.0,0,81.0,90.0,1,primary,2,1,40.533221999999995,-3.430132,1.0290000000000001,81.6,0.757,0.125,0.11800000000000001
106,127.49,80.4,40.533436,-3.4308870000000002,632.8,4,5,289.0,2.812,1,-0.017,-0.006999999999999999,0.016,-0.01,-0.002,0.005,-1.599,-0.003,0.257,-0.182,-0.006,3.464,2,-1.0,-1.0,0,80.4,90.0,1,primary,2,1,40.533367,-3.4306360000000002,1.999,80.1,0.757,0.125,0.11800000000000001
107,128.48,80.1,40.533489,-3.431133,633.7,3,5,287.6,2.812,1,-0.040999999999999995,0.02,-0.003,-0.019,0.008,-0.009000000000000001,-1.594,-0.005,0.259,-0.273,0.026000000000000002,3.466,2,-1.0,-1.0,0,80.1,90.0,1,primary,2,1,40.533367,-3.4306360000000002,1.999,80.1,0.777,0.125,0.098
108,129.5,80.1,40.533546,-3.431369,634.9,3,5,286.2,2.812,1,-0.023,0.022000000000000002,0.001,-0.019,-0.002,-0.001,-1.599,-0.013000000000000001,0.257,-0.32299999999999995,0.057999999999999996,3.4730000000000003,2,-1.0,-1.0,0,80.1,90.0,1,primary,2,1,40.533367,-3.4306360000000002,1.999,80.1,0.797,0.125,0.078
109,130.5,80.2,40.533611,-3.431632,635.8,3,5,284.8,2.812,1,0.021,-0.002,-0.003,0.025,-0.015,0.013999999999999999,-1.6019999999999999,-0.013000000000000001,0.255,-0.263,0.035,3.417,2,-1.0,-1.0,0,80.2,90.0,1,primary,2,1,40.533546,-3.43137,2.182,80.1,0.799,0.124,0.077
110,131.51,78.5,40.533660999999995,-3.431886,636.7,4,5,283.4,2.812,1,-0.005,0.021,-0.019,-0.005,-0.0,-0.003,-1.6019999999999999,-0.015,0.259,-0.23199999999999998,0.046,3.429,2,-1.0,-1.0,0,78.5,90.0,1,primary,2,1,40.533546,-3.43137,2.182,80.1,0.828,0.114,0.057999999999999996
111,132.49,80.1,40.533703,-3.4321370000000004,637.6,3,5,282.0,2.812,1,0.039,0.008,-0.0,0.028999999999999998,0.011000000000000001,-0.001,-1.6030000000000002,-0.004,0.263,-0.263,-0.008,3.532,2,-1.0,-1.0,0,80.1,90.0,1,primary,2,1,40.533546,-3.43137,2.182,80.1,0.848,0.10400000000000001,0.048
112,133.5,79.1,40.533741,-3.4323930000000002,639.3,3,5,280.5,2.812,1,-0.028999999999999998,0.001,0.013000000000000001,-0.034,0.009000000000000001,0.005,-1.597,-0.004,0.262,-0.253,0.017,3.58,2,-1.0,-1.0,0,79.1,90.0,1,primary,2,1,40.533703,-3.4321370000000004,1.119,78.7,0.8690000000000001,0.09300000000000001,0.038
113,134.5,78.7,40.533768,-3.4326470000000002,639.9,3,5,279.5,2.461,1,0.032,0.001,-0.013000000000000001,0.006,-0.004,-0.005,-1.594,0.002,0.262,-0.23199999999999998,0.051,3.591,2,-1.0,-1.0,0,78.7,90.0,1,primary,2,1,40.533703,-3.4321370000000004,1.119,78.7,0.889,0.083,0.027999999999999997
114,135.53,79.5,40.533794,-3.4329089999999995,641.3,3,5,277.0,3.516,1,0.057999999999999996,0.011000000000000001,0.006,0.02,0.017,-0.006,-1.597,-0.012,0.261,-0.293,0.044000000000000004,3.532,2,-1.0,-1.0,0,79.5,90.0,1,primary,2,1,40.533703,-3.4321370000000004,1.119,78.7,0.899,0.073,0.027999999999999997
115,136.49,79.2,40.533825,-3.4331730000000005,642.6,4,5,276.3,3.1639999999999997,1,0.019,0.024,-0.039,0.031,0.013999999999999999,-0.009000000000000001,-1.601,-0.015,0.255,-0.293,0.055,3.5669999999999997,2,-1.0,-1.0,1,79.2,90.0,1,primary,2,1,40.533703,-3.4321370000000004,1.119,78.7,0.9109999999999999,0.063,0.026000000000000002
116,137.5,78.8,40.533840000000005,-3.4334300000000004,643.4,3,5,275.3,1.758,1,-0.061,-0.028999999999999998,0.0,-0.044000000000000004,-0.006999999999999999,0.002,-1.5959999999999999,-0.005,0.25,-0.242,0.034,3.622,2,-1.0,-1.0,1,78.8,90.0,1,primary,2,1,40.533703,-3.4321370000000004,1.119,78.7,0.9329999999999999,0.053,0.013999999999999999
117,138.5,78.6,40.533854999999996,-3.4336900000000004,644.6,3,5,274.6,1.758,1,-0.073,-0.0,0.003,-0.048,-0.008,-0.005,-1.6,0.001,0.249,-0.121,0.043,3.532,2,-1.0,-1.0,0,78.6,90.0,1,primary,2,1,40.533768,-3.4326470000000002,7.007999999999999,78.6,0.946,0.042,0.012
118,139.5,78.6,40.533867,-3.4339480000000004,645.4,3,5,273.5,1.758,1,0.018000000000000002,0.005,0.026000000000000002,-0.004,0.006999999999999999,-0.002,-1.597,0.006,0.244,-0.051,0.063,3.5669999999999997,2,-1.0,-1.0,0,78.6,90.0,1,primary,2,1,40.533768,-3.4326470000000002,7.007999999999999,78.6,0.9590000000000001,0.031,0.01
119,140.5,76.9,40.533867,-3.4341980000000003,646.8,3,5,271.8,2.812,1,0.006999999999999999,0.017,0.002,0.002,0.017,0.005,-1.598,0.002,0.235,-0.081,0.07400000000000001,3.5389999999999997,2,-1.0,-1.0,0,76.9,90.0,1,primary,2,1,40.533768,-3.4326470000000002,7.007999999999999,78.6,0.9670000000000001,0.023,0.01
120,141.5,78.6,40.533875,-3.434453,647.9,3,5,271.8,1.758,1,0.028999999999999998,0.001,0.008,0.011000000000000001,0.008,-0.0,-1.6,0.002,0.221,-0.051,0.07,3.5210000000000004,2,-1.0,-1.0,1,78.6,90.0,1,primary,2,1,40.533768,-3.4326470000000002,7.007999999999999,78.6,0.9740000000000001,0.017,0.01
121,142.55,78.5,40.533878,-3.434705,648.9,3,5,269.6,2.109,1,-0.008,0.012,0.0,-0.003,0.012,-0.006,-1.604,-0.004,0.204,-0.01,0.048,3.5010000000000003,2,-1.0,-1.0,1,78.5,90.0,1,primary,2,1,40.533768,-3.4326470000000002,7.007999999999999,78.6,0.9740000000000001,0.017,0.01
122,143.49,78.6,40.533878,-3.43496,649.8,3,5,269.3,2.461,1,-0.022000000000000002,-0.002,-0.013000000000000001,-0.005,0.004,-0.005,-1.607,-0.0,0.188,0.121,0.055,3.4530000000000003,2,-1.0,-1.0,0,78.6,90.0,1,primary,2,1,40.533878,-3.434706,1.402,78.2,0.9740000000000001,0.017,0.01
123,144.53,78.2,40.533885999999995,-3.435223,650.8,3,5,269.6,0.35200000000000004,1,-0.015,-0.016,-0.003,-0.013999999999999999,-0.004,-0.003,-1.601,0.009000000000000001,0.171,0.253,0.069,3.415,2,-1.0,-1.0,0,78.2,90.0,1,primary,2,1,40.533878,-3.434706,1.402,78.2,0.9740000000000001,0.017,0.01
124,145.58,77.5,40.53389,-3.435749,653.1,3,5,269.6,0.703,1,0.02,0.019,0.003,0.002,-0.004,-0.002,-1.5930000000000002,0.009000000000000001,0.152,0.354,0.067,3.407,2,-1.0,-1.0,0,78.7,90.0,1,primary,2,1,40.533885999999995,-3.435223,1.099,77.5,0.9740000000000001,0.016,0.01
125,146.5,77.5,40.53389,-3.435749,653.1,3,5,269.6,0.35200000000000004,1,-0.017,-0.012,-0.008,-0.022000000000000002,-0.011000000000000001,-0.006999999999999999,-1.594,0.024,0.147,0.384,0.035,3.405,2,-1.0,-1.0,0,77.5,90.0,1,primary,2,1,40.533885999999995,-3.435223,1.099,77.5,0.9740000000000001,0.017,0.01
126,147.56,78.0,40.533885999999995,-3.435999,654.2,4,5,270.0,0.35200000000000004,1,-0.055999999999999994,-0.006,-0.01,-0.017,0.006,0.006,-1.595,0.023,0.132,0.212,0.001,3.219,2,-1.0,-1.0,0,78.0,90.0,1,primary,2,1,40.53389,-3.435749,1.193,77.5,0.973,0.017,0.01
127,148.58,77.5,40.533878,-3.4365080000000003,655.9,4,5,269.6,0.35200000000000004,1,0.02,0.01,0.013999999999999999,0.012,0.008,0.01,-1.598,0.02,0.11800000000000001,0.152,-0.008,3.182,2,-1.0,-1.0,0,77.5,90.0,1,primary,2,1,40.53389,-3.435749,1.193,77.5,0.9740000000000001,0.017,0.01
128,149.51,77.5,40.533878,-3.4365080000000003,655.9,4,5,269.6,0.35200000000000004,1,0.02,-0.009000000000000001,0.015,-0.004,-0.004,0.002,-1.599,0.017,0.10400000000000001,0.10099999999999999,0.02,3.1889999999999996,2,-1.0,-1.0,0,77.5,90.0,1,primary,2,1,40.53389,-3.435749,1.193,77.5,0.9740000000000001,0.017,0.01
129,150.5,75.9,40.533882,-3.4367699999999997,656.9,4,5,269.3,0.35200000000000004,1,0.001,0.006999999999999999,0.001,0.009000000000000001,0.001,0.003,-1.604,0.012,0.092,0.10099999999999999,0.031,3.179,2,-1.0,-1.0,0,75.9,90.0,1,primary,2,1,40.53389,-3.435749,1.193,77.5,0.973,0.017,0.01
130,151.5,77.8,40.533875,-3.4370160000000003,657.7,4,5,269.6,0.35200000000000004,1,-0.027999999999999997,-0.034,-0.011000000000000001,-0.015,-0.025,-0.013000000000000001,-1.601,0.023,0.084,0.111,0.040999999999999995,3.213,2,-1.0,-1.0,0,77.8,90.0,1,primary,2,1,40.53389,-3.435749,1.193,77.5,0.973,0.017,0.01
131,152.5,78.3,40.533878,-3.4372599999999998,658.5,4,5,269.6,0.35200000000000004,1,0.013000000000000001,-0.012,0.012,-0.005,-0.015,-0.004,-1.609,0.018000000000000002,0.073,0.121,0.034,3.208,2,-1.0,-1.0,0,78.3,90.0,1,primary,2,1,40.53389,-3.435749,1.193,77.5,0.973,0.017,0.01
132,153.5,78.0,40.533882,-3.4375169999999997,659.6,4,5,270.0,0.35200000000000004,1,-0.013999999999999999,-0.011000000000000001,-0.011000000000000001,-0.027999999999999997,-0.011000000000000001,-0.003,-1.61,0.026000000000000002,0.067,0.182,0.005,3.1919999999999997,2,-1.0,-1.0,0,78.0,90.0,1,primary,2,1,40.53389,-3.435749,1.193,77.5,0.973,0.017,0.01
133,154.52,78.8,40.533878,-3.4377739999999997,660.6,4,5,269.6,0.35200000000000004,1,0.01,-0.006,0.003,0.003,-0.011000000000000001,-0.006,-1.6059999999999999,0.027999999999999997,0.066,0.121,-0.018000000000000002,3.179,2,-1.0,-1.0,0,78.8,90.0,1,primary,2,1,40.533882,-3.4362550000000005,12.788,81.2,0.9740000000000001,0.017,0.01
134,155.51,78.5,40.533878,-3.4380370000000005,661.7,3,5,269.3,0.703,1,0.001,0.004,0.015,-0.005,0.01,0.005,-1.604,0.016,0.057,0.04,0.011000000000000001,3.188,2,-1.0,-1.0,0,78.5,90.0,1,primary,2,1,40.533882,-3.4362550000000005,12.788,81.2,0.976,0.017,0.008
135,156.52,78.4,40.533878,-3.438289,662.6,3,5,270.4,1.055,1,-0.047,-0.013999999999999999,0.003,-0.02,-0.004,-0.006,-1.601,0.015,0.05,0.01,0.032,3.1919999999999997,2,-1.0,-1.0,0,78.4,90.0,1,primary,2,1,40.533882,-3.4362550000000005,12.788,81.2,0.978,0.016,0.006
136,157.53,77.6,40.533878,-3.438546,663.5,3,5,270.0,0.703,1,0.0,0.006999999999999999,0.013000000000000001,0.002,0.004,0.005,-1.6,0.021,0.048,-0.01,0.027000000000000003,3.156,2,-1.0,-1.0,0,77.6,90.0,1,primary,2,1,40.533882,-3.4362550000000005,12.788,81.2,0.981,0.017,0.002
137,158.49,78.0,40.533875,-3.438801,664.4,3,5,268.9,1.406,1,0.028999999999999998,-0.001,-0.011000000000000001,0.016,0.005,0.006999999999999999,-1.598,0.019,0.048,-0.091,-0.023,3.1910000000000003,2,-1.0,-1.0,0,78.0,90.0,1,primary,2,1,40.533882,-3.4362550000000005,12.788,81.2,0.981,0.017,0.002
138,159.5,79.3,40.533875,-3.439059,665.1,3,5,268.9,1.055,1,-0.003,0.0,-0.01,0.016,0.004,-0.005,-1.604,0.006,0.039,-0.01,0.028999999999999998,3.353,2,-1.0,-1.0,0,79.3,90.0,1,primary,2,1,40.533882,-3.4362550000000005,12.788,81.2,0.983,0.017,0.0
139,160.56,81.2,40.533867,-3.43959,666.8,4,5,269.3,1.055,1,-0.027999999999999997,-0.040999999999999995,-0.003,-0.004,-0.03,0.003,-1.605,0.017,0.037000000000000005,0.03,0.049,3.397,2,-1.0,-1.0,0,80.4,90.0,1,primary,2,1,40.533882,-3.4362550000000005,12.788,81.2,0.9840000000000001,0.016,0.0
140,161.51,81.2,40.533867,-3.43959,666.8,4,5,269.3,0.703,1,0.02,0.0,0.006999999999999999,0.008,0.001,0.006,-1.6019999999999999,0.018000000000000002,0.037000000000000005,0.051,0.037000000000000005,3.3960000000000004,2,-1.0,-1.0,0,81.2,90.0,1,primary,2,1,40.533882,-3.4362550000000005,12.788,81.2,0.983,0.017,0.0
141,162.51,81.3,40.533875,-3.439853,667.2,4,5,269.6,0.35200000000000004,1,0.013999999999999999,-0.008,-0.019,0.018000000000000002,-0.009000000000000001,0.01,-1.594,0.025,0.038,0.03,0.006,3.397,2,-1.0,-1.0,1,81.3,90.0,1,primary,2,1,40.533867,-3.43959,0.802,81.3,0.992,0.008,0.0
142,163.56,82.1,40.533875,-3.4401309999999996,667.7,4,5,268.9,0.703,1,-0.027000000000000003,-0.008,-0.006,-0.013999999999999999,-0.003,-0.002,-1.6,0.023,0.038,-0.01,-0.01,3.387,2,-1.0,-1.0,0,82.1,90.0,1,primary,2,1,40.533875,-3.439853,1.564,83.6,1.0,0.0,0.0
143,164.51,83.6,40.533878,-3.440405,668.3,4,5,270.0,1.055,1,-0.01,-0.018000000000000002,0.021,-0.006,-0.009000000000000001,0.012,-1.595,0.021,0.036000000000000004,-0.051,0.009000000000000001,3.392,2,-1.0,-1.0,0,83.6,90.0,1,primary,2,1,40.533875,-3.439853,1.564,83.6,1.0,0.0,0.0
144,165.58,85.0,40.533885999999995,-3.4409680000000002,669.1,4,5,268.9,0.703,1,-0.044000000000000004,0.024,0.033,-0.027999999999999997,0.015,0.017,-1.588,0.027999999999999997,0.036000000000000004,-0.071,0.023,3.3739999999999997,2,-1.0,-1.0,0,84.3,90.0,1,primary,2,1,40.533878,-3.440405,2.088,87.2,1.0,0.0,0.0
145,166.55,85.0,40.533885999999995,-3.4409680000000002,669.1,4,5,268.9,1.055,1,-0.022000000000000002,0.006999999999999999,-0.018000000000000002,-0.015,0.013999999999999999,-0.016,-1.581,0.017,0.032,-0.051,0.018000000000000002,3.4219999999999997,2,-1.0,-1.0,0,85.0,90.0,1,primary,2,1,40.533878,-3.440405,2.088,87.2,1.0,0.0,0.0
146,167.5,87.2,40.533871000000005,-3.441246,669.3,4,5,270.0,1.055,1,-0.026000000000000002,-0.003,-0.026000000000000002,0.004,0.004,-0.033,-1.558,0.025,0.033,-0.03,0.035,3.545,2,-1.0,-1.0,0,87.2,90.0,1,primary,2,1,40.533871000000005,-3.441246,0.742,87.5,1.0,0.0,0.0
147,168.5,87.5,40.533867,-3.441529,669.4,4,5,269.6,0.703,1,0.006,0.009000000000000001,-0.040999999999999995,0.015,0.006999999999999999,-0.047,-1.5290000000000001,0.026000000000000002,0.034,0.061,0.04,3.6430000000000002,2,-1.0,-1.0,0,87.5,90.0,1,primary,2,1,40.533871000000005,-3.441246,0.742,87.5,1.0,0.0,0.0
148,169.52,86.1,40.533867,-3.441814,669.2,4,5,269.3,0.703,1,0.004,-0.002,0.027999999999999997,-0.006999999999999999,0.002,0.038,-1.548,0.025,0.037000000000000005,0.081,0.042,3.555,2,-1.0,-1.0,0,86.1,90.0,1,primary,2,1,40.533867,-3.441529,0.653,86.1,1.0,0.0,0.0
149,170.5,85.8,40.533859,-3.442093,669.3,4,5,269.6,0.35200000000000004,1,-0.051,-0.006999999999999999,0.002,-0.019,0.006999999999999999,-0.004,-1.5430000000000001,0.032,0.040999999999999995,0.051,0.05,3.5580000000000003,2,-1.0,-1.0,1,85.8,90.0,1,primary,2,1,40.533867,-3.441815,0.983,85.8,1.0,0.0,0.0
150,171.54,85.6,40.533859,-3.4423809999999997,668.9,4,5,269.3,0.35200000000000004,1,0.006999999999999999,-0.049,-0.03,-0.005,-0.031,-0.045,-1.525,0.027999999999999997,0.040999999999999995,0.051,0.055,3.603,2,-1.0,-1.0,3,85.6,90.0,1,primary,2,1,40.533859,-3.442093,1.421,86.3,1.0,0.0,0.0
151,172.52,86.3,40.533854999999996,-3.442681,668.7,4,5,269.3,0.35200000000000004,1,0.002,0.002,-0.035,-0.017,0.004,-0.019,-1.508,0.022000000000000002,0.042,0.01,-0.003,3.694,2,-1.0,-1.0,0,86.3,90.0,1,primary,2,1,40.533859,-3.442093,1.421,86.3,1.0,0.0,0.0
152,173.54,84.9,40.533852,-3.44296,668.4,4,5,268.6,0.703,1,-0.015,0.004,0.025,-0.023,-0.01,-0.001,-1.4980000000000002,0.024,0.043,-0.121,-0.006999999999999999,3.719,2,-1.0,-1.0,0,84.9,90.0,1,primary,2,1,40.533859,-3.442093,1.421,86.3,1.0,0.0,0.0
153,174.48,84.7,40.533844,-3.443235,668.4,4,5,268.2,1.055,1,0.005,0.015,0.006999999999999999,-0.009000000000000001,0.01,0.021,-1.518,0.016,0.04,-0.162,-0.025,3.636,2,-1.0,-1.0,2,84.7,90.0,1,primary,2,1,40.533859,-3.442093,1.421,86.3,1.0,0.0,0.0
154,175.49,82.7,40.533852,-3.443508,668.1,4,5,269.6,1.406,1,-0.004,-0.023,-0.0,-0.006,-0.017,0.009000000000000001,-1.55,0.018000000000000002,0.039,-0.131,0.009000000000000001,3.605,2,-1.0,-1.0,0,82.7,90.0,1,primary,2,1,40.533859,-3.442093,1.421,86.3,1.0,0.0,0.0
155,176.49,83.0,40.533840000000005,-3.443773,667.6,4,5,269.3,1.055,1,-0.043,-0.01,-0.009000000000000001,0.006,0.002,-0.009000000000000001,-1.556,0.026000000000000002,0.042,-0.23199999999999998,0.033,3.592,2,-1.0,-1.0,0,83.0,90.0,1,primary,2,1,40.533859,-3.442093,1.421,86.3,1.0,0.0,0.0
156,177.49,83.7,40.533844,-3.444038,667.6,4,5,269.3,0.35200000000000004,1,0.009000000000000001,0.021,-0.013000000000000001,-0.025,0.009000000000000001,-0.011000000000000001,-1.557,0.024,0.04,-0.242,0.044000000000000004,3.642,2,-1.0,-1.0,0,83.7,90.0,1,primary,2,1,40.533859,-3.442093,1.421,86.3,1.0,0.0,0.0
157,178.51,83.6,40.533836,-3.4443080000000004,666.9,6,5,269.3,0.0,1,0.01,-0.013000000000000001,-0.01,-0.003,-0.0,-0.013999999999999999,-1.547,0.025,0.037000000000000005,-0.263,0.065,3.622,2,-1.0,-1.0,0,83.6,90.0,1,primary,2,1,40.533854999999996,-3.442682,12.386,87.9,1.0,0.0,0.0
158,179.49,83.8,40.533833,-3.444586,666.6,4,5,269.3,0.0,1,-0.022000000000000002,0.012,-0.019,-0.032,0.015,-0.026000000000000002,-1.5390000000000001,0.024,0.037000000000000005,-0.414,0.06,3.565,2,-1.0,-1.0,0,83.8,90.0,1,primary,2,1,40.533854999999996,-3.442682,12.386,87.9,1.0,0.0,0.0
159,180.52,85.3,40.533825,-3.444865,666.1,4,5,269.6,0.35200000000000004,1,0.02,0.018000000000000002,-0.017,-0.004,0.012,-0.017,-1.535,0.017,0.033,-0.364,0.065,3.5660000000000003,2,-1.0,-1.0,0,85.3,90.0,1,primary,2,1,40.533854999999996,-3.442682,12.386,87.9,1.0,0.0,0.0
160,181.49,84.7,40.533833,-3.4451519999999998,665.6,4,5,270.7,1.406,1,0.033,-0.01,0.024,0.023,0.004,0.034,-1.548,0.013000000000000001,0.027999999999999997,-0.222,0.099,3.437,2,-1.0,-1.0,0,84.7,90.0,1,primary,2,1,40.533854999999996,-3.442682,12.386,87.9,1.0,0.0,0.0
161,182.56,85.9,40.533833,-3.445435,665.6,4,5,270.7,1.055,1,-0.001,-0.005,-0.022000000000000002,0.002,-0.017,-0.008,-1.548,0.022000000000000002,0.031,-0.051,0.087,3.4589999999999996,2,-1.0,-1.0,0,85.9,90.0,1,primary,2,1,40.533854999999996,-3.442682,12.386,87.9,1.0,0.0,0.0
162,183.51,85.9,40.533836,-3.4457160000000004,665.1,4,5,270.7,0.0,1,0.035,-0.003,0.038,0.019,0.001,0.047,-1.551,0.022000000000000002,0.033,0.10099999999999999,0.09699999999999999,3.4810000000000003,2,-1.0,-1.0,0,85.9,90.0,1,primary,2,1,40.533854999999996,-3.442682,12.386,87.9,1.0,0.0,0.0
163,184.51,86.1,40.533840000000005,-3.446,664.9,4,5,270.4,0.35200000000000004,1,-0.026000000000000002,-0.012,-0.018000000000000002,-0.006,-0.006999999999999999,-0.006999999999999999,-1.57,0.021,0.037000000000000005,0.152,0.049,3.455,2,-1.0,-1.0,0,86.1,90.0,1,primary,2,1,40.533854999999996,-3.442682,12.386,87.9,1.0,0.0,0.0
164,185.51,87.9,40.533836,-3.446286,664.5,4,5,269.6,1.055,1,0.006,-0.018000000000000002,-0.004,-0.002,-0.004,-0.002,-1.584,0.023,0.04,0.192,0.013000000000000001,3.428,2,-1.0,-1.0,0,87.9,90.0,1,primary,2,1,40.533854999999996,-3.442682,12.386,87.9,1.0,0.0,0.0
165,186.49,89.7,40.533840000000005,-3.446562,664.2,4,5,269.6,0.703,1,-0.006999999999999999,-0.001,-0.04,0.015,-0.001,-0.022000000000000002,-1.5719999999999998,0.023,0.040999999999999995,0.182,0.006,3.452,2,-1.0,-1.0,0,89.7,90.0,1,primary,2,1,40.533836,-3.4462870000000003,0.9570000000000001,89.7,1.0,0.0,0.0
166,187.5,90.6,40.533836,-3.446858,664.0,6,5,269.3,0.35200000000000004,1,0.005,-0.01,-0.043,0.026000000000000002,-0.003,-0.040999999999999995,-1.536,0.018000000000000002,0.039,0.212,0.015,3.509,2,-1.0,-1.0,0,90.6,90.0,1,primary,2,1,40.533840000000005,-3.446562,0.8809999999999999,90.6,0.998,0.0,0.002
167,188.5,90.5,40.533833,-3.4471580000000004,663.5,6,5,269.6,0.35200000000000004,1,0.016,0.008,-0.013000000000000001,-0.013999999999999999,0.001,-0.02,-1.518,0.024,0.039,0.152,0.05,3.596,2,-1.0,-1.0,0,90.5,90.0,1,primary,2,1,40.533836,-3.446858,0.595,90.5,0.996,0.0,0.004
168,189.6,87.8,40.533817,-3.447744,663.0,4,5,269.6,0.35200000000000004,1,-0.06,-0.028999999999999998,-0.006,-0.038,-0.028999999999999998,-0.021,-1.5090000000000001,0.025,0.040999999999999995,0.152,0.013999999999999999,3.562,2,-1.0,-1.0,0,89.1,90.0,1,primary,2,1,40.533833,-3.4471589999999996,1.031,89.1,0.996,0.0,0.004
169,190.49,87.8,40.533817,-3.447744,663.0,4,5,269.6,0.0,1,0.015,0.02,0.001,0.004,0.013999999999999999,0.004,-1.505,0.024,0.044000000000000004,0.071,-0.037000000000000005,3.6180000000000003,2,-1.0,-1.0,0,87.8,90.0,1,primary,2,1,40.533833,-3.4471589999999996,1.031,89.1,0.996,0.0,0.004
170,191.57,87.3,40.533821,-3.448029,662.5,6,5,269.3,0.35200000000000004,1,-0.085,-0.002,-0.035,-0.013000000000000001,-0.008,-0.015,-1.5,0.022000000000000002,0.043,-0.04,0.004,3.55,1,-1.0,-1.0,0,87.3,90.0,1,primary,2,1,40.533817,-3.447744,1.218,86.1,0.996,0.0,0.004
171,192.5,86.1,40.533821,-3.448319,662.1,4,5,269.6,0.35200000000000004,1,0.011000000000000001,0.013000000000000001,0.04,-0.002,0.015,0.031,-1.518,0.017,0.042,-0.121,0.027000000000000003,3.5180000000000002,2,-1.0,-1.0,0,86.1,90.0,1,primary,2,1,40.533817,-3.447744,1.218,86.1,0.996,0.0,0.004
172,193.58,86.8,40.533825,-3.44889,661.4,4,5,269.6,0.35200000000000004,1,-0.055999999999999994,-0.013999999999999999,0.025,0.004,-0.005,0.033,-1.54,0.015,0.038,-0.182,0.04,3.489,2,-1.0,-1.0,0,85.5,90.0,1,primary,2,1,40.533821,-3.448319,1.536,86.8,0.996,0.0,0.004
173,194.5,86.8,40.533825,-3.44889,661.4,4,5,269.6,0.0,1,0.013000000000000001,-0.024,-0.002,0.001,-0.017,0.008,-1.551,0.024,0.042,-0.131,0.025,3.498,2,-1.0,-1.0,0,86.8,90.0,1,primary,2,1,40.533821,-3.448319,1.536,86.8,0.996,0.0,0.004
174,195.5,88.4,40.533825,-3.44918,661.0,4,5,270.7,1.055,1,-0.026000000000000002,0.011000000000000001,-0.009000000000000001,-0.019,0.016,-0.016,-1.546,0.013000000000000001,0.043,-0.172,0.0,3.5210000000000004,2,-1.0,-1.0,0,88.4,90.0,1,primary,2,1,40.533825,-3.44889,1.6909999999999998,87.9,0.996,0.0,0.004
175,196.49,87.9,40.533825,-3.449461,660.8,4,5,269.3,1.406,1,-0.066,0.009000000000000001,-0.004,-0.027999999999999997,0.003,-0.022000000000000002,-1.546,0.023,0.042,-0.212,0.034,3.5389999999999997,2,-1.0,-1.0,0,87.9,90.0,1,primary,2,1,40.533825,-3.44889,1.6909999999999998,87.9,0.996,0.0,0.004
176,197.5,87.4,40.533821,-3.4497440000000004,660.3,4,5,269.6,1.055,1,-0.013999999999999999,-0.033,-0.043,0.001,-0.013000000000000001,-0.028999999999999998,-1.528,0.012,0.039,-0.192,0.036000000000000004,3.4960000000000004,2,-1.0,-1.0,0,87.4,90.0,1,primary,2,1,40.533825,-3.449461,1.037,87.4,0.996,0.0,0.004
177,198.5,88.4,40.533829,-3.450051,659.9,4,5,271.1,1.758,1,0.009000000000000001,-0.001,0.015,0.005,0.004,0.026000000000000002,-1.536,0.02,0.042,-0.091,0.061,3.508,2,86.74,3.53,1,88.4,90.0,1,primary,2,1,40.533825,-3.449461,1.037,87.4,0.996,0.0,0.004
178,199.5,87.5,40.533825,-3.4503410000000003,659.4,4,5,268.9,2.109,1,-0.009000000000000001,0.004,-0.002,-0.025,0.006,-0.002,-1.5419999999999998,0.031,0.045,-0.172,0.015,3.471,2,79.33,3.26,3,87.5,90.0,1,primary,2,1,40.533829,-3.450051,1.064,87.5,0.996,0.0,0.004
179,200.5,87.6,40.533817,-3.450639,658.9,4,5,269.6,1.406,1,-0.027999999999999997,0.001,0.006,-0.05,0.001,0.027999999999999997,-1.56,0.022000000000000002,0.045,-0.192,0.002,3.437,2,75.01,3.08,1,87.6,90.0,1,primary,2,1,40.533829,-3.450051,1.064,87.5,0.996,0.0,0.004
180,201.5,88.5,40.533817,-3.450921,658.6,3,5,269.3,0.35200000000000004,1,-0.07400000000000001,-0.013000000000000001,-0.049,-0.038,-0.016,-0.026000000000000002,-1.5659999999999998,0.019,0.045,-0.303,0.023,3.5389999999999997,2,69.52,2.83,1,88.5,90.0,1,primary,2,1,40.533817,-3.450639,1.932,90.0,0.996,0.0,0.004
181,202.52,90.0,40.533806,-3.4512120000000004,658.8,3,5,269.6,0.35200000000000004,1,0.031,-0.013999999999999999,-0.031,0.032,-0.012,-0.031,-1.546,0.018000000000000002,0.045,-0.354,0.027999999999999997,3.576,2,66.66,2.67,1,90.0,90.0,1,primary,2,1,40.533817,-3.450639,1.932,90.0,0.9940000000000001,0.0,0.006
182,203.51,89.1,40.533806,-3.451507,658.6,3,5,270.4,1.055,1,-0.031,0.005,0.01,0.004,0.003,-0.013000000000000001,-1.534,0.019,0.043,-0.374,0.026000000000000002,3.634,2,66.67,2.69,1,89.1,90.0,1,primary,2,1,40.533806,-3.4512120000000004,1.814,90.4,0.9940000000000001,0.0,0.006
183,204.5,90.4,40.533809999999995,-3.4518050000000002,658.3,3,5,269.6,0.703,1,0.01,0.004,-0.013999999999999999,-0.027999999999999997,0.006999999999999999,-0.01,-1.5390000000000001,0.02,0.042,-0.374,0.023,3.596,2,63.86,2.54,1,90.4,90.0,1,primary,2,1,40.533806,-3.4512120000000004,1.814,90.4,0.992,0.0,0.008
184,205.54,89.9,40.533813,-3.4521040000000003,658.1,3,5,269.6,0.703,1,0.013999999999999999,-0.02,0.0,0.01,-0.005,-0.018000000000000002,-1.536,0.024,0.042,-0.414,0.008,3.576,2,59.0,2.36,1,89.9,90.0,1,primary,2,1,40.533809999999995,-3.4518050000000002,1.824,89.6,0.992,0.0,0.008
185,206.5,89.6,40.533809999999995,-3.4523980000000005,657.5,3,5,269.3,0.35200000000000004,1,-0.026000000000000002,0.006,-0.003,-0.019,0.005,-0.004,-1.538,0.02,0.040999999999999995,-0.364,0.024,3.52,2,58.33,2.34,1,89.6,90.0,1,primary,2,1,40.533809999999995,-3.4518050000000002,1.824,89.6,0.992,0.0,0.008
186,207.49,89.6,40.533809999999995,-3.452694,657.2,3,5,269.6,0.35200000000000004,1,-0.012,-0.005,-0.01,-0.0,-0.003,-0.011000000000000001,-1.537,0.023,0.039,-0.39399999999999996,0.009000000000000001,3.485,2,53.39,2.15,1,89.6,90.0,1,primary,2,1,40.533809999999995,-3.4523980000000005,0.995,89.6,0.992,0.0,0.008
187,208.51,89.5,40.533806,-3.4529940000000003,656.8,3,5,269.6,0.35200000000000004,1,-0.038,0.012,0.016,-0.034,0.004,-0.013000000000000001,-1.528,0.019,0.038,-0.28300000000000003,0.054000000000000006,3.589,2,48.24,1.94,1,89.5,90.0,1,primary,2,1,40.533809999999995,-3.4523980000000005,0.995,89.6,0.992,0.0,0.008
188,209.54,89.4,40.533809999999995,-3.4532849999999997,656.5,3,5,269.6,0.0,1,0.013999999999999999,-0.01,-0.012,-0.003,-0.003,-0.02,-1.5290000000000001,0.02,0.037000000000000005,-0.384,0.045,3.575,2,45.44,1.83,1,89.4,90.0,1,primary,2,1,40.533809999999995,-3.4523980000000005,0.995,89.6,0.992,0.0,0.008
189,210.54,89.0,40.533806,-3.453581,656.1,3,5,269.6,0.0,1,0.05,-0.016,-0.028999999999999998,0.026000000000000002,-0.01,-0.032,-1.536,0.016,0.036000000000000004,-0.39399999999999996,0.02,3.54,2,38.75,1.57,1,89.0,90.0,1,primary,2,1,40.533809999999995,-3.452695,5.319,85.3,0.992,0.0,0.008
190,211.58,87.7,40.533806,-3.453871,655.4,4,5,269.6,0.0,1,-0.017,-0.024,-0.011000000000000001,0.006,-0.015,-0.024,-1.524,0.019,0.036000000000000004,-0.364,0.035,3.56,2,35.26,1.45,1,87.7,90.0,1,primary,2,1,40.533809999999995,-3.452695,5.319,85.3,0.992,0.0,0.008
191,212.49,86.9,40.533806,-3.4541480000000004,655.0,4,5,270.0,0.35200000000000004,1,-0.035,-0.026000000000000002,-0.026000000000000002,-0.001,-0.012,-0.032,-1.508,0.011000000000000001,0.036000000000000004,-0.374,0.025,3.5669999999999997,2,32.8,1.36,1,86.9,90.0,1,primary,2,1,40.533809999999995,-3.452695,5.319,85.3,0.992,0.0,0.008
192,213.48,85.3,40.533806,-3.454425,654.6,3,5,269.6,0.35200000000000004,1,-0.069,-0.01,0.024,-0.042,-0.009000000000000001,0.008,-1.495,0.012,0.035,-0.364,0.019,3.6069999999999998,2,30.22,1.28,1,85.3,90.0,1,primary,2,1,40.533809999999995,-3.452695,5.319,85.3,0.992,0.0,0.008
193,214.5,84.3,40.533809999999995,-3.454703,654.0,3,5,270.0,0.35200000000000004,1,0.018000000000000002,0.002,-0.004,0.02,-0.004,-0.002,-1.494,0.006,0.035,-0.364,0.028999999999999998,3.5380000000000003,2,28.66,1.22,1,84.3,90.0,1,primary,2,1,40.533809999999995,-3.452695,5.319,85.3,0.992,0.0,0.008
194,215.49,83.7,40.533813,-3.4549830000000004,653.6,4,5,269.6,0.35200000000000004,1,-0.015,0.006,0.013999999999999999,-0.006,-0.005,0.01,-1.501,0.013000000000000001,0.034,-0.414,0.025,3.5580000000000003,2,26.82,1.15,1,83.7,90.0,1,primary,2,1,40.533806,-3.454425,3.2710000000000004,82.5,0.992,0.0,0.008
195,216.48,84.1,40.533809999999995,-3.455261,653.0,4,5,269.6,0.35200000000000004,1,-0.011000000000000001,-0.0,0.018000000000000002,-0.005,-0.009000000000000001,0.016,-1.508,0.006,0.032,-0.384,0.037000000000000005,3.548,2,26.34,1.13,1,84.1,90.0,1,primary,2,1,40.533806,-3.454425,3.2710000000000004,82.5,0.992,0.0,0.008
