,Timestamp (seconds),Speed (km/h),Latitude coordinate (degrees),Longitude coordinate (degrees),Altitude (meters),Vertical accuracy (degrees),Horizontal accuracy (degrees),Course (degrees),Difcourse: course variation (degrees),Boolean of system activated (1 if >50km/h),Acceleration in X (Gs),Acceleration in Y (Gs),Acceleration in Z (Gs),Acceleration in X filtered by KF (Gs),Acceleration in Y filtered by KF (Gs),Acceleration in Z filtered by KF (Gs),Roll (degrees),Pitch (degrees),Yaw (degrees),X: car position relative to lane center (meters),Phi: car angle relative to lane curvature (degrees),W: road width (meters),"State of the lane det. algorithm [-1=calibrating, 0=initializing, 1=undetected, 2=detected/running]",Distance to ahead vehicle in current lane (meters) [value -1 means no car is detected in front],Time of impact to ahead vehicle (seconds) [distance related to own speed],Number of detected vehicles in this frame (traffic),GPS speed (km/h) [same as in RAW GPS],Maximum allowed speed of current road (km/h),"Reliability of obtained maxspeed (0=unknown, 1=reliable, 2=used previously obtained maxspeed,3=estimated by type of road)","Type of road (motorway, trunk, secondary...)",Number of lanes in current road,"Estimated current lane (1=right lane, 2=first left lane, 3=second left lane, etc) [experimental]",GPS Latitude used to query OSM (degrees),GPS Longitude used to query OSM (degrees),OSM delay to answer query (seconds),GPS speed (km/h) [same as in RAW GPS]],Ratio normal (base 1),Ratio drowsy (base 1),Ratio aggressive (base 1)
0,22.33,93.3,40.519077,-3.4101019999999997,620.7,4,5,324.5,0.0,1,-0.052000000000000005,0.001,-0.033,-0.019,0.002,-0.015,-1.5590000000000002,0.025,0.147,0.0,-0.0,3.5,-1,-1.0,-1.0,0,93.3,100.0,1,primary,3,1,40.519077,-3.4101019999999997,1.078,92.9,0.88,0.0,0.12
1,23.34,92.9,40.519268,-3.410277,620.8,4,5,324.5,0.0,1,-0.04,-0.005,-0.01,-0.036000000000000004,-0.001,-0.009000000000000001,-1.555,0.005,0.146,0.0,-0.0,3.5,-1,-1.0,-1.0,0,92.9,100.0,1,primary,3,1,40.519077,-3.4101019999999997,1.078,92.9,0.9,0.0,0.1
2,24.33,92.7,40.519455,-3.410453,621.2,4,5,324.8,0.35200000000000004,1,0.01,0.011000000000000001,0.022000000000000002,-0.012,0.002,0.002,-1.5519999999999998,0.008,0.14300000000000002,0.0,-0.0,3.5,-1,-1.0,-1.0,0,92.7,100.0,1,primary,3,1,40.519455,-3.410453,0.7040000000000001,92.7,0.914,0.0,0.086
3,25.36,92.7,40.519646,-3.410628,621.3,6,5,324.8,0.35200000000000004,1,-0.009000000000000001,0.003,-0.013999999999999999,-0.02,0.001,-0.005,-1.551,0.012,0.14300000000000002,-0.33299999999999996,-0.067,3.667,2,-1.0,-1.0,0,92.7,100.0,1,primary,3,1,40.519455,-3.410453,0.7040000000000001,92.7,0.925,0.0,0.075
4,26.37,92.2,40.519836,-3.4108,621.9,4,5,324.5,0.35200000000000004,1,-0.003,0.013000000000000001,0.028999999999999998,-0.024,0.008,0.016,-1.5490000000000002,0.017,0.146,-0.374,-0.008,3.7030000000000003,2,-1.0,-1.0,0,92.2,100.0,1,primary,3,1,40.519646,-3.410628,0.875,92.2,0.9329999999999999,0.0,0.067
5,27.33,92.2,40.52002,-3.4109760000000002,622.5,4,5,324.1,0.703,1,0.004,0.036000000000000004,0.001,-0.006,0.034,0.006999999999999999,-1.5590000000000002,0.015,0.146,-0.5760000000000001,0.022000000000000002,3.654,2,-1.0,-1.0,0,92.2,100.0,1,primary,3,1,40.519836,-3.410801,1.84,91.5,0.9359999999999999,0.004,0.06
6,28.37,91.5,40.520206,-3.411161,622.4,4,5,324.5,0.35200000000000004,1,-0.081,-0.006,-0.004,-0.023,0.005,0.004,-1.557,0.01,0.141,-0.616,0.027999999999999997,3.6319999999999997,2,-1.0,-1.0,0,91.5,100.0,1,primary,3,1,40.519836,-3.410801,1.84,91.5,0.929,0.017,0.055
7,29.34,91.8,40.520382,-3.4113260000000003,622.7,4,5,324.5,0.35200000000000004,1,0.042,0.003,-0.027999999999999997,0.039,-0.0,-0.006999999999999999,-1.565,0.009000000000000001,0.14300000000000002,-0.687,0.013999999999999999,3.4410000000000003,2,-1.0,-1.0,0,91.8,100.0,1,primary,2,1,40.520206,-3.411161,0.505,91.5,0.93,0.02,0.05
8,30.34,92.2,40.520573,-3.4115050000000005,623.2,4,5,324.5,0.0,1,-0.12300000000000001,0.034,0.023,-0.096,0.03,-0.003,-1.5719999999999998,0.01,0.142,-0.737,-0.006999999999999999,3.5180000000000002,2,-1.0,-1.0,0,92.2,100.0,1,primary,2,1,40.520382,-3.4113260000000003,0.76,91.8,0.7490000000000001,0.205,0.046
9,31.34,93.3,40.520767,-3.4116769999999996,623.5,4,5,324.8,0.35200000000000004,1,0.034,0.012,0.004,0.006,-0.001,-0.006,-1.5759999999999998,0.004,0.136,-0.626,0.002,3.5810000000000004,2,-1.0,-1.0,0,93.3,100.0,1,primary,2,1,40.520573,-3.4115050000000005,1.2830000000000001,93.3,0.9209999999999999,0.036000000000000004,0.043
10,32.36,93.3,40.520965999999994,-3.411858,623.8,4,5,324.8,0.35200000000000004,1,-0.048,0.017,-0.013000000000000001,-0.044000000000000004,0.015,0.0,-1.5719999999999998,0.01,0.135,-0.525,0.066,3.5410000000000004,2,-1.0,-1.0,0,93.3,100.0,1,primary,2,1,40.520573,-3.4115050000000005,1.2830000000000001,93.3,0.917,0.043,0.04
11,33.39,95.4,40.521159999999995,-3.412039,624.1,4,5,325.2,0.35200000000000004,1,-0.099,-0.009000000000000001,0.01,-0.040999999999999995,-0.001,-0.0,-1.569,0.027999999999999997,0.139,-0.414,0.045,3.5810000000000004,2,-1.0,-1.0,0,95.4,100.0,1,primary,2,1,40.520965999999994,-3.411858,1.58,95.4,0.919,0.043,0.038
12,34.34,94.6,40.521361999999996,-3.412218,624.8,4,5,324.8,0.35200000000000004,1,0.057,0.008,0.016,-0.001,-0.01,0.006999999999999999,-1.567,0.032,0.142,-0.34299999999999997,-0.027000000000000003,3.536,2,-1.0,-1.0,0,94.6,100.0,1,primary,2,1,40.520965999999994,-3.411858,1.58,95.4,0.9209999999999999,0.043,0.035
13,35.34,94.6,40.521557,-3.4123980000000005,625.4,4,5,324.5,0.703,1,0.023,0.013999999999999999,-0.023,0.012,0.013000000000000001,0.002,-1.565,0.023,0.145,0.081,0.095,2.251,1,-1.0,-1.0,0,94.6,100.0,1,primary,2,1,40.521361999999996,-3.412218,1.162,94.6,0.757,0.21,0.033
14,36.37,93.6,40.521736,-3.4125660000000004,625.9,4,5,324.5,0.35200000000000004,1,-0.068,0.015,0.037000000000000005,-0.053,0.013000000000000001,0.016,-1.57,0.024,0.145,-0.354,-0.032,3.594,2,-1.0,-1.0,0,93.6,100.0,1,primary,2,1,40.521736,-3.4125660000000004,0.695,93.6,0.772,0.196,0.032
15,37.34,94.1,40.521919,-3.4127339999999995,626.5,4,5,324.5,0.0,1,0.031,0.003,0.001,0.006999999999999999,-0.008,0.006,-1.581,0.02,0.145,-0.414,-0.015,3.525,2,-1.0,-1.0,0,94.1,100.0,1,primary,2,1,40.521736,-3.4125660000000004,0.695,93.6,0.785,0.185,0.03
16,38.36,94.0,40.522106,-3.4129120000000004,627.1,4,5,324.5,0.0,1,-0.040999999999999995,0.019,-0.009000000000000001,-0.023,0.012,-0.016,-1.577,0.013999999999999999,0.14300000000000002,-0.455,0.055999999999999994,3.549,2,-1.0,-1.0,0,94.0,100.0,1,primary,2,1,40.521919,-3.4127339999999995,1.652,94.0,0.797,0.175,0.028999999999999998
17,39.34,94.0,40.522296999999995,-3.4130910000000005,627.8,4,5,324.5,0.0,1,-0.09300000000000001,-0.026000000000000002,-0.011000000000000001,-0.075,-0.017,-0.012,-1.5859999999999999,0.005,0.145,0.0,-0.0,3.505,0,-1.0,-1.0,0,94.0,100.0,1,primary,2,1,40.521919,-3.4127339999999995,1.652,94.0,0.807,0.166,0.027000000000000003
18,40.35,93.1,40.522484000000006,-3.413265,628.8,4,5,324.5,0.0,1,0.06,-0.067,-0.016,0.015,-0.055,-0.017,-1.584,0.011000000000000001,0.16,-0.20199999999999999,-0.049,3.54,1,-1.0,-1.0,0,93.1,100.0,1,primary,2,1,40.522296999999995,-3.4130910000000005,2.2030000000000003,93.3,0.816,0.158,0.026000000000000002
19,41.34,93.3,40.522663,-3.4134589999999996,629.8,4,5,322.7,1.758,1,-0.026000000000000002,-0.045,0.04,-0.036000000000000004,-0.036000000000000004,0.015,-1.5819999999999999,0.033,0.18899999999999997,-0.263,-0.003,3.556,2,-1.0,-1.0,0,93.3,100.0,1,primary,2,1,40.522296999999995,-3.4130910000000005,2.2030000000000003,93.3,0.8240000000000001,0.151,0.025
20,42.34,94.8,40.522846,-3.4136559999999996,630.5,4,5,320.6,3.867,1,-0.001,-0.01,0.01,0.004,-0.006999999999999999,0.013000000000000001,-1.594,0.037000000000000005,0.22,-0.364,-0.022000000000000002,3.5439999999999996,2,-1.0,-1.0,0,94.8,100.0,1,primary,2,1,40.522296999999995,-3.4130910000000005,2.2030000000000003,93.3,0.833,0.14300000000000002,0.024
21,43.34,94.1,40.523033,-3.413853,631.5,4,5,318.2,4.57,1,0.005,-0.032,-0.002,0.004,-0.034,-0.005,-1.599,0.03,0.254,-0.374,-0.032,3.529,2,-1.0,-1.0,0,94.1,100.0,1,primary,2,1,40.522846,-3.4136559999999996,2.095,95.4,0.84,0.13699999999999998,0.023
22,44.36,95.4,40.523216,-3.4140699999999997,632.7,6,5,316.1,4.57,1,-0.083,0.001,-0.02,-0.017,0.005,-0.01,-1.595,0.025,0.28800000000000003,-0.40399999999999997,-0.03,3.658,2,-1.0,-1.0,0,95.4,100.0,1,primary,2,1,40.522846,-3.4136559999999996,2.095,95.4,0.846,0.131,0.022000000000000002
23,45.42,95.5,40.523399,-3.4142980000000005,633.6,4,5,313.9,4.218999999999999,1,-0.015,-0.033,-0.018000000000000002,-0.026000000000000002,-0.026000000000000002,0.002,-1.595,0.02,0.316,-0.515,-0.057999999999999996,3.596,2,-1.0,-1.0,0,95.5,100.0,1,primary,2,1,40.522846,-3.4136559999999996,2.095,95.4,0.852,0.126,0.021
24,46.34,96.9,40.523567,-3.414539,634.6,6,5,312.2,3.867,1,-0.006,0.01,0.036000000000000004,0.01,0.001,0.019,-1.5919999999999999,0.02,0.344,-0.586,0.017,3.5269999999999997,2,-1.0,-1.0,0,96.9,90.0,3,tertiary_link,1,1,40.523399,-3.4142980000000005,1.321,96.9,0.8420000000000001,0.13699999999999998,0.021
25,47.35,96.7,40.523731,-3.4147809999999996,635.8,6,5,310.1,3.867,1,0.018000000000000002,0.024,-0.008,0.024,0.009000000000000001,0.004,-1.591,0.023,0.369,-0.596,0.032,3.4610000000000003,2,-1.0,-1.0,0,96.7,90.0,3,tertiary_link,1,1,40.523399,-3.4142980000000005,1.321,96.9,0.8240000000000001,0.156,0.021
26,48.36,97.1,40.52388,-3.4150339999999995,636.8,6,5,307.6,4.57,1,-0.046,0.022000000000000002,0.006,-0.046,0.01,0.013000000000000001,-1.59,0.033,0.39899999999999997,-0.616,0.035,3.6460000000000004,2,-1.0,-1.0,0,96.7,90.0,3,tertiary_link,1,1,40.523731,-3.4147819999999998,1.2930000000000001,97.1,0.8059999999999999,0.174,0.021
27,49.35,98.3,40.524025,-3.415292,637.3,4,5,306.2,3.867,1,-0.048,0.028999999999999998,-0.002,-0.036000000000000004,0.027000000000000003,-0.0,-1.5919999999999999,0.023,0.41600000000000004,-0.667,-0.003,3.5580000000000003,2,-1.0,-1.0,0,98.3,90.0,3,tertiary_link,1,1,40.523731,-3.4147819999999998,1.2930000000000001,97.1,0.7909999999999999,0.188,0.021
28,50.35,99.9,40.524174,-3.415573,638.0,4,5,303.8,3.867,1,0.071,-0.02,0.012,0.04,-0.013999999999999999,0.013999999999999999,-1.5919999999999999,0.017,0.429,-0.626,0.022000000000000002,3.43,2,-1.0,-1.0,0,99.9,90.0,3,tertiary_link,1,1,40.523731,-3.4147819999999998,1.2930000000000001,97.1,0.7759999999999999,0.204,0.021
29,51.41,100.8,40.524307,-3.4158459999999997,638.6,4,5,301.6,4.57,1,0.035,0.015,-0.021,0.032,0.012,-0.009000000000000001,-1.597,0.023,0.446,-0.485,0.055999999999999994,3.4619999999999997,1,-1.0,-1.0,0,100.8,90.0,3,tertiary_link,1,1,40.524025,-3.415292,2.759,100.8,0.7659999999999999,0.213,0.021
30,52.35,101.8,40.524433,-3.416128,639.1,4,5,299.2,4.57,1,-0.008,-0.035,-0.039,-0.012,-0.037000000000000005,-0.035,-1.577,0.04,0.46299999999999997,-0.28300000000000003,0.086,3.463,2,-1.0,-1.0,0,101.8,90.0,3,tertiary_link,1,1,40.524025,-3.415292,2.759,100.8,0.773,0.207,0.021
31,53.4,100.9,40.524551,-3.4164230000000004,639.0,4,5,296.4,5.273,1,0.015,-0.019,-0.040999999999999995,0.028999999999999998,-0.013999999999999999,-0.034,-1.534,0.046,0.48200000000000004,-0.152,0.031,3.562,2,-1.0,-1.0,0,100.9,90.0,3,tertiary_link,1,1,40.524025,-3.415292,2.759,100.8,0.78,0.2,0.021
32,54.42,99.8,40.524654,-3.416723,638.7,4,5,294.3,4.922,1,0.013999999999999999,-0.006,-0.003,-0.006,0.002,-0.0,-1.5119999999999998,0.044000000000000004,0.49700000000000005,-0.242,0.009000000000000001,3.5639999999999996,2,-1.0,-1.0,0,99.8,90.0,3,tertiary_link,1,1,40.524025,-3.415292,2.759,100.8,0.785,0.19399999999999998,0.021
33,55.35,97.8,40.52475,-3.417015,638.4,3,5,291.4,4.922,1,0.009000000000000001,0.021,-0.015,0.002,0.02,0.017,-1.486,0.039,0.508,-0.303,-0.006999999999999999,3.582,1,-1.0,-1.0,0,97.8,90.0,3,tertiary_link,1,1,40.524433,-3.416129,4.869,95.7,0.7909999999999999,0.188,0.021
34,56.35,96.8,40.52483,-3.4173120000000003,637.7,3,5,289.3,4.922,1,0.098,0.027999999999999997,0.019,0.015,0.034,0.022000000000000002,-1.496,0.04,0.507,-0.384,-0.035,3.7960000000000003,1,-1.0,-1.0,0,96.8,90.0,3,tertiary_link,1,1,40.524433,-3.416129,4.869,95.7,0.7959999999999999,0.183,0.021
35,57.35,95.7,40.524906,-3.417613,636.9,3,5,287.9,3.516,1,-0.021,0.053,-0.02,0.031,0.046,-0.012,-1.489,0.018000000000000002,0.495,-0.20199999999999999,-0.039,4.478,2,-1.0,-1.0,0,95.7,90.0,3,tertiary_link,1,1,40.524433,-3.416129,4.869,95.7,0.8009999999999999,0.17800000000000002,0.021
36,58.35,94.1,40.524975,-3.417906,636.2,3,5,287.2,2.109,1,0.022000000000000002,0.019,0.013000000000000001,0.017,0.018000000000000002,0.01,-1.494,0.008,0.47700000000000004,-0.40399999999999997,-0.052000000000000005,3.855,2,-1.0,-1.0,0,94.1,100.0,1,primary,2,1,40.524906,-3.417613,1.5090000000000001,94.1,0.8059999999999999,0.17300000000000001,0.021
37,59.33,93.9,40.525043,-3.4182010000000003,635.3,4,5,286.2,1.758,1,-0.021,0.025,0.004,-0.009000000000000001,0.005,0.001,-1.4909999999999999,0.017,0.45899999999999996,-0.384,0.003,3.7,2,-1.0,-1.0,0,93.9,100.0,1,primary,2,1,40.524906,-3.417613,1.5090000000000001,94.1,0.8109999999999999,0.16899999999999998,0.02
38,60.33,92.2,40.525108,-3.418489,635.0,4,5,285.8,1.406,1,-0.005,0.012,-0.013999999999999999,-0.005,0.019,0.01,-1.49,0.031,0.435,-0.444,0.001,3.658,2,-1.0,-1.0,0,92.2,80.0,1,primary,1,1,40.525043,-3.4182010000000003,1.165,92.2,0.816,0.165,0.019
39,61.35,92.2,40.525166,-3.4187839999999996,634.3,6,5,285.5,0.703,1,-0.073,0.027000000000000003,0.016,-0.054000000000000006,0.04,0.003,-1.485,0.003,0.4,-0.525,0.013000000000000001,3.673,2,-1.0,-1.0,0,92.2,80.0,1,primary,1,1,40.525043,-3.4182010000000003,1.165,92.2,0.802,0.161,0.038
40,62.38,90.0,40.525238,-3.419053,633.7,6,5,286.5,1.055,1,-0.04,0.028999999999999998,-0.006999999999999999,-0.013999999999999999,0.018000000000000002,-0.003,-1.4869999999999999,-0.002,0.354,-0.495,0.038,3.6919999999999997,2,-1.0,-1.0,0,90.0,80.0,1,primary,1,1,40.525166,-3.4187839999999996,1.305,90.0,0.787,0.158,0.055
41,63.35,89.0,40.525299,-3.419339,632.8,6,5,287.2,1.758,1,-0.055,0.008,0.003,-0.034,0.012,-0.0,-1.484,-0.011000000000000001,0.313,-0.172,0.067,3.694,2,-1.0,-1.0,0,89.0,80.0,1,primary,1,1,40.525166,-3.4187839999999996,1.305,90.0,0.775,0.155,0.071
42,64.35,88.5,40.525364,-3.41961,632.0,6,5,287.6,1.055,1,0.01,0.002,-0.006999999999999999,-0.027999999999999997,-0.005,0.006,-1.496,-0.008,0.27,0.081,0.083,3.6460000000000004,2,-1.0,-1.0,0,88.5,80.0,1,primary,1,1,40.525166,-3.4187839999999996,1.305,90.0,0.763,0.151,0.086
43,65.37,87.4,40.525428999999995,-3.4198839999999997,631.3,6,5,289.0,1.758,1,0.024,0.001,0.009000000000000001,-0.002,0.004,-0.002,-1.4969999999999999,0.003,0.22399999999999998,0.192,0.055,3.694,2,-1.0,-1.0,0,87.4,80.0,1,primary,1,1,40.525299,-3.419339,3.1889999999999996,85.6,0.7659999999999999,0.147,0.087
44,66.42,85.6,40.525509,-3.420153,630.7,6,5,291.1,3.516,1,-0.009000000000000001,-0.002,0.027999999999999997,-0.004,-0.0,0.023,-1.508,-0.01,0.17,0.263,-0.003,3.6310000000000002,2,-1.0,-1.0,0,85.6,80.0,1,primary,1,1,40.525299,-3.419339,3.1889999999999996,85.6,0.768,0.14400000000000002,0.08800000000000001
45,67.34,86.1,40.525578,-3.420414,629.9,6,5,292.9,3.867,1,-0.069,-0.027000000000000003,-0.0,-0.03,-0.013999999999999999,-0.005,-1.514,-0.012,0.127,0.424,-0.013999999999999999,3.5989999999999998,2,-1.0,-1.0,0,86.1,80.0,1,primary,1,1,40.525578,-3.420414,0.569,86.1,0.77,0.142,0.08800000000000001
46,68.35,86.3,40.525661,-3.42067,629.4,6,5,295.0,3.867,1,0.003,-0.019,0.022000000000000002,-0.005,-0.001,0.016,-1.5130000000000001,-0.004,0.09,0.384,-0.052000000000000005,3.47,2,-1.0,-1.0,0,86.1,80.0,1,primary,1,1,40.525578,-3.420414,0.569,86.1,0.772,0.138,0.08900000000000001
47,69.37,86.8,40.525753,-3.4209330000000002,629.0,6,5,296.4,3.516,1,0.054000000000000006,-0.024,-0.009000000000000001,0.052000000000000005,-0.009000000000000001,0.015,-1.52,-0.016,0.055999999999999994,0.475,-0.043,3.4219999999999997,2,-1.0,-1.0,0,86.8,80.0,1,primary,1,1,40.525661,-3.42067,0.8140000000000001,86.8,0.775,0.135,0.09
48,70.34,88.4,40.525856,-3.421188,628.6,6,5,297.8,2.812,1,0.024,0.01,-0.012,0.006,0.017,0.005,-1.5319999999999998,-0.024,0.021,0.364,-0.063,3.5410000000000004,2,-1.0,-1.0,0,88.4,100.0,3,primary_link,1,1,40.525753,-3.4209330000000002,1.081,88.4,0.765,0.132,0.102
49,71.33,87.0,40.52597,-3.421432,628.2,6,5,301.3,4.922,1,0.052000000000000005,0.057999999999999996,0.011000000000000001,0.013999999999999999,0.042,0.018000000000000002,-1.538,-0.06,-0.031,0.091,-0.07,3.5839999999999996,2,-1.0,-1.0,0,88.4,90.0,1,primary,2,1,40.52597,-3.421432,0.617,87.0,0.768,0.13,0.102
50,72.36,87.6,40.526084999999995,-3.421673,627.9,6,5,304.8,7.031000000000001,1,-0.031,-0.005,0.02,-0.009000000000000001,-0.015,0.011000000000000001,-1.548,-0.042,-0.077,0.172,0.023,3.502,2,-1.0,-1.0,0,87.6,90.0,1,primary,2,1,40.52597,-3.421432,0.617,87.0,0.773,0.127,0.1
51,73.36,89.1,40.526215,-3.4218800000000003,627.7,6,5,306.9,5.625,1,0.027000000000000003,0.012,0.033,0.0,0.013000000000000001,0.019,-1.565,-0.057,-0.11699999999999999,0.131,0.013999999999999999,3.537,2,-1.0,-1.0,0,89.1,90.0,1,primary,2,1,40.526084999999995,-3.421673,0.941,89.1,0.778,0.125,0.098
52,74.35,90.2,40.526356,-3.422111,627.4,6,5,310.1,5.273,1,-0.035,-0.039,-0.002,-0.052000000000000005,-0.013999999999999999,-0.013000000000000001,-1.565,-0.055999999999999994,-0.158,0.303,0.055,3.513,2,-1.0,-1.0,0,90.2,90.0,1,primary,2,1,40.526215,-3.4218800000000003,0.868,90.2,0.779,0.12300000000000001,0.098
53,75.41,90.9,40.526508,-3.422338,626.8,6,5,312.2,5.273,1,-0.057,0.001,-0.09699999999999999,-0.027000000000000003,-0.011000000000000001,-0.066,-1.556,-0.043,-0.185,0.242,0.009000000000000001,3.6189999999999998,2,-1.0,-1.0,0,90.9,90.0,1,primary,2,1,40.526356,-3.422111,0.89,90.9,0.7809999999999999,0.12,0.099
54,76.33,90.4,40.526665,-3.422554,626.4,6,5,315.0,4.922,1,-0.034,-0.022000000000000002,-0.043,-0.033,-0.012,-0.05,-1.537,-0.046,-0.214,0.273,0.015,3.574,2,-1.0,-1.0,0,90.4,90.0,1,primary,2,1,40.526508,-3.422338,1.743,90.4,0.7829999999999999,0.11800000000000001,0.099
55,77.33,89.9,40.526835999999996,-3.422746,625.8,6,5,317.1,4.922,1,-0.032,0.001,0.001,-0.025,-0.0,0.0,-1.52,-0.040999999999999995,-0.24,0.32299999999999995,0.017,3.568,2,-1.0,-1.0,0,89.9,90.0,1,primary,2,1,40.526508,-3.422338,1.743,90.4,0.787,0.11599999999999999,0.09699999999999999
56,78.33,89.3,40.526996999999994,-3.4229339999999997,625.4,4,5,319.6,4.57,1,-0.004,-0.015,0.026000000000000002,-0.004,-0.016,0.023,-1.5219999999999998,-0.036000000000000004,-0.268,0.28300000000000003,-0.008,3.5589999999999997,2,-1.0,-1.0,0,89.3,90.0,1,primary,2,1,40.526835999999996,-3.422746,0.617,89.9,0.7909999999999999,0.114,0.095
57,79.33,90.1,40.52718,-3.423122,624.6,4,5,322.0,4.922,1,-0.026000000000000002,-0.002,0.022000000000000002,-0.013000000000000001,-0.011000000000000001,0.027000000000000003,-1.535,-0.044000000000000004,-0.3,0.212,-0.019,3.57,2,-1.0,-1.0,0,90.1,90.0,1,primary,2,1,40.526996999999994,-3.4229339999999997,1.317,90.1,0.792,0.11199999999999999,0.096
58,80.4,91.6,40.527363,-3.4233019999999996,624.4,4,5,324.8,5.273,1,0.012,-0.013000000000000001,0.043,-0.012,-0.024,0.025,-1.544,-0.033,-0.321,0.23199999999999998,0.019,3.574,2,-1.0,-1.0,0,91.6,90.0,1,primary,2,1,40.526996999999994,-3.4229339999999997,1.317,90.1,0.794,0.11,0.096
59,81.34,92.2,40.527557,-3.4234730000000004,623.9,4,5,326.6,4.57,1,-0.018000000000000002,-0.001,0.004,-0.027000000000000003,0.01,0.003,-1.551,-0.048,-0.34299999999999997,0.152,-0.013999999999999999,3.597,2,-1.0,-1.0,0,92.2,90.0,1,primary,2,1,40.527363,-3.4233029999999998,0.9470000000000001,92.2,0.7959999999999999,0.11,0.094
60,82.33,93.6,40.527763,-3.423628,623.5,4,5,329.1,4.218999999999999,1,0.024,0.016,-0.01,-0.0,0.005,0.002,-1.564,-0.048,-0.363,0.10099999999999999,-0.027999999999999997,3.569,2,-1.0,-1.0,0,93.6,90.0,1,primary,2,1,40.527557,-3.4234739999999997,1.165,93.6,0.795,0.11,0.095
61,83.37,94.0,40.527966,-3.423779,623.4,4,5,331.5,4.922,1,0.001,-0.013000000000000001,-0.013000000000000001,-0.024,-0.024,-0.015,-1.5530000000000002,-0.057,-0.382,0.162,0.037000000000000005,3.61,2,-1.0,-1.0,0,94.0,90.0,1,primary,2,1,40.527557,-3.4234739999999997,1.165,93.6,0.7929999999999999,0.11,0.09699999999999999
62,84.38,94.1,40.528175,-3.4239330000000003,622.9,4,5,332.6,3.516,1,-0.042,-0.052000000000000005,-0.011000000000000001,0.009000000000000001,-0.065,-0.003,-1.5419999999999998,-0.033,-0.373,0.384,0.031,3.511,2,-1.0,-1.0,0,94.1,90.0,1,primary,2,1,40.527966,-3.4237800000000003,1.4780000000000002,94.1,0.7929999999999999,0.11,0.09699999999999999
63,85.4,94.4,40.528385,-3.4240769999999996,622.6,4,5,333.3,1.758,1,-0.021,-0.023,0.003,-0.011000000000000001,-0.038,0.009000000000000001,-1.537,-0.013000000000000001,-0.35600000000000004,0.253,0.004,3.52,2,-1.0,-1.0,0,94.4,90.0,1,primary,2,1,40.527966,-3.4237800000000003,1.4780000000000002,94.1,0.7879999999999999,0.11,0.102
64,86.33,94.4,40.528595,-3.424214,622.1,3,5,333.3,0.703,1,-0.073,0.004,-0.046,-0.027999999999999997,0.002,-0.013999999999999999,-1.52,-0.011000000000000001,-0.341,0.081,-0.027999999999999997,3.614,2,-1.0,-1.0,0,94.4,90.0,1,primary,2,1,40.528385,-3.4240769999999996,1.4040000000000001,94.4,0.787,0.11,0.102
65,87.35,92.4,40.528805,-3.424357,621.8,4,5,333.3,0.0,1,-0.064,-0.0,-0.047,-0.043,-0.001,-0.033,-1.51,-0.012,-0.318,-0.04,-0.02,3.605,2,-1.0,-1.0,0,92.4,90.0,1,primary,2,1,40.528385,-3.4240769999999996,1.4040000000000001,94.4,0.787,0.105,0.107
66,88.42,91.3,40.529007,-3.42449,621.1,3,5,332.9,0.35200000000000004,1,0.051,-0.042,-0.006,0.032,-0.032,0.011000000000000001,-1.495,-0.013000000000000001,-0.287,-0.061,-0.006,3.6189999999999998,2,-1.0,-1.0,0,91.3,90.0,1,primary,2,1,40.528805,-3.424357,1.002,91.3,0.795,0.096,0.11
67,89.34,90.7,40.529198,-3.4246209999999997,620.6,3,5,332.2,1.055,1,-0.059000000000000004,-0.045,-0.027999999999999997,-0.028999999999999998,-0.017,-0.012,-1.492,-0.003,-0.258,-0.222,-0.036000000000000004,3.694,2,-1.0,-1.0,0,90.7,90.0,1,primary,2,1,40.529198,-3.4246220000000003,0.846,89.1,0.802,0.086,0.11199999999999999
68,90.34,89.1,40.529396000000006,-3.424757,620.0,3,5,331.5,1.406,1,0.051,0.024,-0.006,0.04,0.002,0.008,-1.49,-0.011000000000000001,-0.22699999999999998,-0.434,-0.032,3.597,2,-1.0,-1.0,0,89.1,90.0,1,primary,2,1,40.529198,-3.4246220000000003,0.846,89.1,0.8109999999999999,0.077,0.11199999999999999
69,91.4,87.9,40.529598,-3.4249089999999995,619.7,4,5,331.2,1.055,1,0.004,0.022000000000000002,-0.012,0.033,0.006,-0.001,-1.484,-0.015,-0.20199999999999999,-0.5760000000000001,0.018000000000000002,3.573,2,-1.0,-1.0,2,87.9,90.0,1,primary,2,1,40.529396000000006,-3.424757,0.882,87.9,0.8190000000000001,0.069,0.11199999999999999
70,92.34,87.4,40.529793,-3.4250529999999997,619.4,4,5,330.5,1.055,1,-0.059000000000000004,0.016,0.013999999999999999,-0.032,0.017,0.017,-1.492,-0.005,-0.177,-0.505,0.040999999999999995,3.677,2,-1.0,-1.0,1,87.4,90.0,1,primary,2,1,40.529598,-3.4249089999999995,0.621,87.9,0.8190000000000001,0.069,0.11199999999999999
71,93.34,86.6,40.529968,-3.425184,619.1,4,5,329.4,1.758,1,0.02,-0.035,0.006,0.013000000000000001,-0.02,0.008,-1.4980000000000002,0.001,-0.147,-0.162,0.09300000000000001,3.627,2,-1.0,-1.0,0,86.6,90.0,1,primary,2,1,40.529793,-3.4250529999999997,0.8109999999999999,87.4,0.8190000000000001,0.069,0.11199999999999999
72,94.38,85.8,40.530148,-3.4253339999999994,618.1,4,5,328.4,2.109,1,-0.023,-0.03,0.027999999999999997,-0.034,-0.02,0.009000000000000001,-1.507,0.017,-0.099,0.0,0.038,3.73,2,-1.0,-1.0,0,85.8,90.0,1,primary,2,1,40.529968,-3.425185,1.041,85.8,0.8190000000000001,0.069,0.11199999999999999
73,95.34,86.1,40.530327,-3.425489,617.9,4,5,326.2,3.1639999999999997,1,-0.096,-0.011000000000000001,-0.01,-0.065,-0.005,-0.008,-1.51,0.02,-0.057999999999999996,-0.051,0.005,3.6830000000000003,2,-1.0,-1.0,0,86.1,90.0,1,primary,2,1,40.529968,-3.425185,1.041,85.8,0.821,0.069,0.11
74,96.35,84.3,40.530506,-3.4256519999999995,618.0,4,5,324.1,4.218999999999999,1,-0.098,0.023,-0.011000000000000001,-0.073,0.006999999999999999,-0.009000000000000001,-1.5119999999999998,0.012,-0.015,-0.20199999999999999,-0.001,3.68,2,-1.0,-1.0,0,84.3,90.0,1,primary,2,1,40.530327,-3.425489,1.6880000000000002,84.3,0.8190000000000001,0.069,0.11199999999999999
75,97.34,83.4,40.530666,-3.425817,617.6,4,5,322.0,4.218999999999999,1,-0.046,0.022000000000000002,0.018000000000000002,-0.045,0.024,-0.004,-1.52,0.012,0.019,-0.313,0.02,3.6860000000000004,2,-1.0,-1.0,0,83.4,90.0,1,primary,2,1,40.530327,-3.425489,1.6880000000000002,84.3,0.8190000000000001,0.069,0.11199999999999999
76,98.33,83.8,40.530819,-3.425987,617.3,4,5,320.6,3.516,1,-0.002,0.046,0.015,-0.026000000000000002,0.037000000000000005,-0.005,-1.527,-0.002,0.046,-0.505,-0.005,3.674,2,-1.0,-1.0,0,83.8,90.0,1,primary,2,1,40.530666,-3.425817,2.162,84.2,0.8190000000000001,0.069,0.11199999999999999
77,99.37,84.2,40.530972,-3.426165,616.5,4,5,319.6,2.461,1,0.008,0.008,0.015,-0.006,0.023,-0.005,-1.5330000000000001,-0.018000000000000002,0.059000000000000004,-0.515,0.043,3.7,2,-1.0,-1.0,0,84.2,90.0,1,primary,2,1,40.530666,-3.425817,2.162,84.2,0.821,0.069,0.11
78,100.34,84.5,40.531132,-3.426346,616.0,4,5,318.5,2.109,1,-0.049,-0.001,-0.006,-0.016,-0.004,-0.003,-1.536,0.005,0.081,-0.364,0.063,3.708,2,-1.0,-1.0,0,84.2,90.0,1,primary,2,1,40.530666,-3.425817,2.162,84.2,0.821,0.069,0.11
79,101.36,84.2,40.531284,-3.426536,615.8,4,5,316.8,2.812,1,-0.022000000000000002,0.003,0.011000000000000001,-0.017,0.013000000000000001,0.009000000000000001,-1.5290000000000001,0.002,0.10800000000000001,-0.28300000000000003,0.024,3.694,2,-1.0,-1.0,0,84.2,90.0,1,primary,2,1,40.531132,-3.426346,1.112,84.2,0.821,0.069,0.11
80,102.34,84.2,40.531441,-3.426717,615.5,4,5,315.0,3.516,1,-0.07,0.019,0.064,-0.12,0.025,0.013999999999999999,-1.554,-0.002,0.127,-0.23199999999999998,-0.009000000000000001,3.6830000000000003,2,-1.0,-1.0,0,84.2,90.0,1,primary,2,1,40.531132,-3.426346,1.112,84.2,0.821,0.069,0.11
81,103.35,84.7,40.53159,-3.426921,615.4,4,5,313.9,2.812,1,-0.03,0.017,-0.0,-0.018000000000000002,0.006999999999999999,0.0,-1.564,-0.003,0.14300000000000002,-0.20199999999999999,0.032,3.645,2,-1.0,-1.0,0,84.7,90.0,1,primary,2,1,40.531441,-3.426717,1.359,84.7,0.818,0.069,0.11199999999999999
82,104.39,85.3,40.531738,-3.4271309999999997,615.4,4,5,312.5,2.461,1,0.008,-0.003,0.019,-0.019,0.006999999999999999,0.012,-1.5730000000000002,-0.013999999999999999,0.158,-0.182,0.006999999999999999,3.6289999999999996,2,-1.0,-1.0,0,85.3,90.0,1,primary,2,1,40.531441,-3.426717,1.359,84.7,0.821,0.069,0.11
83,105.34,85.2,40.531887,-3.427347,615.7,4,5,311.1,2.812,1,-0.038,0.003,-0.008,-0.034,-0.011000000000000001,-0.001,-1.575,-0.01,0.174,-0.10099999999999999,0.015,3.659,2,-1.0,-1.0,0,85.2,90.0,1,primary,2,1,40.531738,-3.4271309999999997,1.2570000000000001,85.2,0.818,0.069,0.11199999999999999
84,106.34,85.8,40.532028000000004,-3.4275620000000004,616.2,4,5,309.4,3.1639999999999997,1,-0.051,-0.024,-0.024,-0.039,-0.015,-0.013999999999999999,-1.588,-0.005,0.19399999999999998,-0.111,-0.006,3.6660000000000004,2,-1.0,-1.0,0,85.8,90.0,1,primary,2,1,40.531738,-3.4271309999999997,1.2570000000000001,85.2,0.825,0.063,0.11199999999999999
85,107.36,86.0,40.532162,-3.4277830000000002,616.6,4,5,307.3,3.867,1,-0.023,0.017,-0.019,-0.037000000000000005,0.013999999999999999,-0.025,-1.595,-0.006,0.209,-0.273,0.001,3.622,2,-1.0,-1.0,0,86.0,90.0,1,primary,2,1,40.532028000000004,-3.4275620000000004,1.4609999999999999,86.0,0.838,0.052000000000000005,0.11
86,108.35,86.7,40.532288,-3.4280160000000004,617.2,4,5,306.6,2.812,1,-0.043,0.006999999999999999,-0.031,-0.027000000000000003,0.011000000000000001,-0.015,-1.5930000000000002,-0.013999999999999999,0.218,-0.33299999999999996,0.011000000000000001,3.637,2,-1.0,-1.0,0,86.7,90.0,1,primary,2,1,40.532028000000004,-3.4275620000000004,1.4609999999999999,86.0,0.851,0.040999999999999995,0.10800000000000001
87,109.38,86.0,40.532413,-3.4282449999999995,618.3,4,5,304.8,2.461,1,-0.043,-0.026000000000000002,-0.031,-0.019,-0.011000000000000001,-0.012,-1.5930000000000002,-0.006,0.23199999999999998,-0.273,0.028999999999999998,3.6519999999999997,2,-1.0,-1.0,0,86.0,90.0,1,primary,2,1,40.532288,-3.4280160000000004,1.7369999999999999,86.0,0.863,0.031,0.106
88,110.39,85.5,40.532536,-3.4284779999999997,619.1,4,5,303.4,3.1639999999999997,1,-0.018000000000000002,-0.005,0.002,-0.02,0.003,-0.003,-1.591,-0.002,0.247,-0.212,0.039,3.653,2,-1.0,-1.0,0,85.5,90.0,1,primary,2,1,40.532288,-3.4280160000000004,1.7369999999999999,86.0,0.8759999999999999,0.02,0.10400000000000001
89,111.35,85.9,40.53265,-3.428717,620.5,4,5,301.3,3.516,1,0.026000000000000002,0.006999999999999999,-0.011000000000000001,-0.0,0.001,0.004,-1.588,-0.005,0.263,-0.263,0.013000000000000001,3.568,2,-1.0,-1.0,0,85.5,90.0,1,primary,2,1,40.532536,-3.4284779999999997,1.426,85.9,0.887,0.012,0.102
90,112.35,85.8,40.532764,-3.428956,621.5,4,5,299.5,3.867,1,-0.002,0.002,0.027000000000000003,-0.008,-0.001,0.02,-1.589,-0.009000000000000001,0.27899999999999997,-0.34299999999999997,0.001,3.58,2,-1.0,-1.0,0,85.8,90.0,1,primary,2,1,40.532536,-3.4284779999999997,1.426,85.9,0.888,0.012,0.1
91,113.36,85.4,40.532864000000004,-3.429211,622.6,4,5,298.5,2.812,1,-0.006999999999999999,0.019,0.028999999999999998,-0.002,0.013999999999999999,0.02,-1.5919999999999999,-0.017,0.28600000000000003,-0.40399999999999997,0.034,3.593,2,-1.0,-1.0,0,85.4,90.0,1,primary,2,1,40.532764,-3.428957,2.274,85.9,0.89,0.012,0.098
92,114.35,85.9,40.532973999999996,-3.42947,623.7,4,5,297.4,2.109,1,-0.017,-0.01,0.011000000000000001,-0.018000000000000002,-0.006999999999999999,-0.001,-1.597,-0.015,0.295,-0.424,0.031,3.593,2,-1.0,-1.0,0,85.9,90.0,1,primary,2,1,40.532764,-3.428957,2.274,85.9,0.892,0.012,0.096
93,115.37,85.9,40.53307,-3.429725,624.8,4,5,295.7,2.812,1,-0.038,-0.006999999999999999,-0.004,-0.011000000000000001,0.006,0.008,-1.5919999999999999,-0.006,0.305,-0.465,0.02,3.592,2,-1.0,-1.0,0,85.9,90.0,1,primary,2,1,40.532764,-3.428957,2.274,85.9,0.894,0.012,0.094
94,116.35,85.7,40.533157,-3.4299809999999997,626.0,4,5,293.9,3.516,1,0.002,-0.005,0.011000000000000001,0.002,-0.009000000000000001,0.009000000000000001,-1.6,-0.015,0.31,-0.535,0.069,3.6319999999999997,2,-1.0,-1.0,0,85.7,90.0,1,primary,2,1,40.53307,-3.429725,2.3890000000000002,85.8,0.895,0.012,0.09300000000000001
95,117.39,85.8,40.533241,-3.430244,627.0,4,5,292.5,3.1639999999999997,1,-0.008,0.011000000000000001,0.01,-0.015,0.02,-0.002,-1.594,0.0,0.313,-0.556,0.065,3.5839999999999996,2,-1.0,-1.0,0,85.8,90.0,1,primary,2,1,40.53307,-3.429725,2.3890000000000002,85.8,0.887,0.021,0.091
96,118.35,85.8,40.533318,-3.4304989999999997,628.4,4,5,291.4,2.461,1,-0.011000000000000001,0.005,-0.009000000000000001,0.002,0.004,-0.001,-1.605,-0.012,0.316,-0.455,0.036000000000000004,3.609,2,-1.0,-1.0,0,85.8,90.0,1,primary,2,1,40.53307,-3.429725,2.3890000000000002,85.8,0.889,0.022000000000000002,0.08900000000000001
97,119.34,85.9,40.533394,-3.430758,629.7,4,5,290.0,2.461,1,0.005,0.0,-0.006999999999999999,-0.012,0.006,-0.009000000000000001,-1.5919999999999999,-0.005,0.321,-0.414,0.064,3.58,2,-1.0,-1.0,0,85.9,90.0,1,primary,2,1,40.53307,-3.429725,2.3890000000000002,85.8,0.889,0.022000000000000002,0.08900000000000001
98,120.35,85.9,40.533459,-3.431022,630.7,4,5,288.3,3.1639999999999997,1,0.009000000000000001,-0.023,0.049,-0.008,-0.016,0.015,-1.591,0.003,0.33,-0.32299999999999995,0.043,3.605,2,-1.0,-1.0,0,85.9,90.0,1,primary,2,1,40.533318,-3.4304989999999997,4.202,85.2,0.89,0.022000000000000002,0.08800000000000001
99,121.34,84.8,40.53352,-3.431283,631.8,4,5,286.9,3.1639999999999997,1,-0.011000000000000001,0.003,-0.02,-0.006,0.005,-0.003,-1.597,-0.003,0.337,-0.40399999999999997,0.012,3.597,2,-1.0,-1.0,0,84.8,90.0,1,primary,2,1,40.533318,-3.4304989999999997,4.202,85.2,0.899,0.022000000000000002,0.079
100,122.4,85.2,40.533577,-3.431553,633.3,4,5,286.2,2.109,1,0.009000000000000001,0.013999999999999999,0.004,-0.015,0.012,0.01,-1.597,-0.013999999999999999,0.336,-0.495,0.044000000000000004,3.6,2,-1.0,-1.0,0,85.2,90.0,1,primary,2,1,40.533318,-3.4304989999999997,4.202,85.2,0.9009999999999999,0.021,0.078
101,123.36,84.2,40.533627,-3.4318190000000004,634.2,4,5,284.4,2.461,1,-0.044000000000000004,-0.018000000000000002,-0.026000000000000002,-0.03,-0.02,-0.009000000000000001,-1.599,-0.013999999999999999,0.335,-0.384,0.07,3.5860000000000003,2,-1.0,-1.0,0,84.2,90.0,1,primary,2,1,40.533318,-3.4304989999999997,4.202,85.2,0.92,0.021,0.059000000000000004
102,124.4,86.0,40.53368,-3.4321040000000003,635.4,4,5,282.0,4.218999999999999,1,0.023,-0.015,0.002,0.012,-0.022000000000000002,-0.002,-1.604,-0.013000000000000001,0.34299999999999997,-0.33299999999999996,0.044000000000000004,3.56,2,-1.0,-1.0,0,86.0,90.0,1,primary,2,1,40.533318,-3.4304989999999997,4.202,85.2,0.93,0.021,0.049
103,125.35,85.8,40.533726,-3.432374,636.3,4,5,280.5,3.867,1,-0.047,-0.023,-0.013999999999999999,-0.03,-0.013999999999999999,-0.016,-1.609,-0.006,0.34700000000000003,-0.212,0.033,3.727,2,-1.0,-1.0,0,85.8,90.0,1,primary,2,1,40.533627,-3.4318199999999996,3.114,86.3,0.9309999999999999,0.021,0.048
104,126.34,86.3,40.533764,-3.432663,637.6,6,5,279.1,2.812,1,-0.016,-0.019,-0.013999999999999999,0.006,-0.021,-0.01,-1.6019999999999999,-0.011000000000000001,0.34700000000000003,-0.192,0.044000000000000004,3.727,2,-1.0,-1.0,0,86.3,90.0,1,primary,2,1,40.533627,-3.4318199999999996,3.114,86.3,0.934,0.021,0.045
105,127.33,86.1,40.533794,-3.4329379999999996,638.7,6,5,277.7,2.812,1,-0.05,-0.024,-0.034,-0.037000000000000005,-0.028999999999999998,-0.006999999999999999,-1.6059999999999999,0.001,0.349,-0.162,0.042,3.717,2,-1.0,-1.0,0,86.1,90.0,1,primary,2,1,40.533627,-3.4318199999999996,3.114,86.3,0.9359999999999999,0.021,0.043
106,128.35,86.2,40.533821,-3.4332190000000002,639.9,4,5,275.6,3.516,1,-0.004,0.027000000000000003,-0.01,0.017,0.011000000000000001,-0.006999999999999999,-1.598,0.008,0.35700000000000004,-0.253,0.031,3.6710000000000003,2,-1.0,-1.0,0,86.2,90.0,1,primary,2,1,40.533627,-3.4318199999999996,3.114,86.3,0.937,0.021,0.042
107,129.36,84.4,40.533836,-3.433498,640.8,4,5,274.9,2.812,1,0.034,0.024,-0.02,0.013000000000000001,0.03,-0.009000000000000001,-1.6019999999999999,0.009000000000000001,0.353,-0.374,0.045,3.6889999999999996,2,-1.0,-1.0,0,84.4,90.0,1,primary,2,1,40.533794,-3.4329379999999996,4.828,85.1,0.94,0.021,0.039
108,130.36,86.2,40.533848,-3.4337800000000005,641.9,4,5,273.5,2.109,1,0.035,0.011000000000000001,-0.012,0.002,0.011000000000000001,-0.009000000000000001,-1.6030000000000002,0.006,0.34700000000000003,-0.434,0.04,3.7060000000000004,2,-1.0,-1.0,0,86.2,90.0,1,primary,2,1,40.533794,-3.4329379999999996,4.828,85.1,0.941,0.021,0.038
109,131.38,85.8,40.533859,-3.4340550000000003,643.0,4,5,272.1,2.812,1,-0.039,0.004,-0.02,-0.008,0.013000000000000001,-0.003,-1.578,0.001,0.33399999999999996,-0.444,0.036000000000000004,3.7089999999999996,2,-1.0,-1.0,0,85.8,90.0,1,primary,2,1,40.533794,-3.4329379999999996,4.828,85.1,0.951,0.021,0.027999999999999997
110,132.35,85.1,40.533867,-3.434331,644.0,6,5,271.8,1.758,1,0.005,-0.011000000000000001,0.03,0.018000000000000002,-0.012,0.012,-1.5759999999999998,-0.006,0.32,-0.384,0.048,3.668,2,-1.0,-1.0,0,85.1,90.0,1,primary,2,1,40.533794,-3.4329379999999996,4.828,85.1,0.951,0.021,0.027999999999999997
111,133.34,84.3,40.533878,-3.434596,645.3,6,5,271.4,0.703,1,0.012,-0.012,-0.003,0.004,-0.006,0.012,-1.5719999999999998,0.005,0.31,-0.354,0.037000000000000005,3.636,2,-1.0,-1.0,0,84.3,90.0,1,primary,2,1,40.533867,-3.434332,0.753,85.1,0.951,0.021,0.027999999999999997
112,134.33,84.5,40.533875,-3.4348870000000002,646.6,6,5,270.4,1.406,1,-0.008,0.025,0.03,-0.002,0.02,0.016,-1.578,0.006,0.294,-0.313,0.012,3.612,2,-1.0,-1.0,0,84.5,90.0,1,primary,2,1,40.533867,-3.434332,0.753,85.1,0.951,0.021,0.027999999999999997
113,135.39,84.2,40.533878,-3.4351599999999998,647.5,6,5,269.6,1.758,1,0.01,0.015,-0.002,-0.002,0.019,0.006,-1.594,0.008,0.273,-0.222,0.03,3.55,2,-1.0,-1.0,0,84.2,90.0,1,primary,2,1,40.533867,-3.434332,0.753,85.1,0.955,0.021,0.024
114,136.34,83.9,40.533878,-3.4354339999999994,648.5,6,5,269.3,1.055,1,0.008,0.018000000000000002,0.006,-0.011000000000000001,0.018000000000000002,-0.006,-1.5930000000000002,0.006,0.25,-0.162,0.071,3.535,2,-1.0,-1.0,0,83.9,90.0,1,primary,2,1,40.533867,-3.434332,0.753,85.1,0.9570000000000001,0.021,0.022000000000000002
115,137.38,83.7,40.533875,-3.43571,649.9,6,5,270.0,0.703,1,-0.017,0.034,-0.0,-0.011000000000000001,0.025,0.005,-1.584,0.01,0.226,0.051,0.073,3.533,2,-1.0,-1.0,0,83.7,90.0,1,primary,2,1,40.533867,-3.434332,0.753,85.1,0.9570000000000001,0.021,0.022000000000000002
116,138.4,83.4,40.533878,-3.435975,650.7,6,5,270.0,0.703,1,-0.042,-0.004,-0.006,-0.022000000000000002,-0.006,0.003,-1.585,0.04,0.20800000000000002,0.354,0.107,3.469,2,-1.0,-1.0,0,83.4,90.0,1,primary,2,1,40.533867,-3.434332,0.753,85.1,0.9570000000000001,0.021,0.022000000000000002
117,139.33,82.5,40.533878,-3.436243,652.3,6,5,268.9,1.055,1,-0.027999999999999997,0.024,-0.015,-0.004,-0.001,0.005,-1.598,0.04,0.204,0.364,0.033,3.258,2,-1.0,-1.0,0,83.4,90.0,1,primary,2,1,40.533867,-3.434332,0.753,85.1,0.9590000000000001,0.021,0.02
118,140.34,82.5,40.533871000000005,-3.4365089999999996,653.5,6,5,270.0,1.055,1,-0.04,0.001,0.005,-0.017,0.004,0.005,-1.5930000000000002,0.034,0.193,0.313,-0.012,3.295,2,-1.0,-1.0,0,82.5,90.0,1,primary,2,1,40.533867,-3.434332,0.753,85.1,0.9590000000000001,0.021,0.02
119,141.37,82.9,40.533875,-3.436784,654.4,6,5,269.3,0.703,1,-0.051,-0.013999999999999999,0.019,-0.026000000000000002,-0.001,0.01,-1.6059999999999999,0.023,0.183,0.212,0.0,3.29,2,-1.0,-1.0,0,82.5,-1.0,-1,-,-1,-1,40.533878,-3.434596,16.088,88.2,0.963,0.021,0.016
120,142.33,83.3,40.533875,-3.4370550000000004,655.7,6,5,269.3,0.703,1,-0.033,-0.027000000000000003,0.013000000000000001,-0.013000000000000001,-0.006999999999999999,0.004,-1.6059999999999999,0.009000000000000001,0.16899999999999998,0.152,-0.003,3.273,2,-1.0,-1.0,0,83.3,-1.0,-1,-,-1,-1,40.533878,-3.434596,16.088,88.2,0.963,0.021,0.016
121,143.39,84.1,40.533875,-3.437333,656.8,6,5,269.3,0.0,1,0.018000000000000002,-0.017,0.005,0.01,-0.016,0.006,-1.614,0.005,0.156,0.152,0.02,3.2569999999999997,2,-1.0,-1.0,0,84.1,-1.0,-1,-,-1,-1,40.533878,-3.434596,16.088,88.2,0.965,0.021,0.013999999999999999
122,144.34,84.9,40.533878,-3.437612,658.2,6,5,269.3,0.0,1,-0.021,-0.018000000000000002,0.012,-0.009000000000000001,-0.015,-0.004,-1.615,0.008,0.146,0.212,0.002,3.26,2,-1.0,-1.0,0,84.9,-1.0,-1,-,-1,-1,40.533878,-3.434596,16.088,88.2,0.9690000000000001,0.021,0.01
123,145.36,84.9,40.533882,-3.437882,659.4,6,5,270.4,1.055,1,0.022000000000000002,-0.019,0.011000000000000001,0.012,-0.023,0.015,-1.6130000000000002,0.016,0.142,0.222,0.018000000000000002,3.2119999999999997,2,-1.0,-1.0,0,84.9,-1.0,-1,-,-1,-1,40.533878,-3.434596,16.088,88.2,0.971,0.021,0.008
124,146.34,85.2,40.533867,-3.438163,660.7,6,5,268.9,1.406,1,-0.027999999999999997,0.012,0.012,0.004,0.006,0.013000000000000001,-1.61,0.027000000000000003,0.14,0.182,-0.005,3.238,2,-1.0,-1.0,0,85.2,-1.0,-1,-,-1,-1,40.533878,-3.434596,16.088,88.2,0.973,0.021,0.006
125,147.39,86.4,40.533863000000004,-3.438447,661.7,6,5,269.6,0.703,1,-0.033,0.013000000000000001,0.004,-0.011000000000000001,0.018000000000000002,-0.001,-1.6159999999999999,0.018000000000000002,0.134,0.051,0.004,3.252,2,-1.0,-1.0,0,86.4,-1.0,-1,-,-1,-1,40.533878,-3.434596,16.088,88.2,0.973,0.021,0.006
126,148.37,87.6,40.533854999999996,-3.4387309999999998,662.7,6,5,270.0,1.055,1,-0.055,-0.013999999999999999,-0.006,-0.034,-0.008,-0.006,-1.615,0.013000000000000001,0.125,0.081,0.028999999999999998,3.23,2,-1.0,-1.0,0,87.6,-1.0,-1,-,-1,-1,40.533878,-3.434596,16.088,88.2,0.975,0.021,0.004
127,149.35,88.2,40.533852,-3.439019,663.4,6,5,270.4,0.703,1,-0.003,-0.017,0.008,0.002,-0.027000000000000003,0.017,-1.598,0.012,0.122,0.28300000000000003,0.032,3.345,2,-1.0,-1.0,0,88.2,-1.0,-1,-,-1,-1,40.533878,-3.434596,16.088,88.2,0.977,0.021,0.002
128,150.41,89.2,40.533852,-3.439317,665.0,6,5,269.6,0.703,1,0.033,-0.024,0.027000000000000003,-0.015,-0.006,-0.002,-1.6,0.021,0.125,0.263,0.027999999999999997,3.446,2,-1.0,-1.0,0,89.2,90.0,1,primary,2,1,40.533852,-3.439317,0.975,89.7,0.9790000000000001,0.021,0.0
129,151.34,89.7,40.533854999999996,-3.4396190000000004,665.9,6,5,268.9,1.406,1,0.028999999999999998,0.022000000000000002,-0.01,0.04,0.019,-0.01,-1.6119999999999999,0.028999999999999998,0.126,0.162,-0.012,3.452,2,-1.0,-1.0,0,89.7,90.0,1,primary,2,1,40.533852,-3.439317,0.975,89.7,0.981,0.019,0.0
130,152.37,90.0,40.533840000000005,-3.439915,666.9,6,5,268.9,0.703,1,-0.027000000000000003,0.008,-0.013999999999999999,0.004,0.013999999999999999,-0.018000000000000002,-1.605,0.015,0.121,0.04,-0.003,3.478,2,-1.0,-1.0,0,90.0,90.0,1,primary,2,1,40.533854999999996,-3.4396190000000004,2.051,91.8,0.987,0.011000000000000001,0.002
131,153.34,91.8,40.533840000000005,-3.4402150000000002,667.6,6,5,269.6,0.703,1,0.017,-0.008,0.02,0.016,-0.003,0.011000000000000001,-1.599,0.016,0.115,0.04,-0.009000000000000001,3.48,2,-1.0,-1.0,0,91.8,90.0,1,primary,2,1,40.533854999999996,-3.4396190000000004,2.051,91.8,0.985,0.011000000000000001,0.004
132,154.36,92.9,40.533840000000005,-3.4405080000000003,668.1,6,5,269.3,0.35200000000000004,1,0.01,-0.006,-0.0,0.012,0.006,0.001,-1.594,0.015,0.115,0.02,-0.02,3.4539999999999997,2,-1.0,-1.0,0,92.9,90.0,1,primary,2,1,40.533854999999996,-3.4396190000000004,2.051,91.8,0.983,0.011000000000000001,0.006
133,155.38,94.1,40.533829,-3.440814,668.4,6,5,269.3,0.35200000000000004,1,-0.032,0.013999999999999999,0.054000000000000006,0.01,0.025,0.021,-1.6,0.02,0.111,0.0,-0.016,3.4789999999999996,2,-1.0,-1.0,0,94.1,90.0,1,primary,2,1,40.533840000000005,-3.4405080000000003,1.4809999999999999,94.1,0.981,0.011000000000000001,0.008
134,156.36,96.3,40.533825,-3.441133,668.8,6,5,269.6,0.35200000000000004,1,-0.031,0.001,0.011000000000000001,-0.006,-0.006999999999999999,0.008,-1.59,0.02,0.11,-0.051,-0.002,3.5010000000000003,2,-1.0,-1.0,0,96.3,90.0,1,primary,2,1,40.533840000000005,-3.4405080000000003,1.4809999999999999,94.1,0.9790000000000001,0.011000000000000001,0.01
135,157.34,97.6,40.533821,-3.4414519999999995,668.9,6,5,269.3,0.35200000000000004,1,-0.018000000000000002,0.008,0.031,-0.021,0.001,0.003,-1.587,0.009000000000000001,0.106,-0.091,-0.006999999999999999,3.5660000000000003,2,-1.0,-1.0,0,97.6,90.0,1,primary,2,1,40.533825,-3.4411339999999995,2.08,99.6,0.977,0.011000000000000001,0.012
136,158.34,99.6,40.533825,-3.441782,669.2,6,5,269.6,0.35200000000000004,1,0.071,-0.003,-0.035,0.027999999999999997,-0.004,-0.019,-1.581,0.021,0.105,-0.141,-0.048,3.6010000000000004,2,-1.0,-1.0,0,99.6,90.0,1,primary,2,1,40.533825,-3.4411339999999995,2.08,99.6,0.968,0.011000000000000001,0.022000000000000002
137,159.34,98.7,40.533829,-3.44211,669.1,6,5,269.6,0.35200000000000004,1,-0.002,-0.015,-0.032,0.01,-0.01,-0.034,-1.5319999999999998,0.018000000000000002,0.106,-0.162,-0.011000000000000001,3.76,2,-1.0,-1.0,0,98.7,90.0,1,primary,2,1,40.533829,-3.44211,0.634,98.7,0.966,0.01,0.024
138,160.34,97.1,40.533821,-3.4424360000000003,668.9,6,5,268.9,0.703,1,-0.043,0.039,-0.016,-0.018000000000000002,0.025,-0.013999999999999999,-1.5030000000000001,0.021,0.10300000000000001,-0.293,0.0,3.781,2,-1.0,-1.0,0,97.1,90.0,1,primary,2,1,40.533829,-3.44211,0.634,98.7,0.9640000000000001,0.01,0.026000000000000002
139,161.33,95.4,40.533817,-3.442743,668.2,6,5,269.3,0.35200000000000004,1,-0.035,-0.016,0.006999999999999999,-0.0,-0.008,0.01,-1.4980000000000002,0.011000000000000001,0.095,-0.354,0.015,3.786,2,-1.0,-1.0,0,95.4,90.0,1,primary,2,1,40.533821,-3.4424370000000004,0.594,97.1,0.9620000000000001,0.01,0.027999999999999997
140,162.34,94.7,40.533813,-3.443058,667.6,6,5,269.6,0.703,1,-0.012,0.005,-0.002,-0.018000000000000002,0.003,-0.01,-1.506,0.021,0.09300000000000001,-0.364,0.012,3.779,2,-1.0,-1.0,0,94.7,90.0,1,primary,2,1,40.533817,-3.442743,0.8290000000000001,94.7,0.96,0.01,0.03
141,163.34,94.0,40.533806,-3.443367,667.2,6,5,269.3,0.35200000000000004,1,-0.009000000000000001,0.018000000000000002,-0.013000000000000001,-0.027999999999999997,0.013000000000000001,-0.015,-1.506,0.027999999999999997,0.094,-0.384,-0.027999999999999997,3.7689999999999997,2,-1.0,-1.0,0,94.0,90.0,1,primary,2,1,40.533813,-3.443059,0.861,94.0,0.9590000000000001,0.01,0.031
142,164.37,93.2,40.533802,-3.443679,666.6,6,5,269.6,0.35200000000000004,1,-0.043,0.026000000000000002,-0.027000000000000003,-0.018000000000000002,0.016,-0.016,-1.514,0.026000000000000002,0.09300000000000001,-0.384,-0.011000000000000001,3.778,2,-1.0,-1.0,0,93.2,90.0,1,primary,2,1,40.533806,-3.443367,1.1079999999999999,93.2,0.956,0.01,0.034
143,165.36,92.4,40.533806,-3.4439839999999995,666.1,6,5,270.0,0.703,1,-0.033,-0.003,0.019,-0.004,0.006999999999999999,0.015,-1.516,0.008,0.091,-0.293,0.001,3.772,2,-1.0,-1.0,0,92.4,90.0,1,primary,2,1,40.533806,-3.4439839999999995,0.653,92.4,0.955,0.01,0.035
144,166.35,92.0,40.533806,-3.444283,665.5,6,5,270.0,0.35200000000000004,1,-0.017,0.006,-0.001,-0.003,0.005,-0.011000000000000001,-1.527,0.022000000000000002,0.09,-0.182,0.034,3.758,2,-1.0,-1.0,0,92.0,90.0,1,primary,2,1,40.533806,-3.4439839999999995,0.653,92.4,0.953,0.01,0.037000000000000005
145,167.4,91.1,40.533802,-3.444573,665.2,6,5,269.3,0.703,1,0.004,-0.002,-0.005,-0.028999999999999998,-0.004,-0.005,-1.525,0.018000000000000002,0.09,-0.23199999999999998,0.047,3.662,2,-1.0,-1.0,0,91.1,90.0,1,primary,2,1,40.533802,-3.444573,0.45,91.1,0.951,0.01,0.039
146,168.35,91.6,40.533798,-3.44487,664.9,6,5,269.6,0.35200000000000004,1,-0.036000000000000004,0.015,-0.006999999999999999,-0.011000000000000001,0.002,-0.006999999999999999,-1.528,0.025,0.092,-0.182,0.026000000000000002,3.636,2,-1.0,-1.0,0,91.6,90.0,1,primary,2,1,40.533802,-3.444573,0.45,91.1,0.9490000000000001,0.01,0.040999999999999995
147,169.41,91.3,40.533791,-3.4451660000000004,664.4,6,5,268.9,0.703,1,-0.013000000000000001,-0.002,-0.004,-0.021,-0.001,0.001,-1.5330000000000001,0.017,0.095,-0.182,0.003,3.634,2,-1.0,-1.0,0,91.3,90.0,1,primary,2,1,40.533798,-3.44487,1.835,91.2,0.946,0.01,0.044000000000000004
148,170.35,91.2,40.533791,-3.4454580000000004,663.9,6,5,270.7,1.758,1,-0.03,-0.006999999999999999,0.006999999999999999,-0.034,-0.004,0.004,-1.526,0.023,0.095,-0.313,0.009000000000000001,3.6439999999999997,2,-1.0,-1.0,0,91.3,90.0,1,primary,2,1,40.533798,-3.44487,1.835,91.2,0.9440000000000001,0.01,0.046
149,171.38,90.9,40.533794,-3.445761,663.6,6,5,270.0,1.055,1,-0.008,0.001,-0.004,0.01,-0.0,0.001,-1.53,0.013000000000000001,0.09300000000000001,-0.354,0.006,3.609,2,-1.0,-1.0,0,90.9,90.0,1,primary,2,1,40.533791,-3.4454580000000004,0.531,91.2,0.943,0.01,0.047
150,172.42,91.5,40.533794,-3.4460610000000003,663.2,6,5,270.0,0.703,1,-0.009000000000000001,0.021,0.03,-0.021,0.024,0.025,-1.535,0.006999999999999999,0.086,-0.34299999999999997,0.032,3.64,2,-1.0,-1.0,0,91.5,90.0,1,primary,2,1,40.533794,-3.445761,0.662,90.9,0.94,0.01,0.05
151,173.39,90.5,40.533794,-3.4463470000000003,662.5,6,5,270.0,0.0,1,-0.026000000000000002,0.013000000000000001,-0.019,-0.025,-0.002,-0.012,-1.53,0.015,0.08199999999999999,-0.182,0.043,3.625,2,-1.0,-1.0,0,90.5,90.0,1,primary,2,1,40.533794,-3.4460620000000004,1.13,90.5,0.938,0.01,0.052000000000000005
152,174.35,90.5,40.533806,-3.446629,662.2,6,5,270.0,0.0,1,-0.021,-0.006,0.016,-0.016,-0.012,0.004,-1.526,0.019,0.081,-0.04,0.035,3.636,2,-1.0,-1.0,0,90.5,90.0,1,primary,2,1,40.533794,-3.4460620000000004,1.13,90.5,0.937,0.01,0.053
153,175.35,90.3,40.533791,-3.446925,661.7,6,5,270.0,0.0,1,-0.012,0.018000000000000002,0.021,-0.01,0.006,0.017,-1.528,0.031,0.086,0.01,0.027000000000000003,3.576,2,-1.0,-1.0,0,90.3,90.0,1,primary,2,1,40.533806,-3.4466300000000003,1.138,90.3,0.935,0.01,0.055
154,176.35,91.0,40.533791,-3.447223,661.2,6,5,269.6,0.35200000000000004,1,-0.008,0.002,-0.001,-0.002,-0.009000000000000001,0.002,-1.537,0.022000000000000002,0.087,-0.02,-0.027000000000000003,3.6210000000000004,2,-1.0,-1.0,0,91.0,90.0,1,primary,2,1,40.533791,-3.447223,0.892,91.2,0.932,0.01,0.057999999999999996
155,177.36,91.2,40.533791,-3.4475239999999996,660.9,6,5,269.6,0.35200000000000004,1,-0.012,0.03,-0.005,0.019,0.015,0.006,-1.5419999999999998,0.027999999999999997,0.08800000000000001,-0.131,-0.037000000000000005,3.633,2,-1.0,-1.0,0,91.2,90.0,1,primary,2,1,40.533791,-3.447223,0.892,91.2,0.94,0.0,0.06
156,178.37,92.0,40.533787,-3.447833,660.5,6,5,268.9,0.703,1,-0.006,0.013999999999999999,0.022000000000000002,0.005,0.009000000000000001,0.006999999999999999,-1.5430000000000001,0.031,0.087,-0.313,-0.031,3.64,2,-1.0,-1.0,0,92.0,90.0,1,primary,2,1,40.533791,-3.447525,1.535,92.0,0.938,0.0,0.062
157,179.35,91.5,40.533778999999996,-3.4481349999999997,659.9,6,5,269.6,0.703,1,0.004,0.01,-0.001,-0.004,0.015,0.006,-1.534,0.016,0.078,-0.424,-0.006999999999999999,3.6210000000000004,2,-1.0,-1.0,0,91.5,90.0,1,primary,2,1,40.533791,-3.447525,1.535,92.0,0.9359999999999999,0.0,0.064
158,180.35,91.9,40.533775,-3.448437,659.5,6,5,268.6,1.055,1,-0.005,-0.011000000000000001,0.006,-0.049,0.005,0.002,-1.536,0.01,0.071,-0.384,0.027000000000000003,3.617,1,-1.0,-1.0,0,91.9,90.0,1,primary,2,1,40.533791,-3.447525,1.535,92.0,0.934,0.0,0.066
159,181.33,91.8,40.533775,-3.4487400000000004,659.1,6,5,270.4,1.758,1,0.002,-0.006999999999999999,-0.009000000000000001,0.017,-0.01,0.002,-1.537,0.005,0.068,-0.263,0.039,3.6180000000000003,2,-1.0,-1.0,0,91.8,90.0,1,primary,2,1,40.533791,-3.447525,1.535,92.0,0.9329999999999999,0.0,0.067
160,182.35,92.7,40.533772,-3.4490480000000003,658.6,6,5,269.6,1.055,1,-0.06,-0.005,-0.006,-0.027000000000000003,-0.021,-0.006,-1.5419999999999998,0.024,0.07200000000000001,-0.121,0.018000000000000002,3.583,2,-1.0,-1.0,0,92.7,90.0,1,primary,2,1,40.533778999999996,-3.4481349999999997,5.973,94.2,0.93,0.0,0.07
161,183.38,93.5,40.533764,-3.44935,658.2,6,5,269.6,0.703,1,-0.016,0.016,-0.009000000000000001,-0.008,0.017,-0.001,-1.548,0.018000000000000002,0.076,-0.192,-0.008,3.6010000000000004,1,-1.0,-1.0,0,93.5,90.0,1,primary,2,1,40.533778999999996,-3.4481349999999997,5.973,94.2,0.9279999999999999,0.0,0.07200000000000001
162,184.41,94.0,40.533752,-3.4496480000000003,657.5,6,5,269.3,0.35200000000000004,1,-0.021,-0.006,0.002,0.01,-0.01,-0.001,-1.5390000000000001,0.016,0.07400000000000001,-0.293,0.009000000000000001,3.573,2,-1.0,-1.0,0,94.0,90.0,1,primary,2,1,40.533778999999996,-3.4481349999999997,5.973,94.2,0.927,0.0,0.073
163,185.43,94.2,40.533749,-3.44996,657.2,6,5,269.6,0.35200000000000004,1,0.001,0.026000000000000002,0.024,-0.011000000000000001,0.017,0.016,-1.537,0.012,0.07,-0.28300000000000003,-0.003,3.634,2,-1.0,-1.0,0,94.2,90.0,1,primary,2,1,40.533778999999996,-3.4481349999999997,5.973,94.2,0.924,0.0,0.076
164,186.33,94.4,40.533752,-3.450272,656.9,6,5,269.6,0.35200000000000004,1,0.01,-0.001,0.039,-0.008,-0.009000000000000001,0.009000000000000001,-1.534,0.01,0.069,-0.303,0.024,3.592,2,-1.0,-1.0,0,94.4,90.0,1,primary,2,1,40.533749,-3.449961,1.5830000000000002,94.4,0.922,0.0,0.078
165,187.36,94.1,40.533752,-3.4505800000000004,656.7,6,5,269.6,0.0,1,-0.011000000000000001,-0.044000000000000004,-0.027000000000000003,0.005,-0.034,-0.02,-1.5119999999999998,0.008,0.065,-0.253,0.018000000000000002,3.647,2,-1.0,-1.0,0,94.1,90.0,1,primary,2,1,40.533749,-3.449961,1.5830000000000002,94.4,0.9209999999999999,0.0,0.079
166,188.34,91.6,40.533752,-3.4508870000000003,656.2,6,5,269.6,0.0,1,-0.037000000000000005,0.002,-0.027000000000000003,-0.013000000000000001,0.005,-0.018000000000000002,-1.5030000000000001,0.023,0.069,-0.212,0.042,3.72,2,-1.0,-1.0,0,94.1,90.0,1,primary,2,1,40.533752,-3.4505800000000004,0.838,91.6,0.9179999999999999,0.0,0.08199999999999999
167,189.36,91.9,40.533768,-3.451192,655.4,6,5,269.6,0.0,1,-0.013999999999999999,0.017,-0.008,-0.022000000000000002,0.011000000000000001,-0.009000000000000001,-1.5019999999999998,0.025,0.069,-0.212,0.002,3.6630000000000003,2,-1.0,-1.0,0,91.9,90.0,1,primary,2,1,40.533752,-3.450888,0.773,91.6,0.917,0.0,0.083
168,190.36,90.8,40.533752,-3.451488,654.8,6,5,269.6,0.0,1,-0.03,0.025,-0.004,-0.009000000000000001,0.013000000000000001,-0.002,-1.5019999999999998,0.015,0.066,-0.303,0.016,3.708,2,-1.0,-1.0,0,91.9,90.0,1,primary,2,1,40.533768,-3.451192,1.72,90.8,0.914,0.0,0.086
169,191.36,89.7,40.533756,-3.451793,654.4,6,5,269.3,0.35200000000000004,1,-0.037000000000000005,0.002,0.009000000000000001,-0.016,-0.003,0.002,-1.505,0.013999999999999999,0.068,-0.313,0.011000000000000001,3.7230000000000003,2,-1.0,-1.0,0,89.7,90.0,1,primary,2,1,40.533768,-3.451192,1.72,90.8,0.914,0.0,0.086
170,192.33,88.9,40.533764,-3.45209,653.9,6,5,269.6,0.35200000000000004,1,-0.004,0.03,0.012,-0.013000000000000001,0.019,0.001,-1.507,0.013000000000000001,0.064,-0.424,0.027999999999999997,3.675,2,-1.0,-1.0,0,88.9,90.0,1,primary,2,1,40.533756,-3.451793,1.68,88.9,0.914,0.0,0.086
171,193.33,88.4,40.53376,-3.452383,653.5,8,5,270.0,0.703,1,-0.022000000000000002,-0.023,-0.001,-0.025,-0.006999999999999999,0.013999999999999999,-1.5,0.013999999999999999,0.06,-0.525,0.03,3.661,2,-1.0,-1.0,1,88.9,90.0,1,primary,2,1,40.533756,-3.451793,1.68,88.9,0.915,0.0,0.085
172,194.34,88.1,40.53376,-3.4526809999999997,652.9,6,5,270.0,0.35200000000000004,1,-0.021,0.009000000000000001,0.011000000000000001,-0.018000000000000002,0.001,0.006999999999999999,-1.51,0.018000000000000002,0.057,-0.444,0.048,3.679,2,-1.0,-1.0,0,88.1,90.0,1,primary,2,1,40.53376,-3.452383,1.189,88.1,0.915,0.0,0.085
173,195.41,86.6,40.533752,-3.452972,652.6,6,5,268.6,1.406,1,-0.019,-0.005,0.019,-0.036000000000000004,-0.006,0.01,-1.515,0.023,0.055,-0.23199999999999998,0.055,3.603,2,-1.0,-1.0,0,86.6,90.0,1,primary,2,1,40.533752,-3.452972,0.631,86.6,0.915,0.0,0.085
174,196.34,86.8,40.533749,-3.4532589999999996,651.9,6,5,269.6,1.055,1,0.02,0.0,0.016,0.036000000000000004,0.001,0.011000000000000001,-1.516,0.013999999999999999,0.055999999999999994,-0.061,0.046,3.497,2,-1.0,-1.0,0,86.8,90.0,1,primary,2,1,40.533752,-3.452972,0.631,86.6,0.914,0.0,0.086
175,197.34,86.2,40.533749,-3.4535440000000004,651.7,6,5,269.6,1.055,1,-0.025,-0.0,-0.009000000000000001,-0.013000000000000001,-0.003,0.0,-1.515,0.022000000000000002,0.055,0.0,0.016,3.582,2,-1.0,-1.0,0,86.2,90.0,1,primary,2,1,40.533749,-3.4532589999999996,0.853,86.2,0.915,0.0,0.085
176,198.35,86.0,40.533737,-3.453817,651.4,6,5,270.0,0.35200000000000004,1,-0.011000000000000001,-0.015,0.028999999999999998,-0.011000000000000001,0.011000000000000001,0.013999999999999999,-1.515,0.03,0.059000000000000004,-0.01,-0.018000000000000002,3.6069999999999998,1,-1.0,-1.0,0,86.0,90.0,1,primary,2,1,40.533749,-3.4532589999999996,0.853,86.2,0.914,0.0,0.086
177,199.41,86.1,40.53373,-3.454102,650.9,6,5,269.3,0.703,1,-0.027999999999999997,0.011000000000000001,-0.024,-0.027000000000000003,0.005,-0.013999999999999999,-1.536,0.027999999999999997,0.062,-0.081,-0.01,3.58,1,-1.0,-1.0,0,86.1,90.0,1,primary,2,1,40.533749,-3.4535440000000004,2.224,86.1,0.915,0.0,0.085
178,200.36,86.6,40.533726,-3.4543800000000005,650.2,8,5,269.3,0.703,1,-0.08,0.004,-0.024,-0.051,0.012,-0.013999999999999999,-1.537,0.023,0.062,-0.222,-0.02,3.627,2,-1.0,-1.0,0,86.6,90.0,1,primary,2,1,40.533749,-3.4535440000000004,2.224,86.1,0.914,0.0,0.086
179,201.33,86.5,40.533726,-3.454671,649.6,6,5,269.3,0.0,1,-0.024,-0.009000000000000001,-0.006999999999999999,-0.006999999999999999,-0.002,0.006,-1.54,0.009000000000000001,0.055999999999999994,-0.253,0.013000000000000001,3.602,2,-1.0,-1.0,0,86.5,90.0,1,primary,2,1,40.533726,-3.4543800000000005,1.05,86.5,0.915,0.0,0.085
180,202.34,85.6,40.533718,-3.454947,649.7,6,5,269.6,0.35200000000000004,1,-0.033,0.03,-0.006999999999999999,-0.027999999999999997,0.008,-0.006,-1.54,0.013999999999999999,0.052000000000000005,-0.23199999999999998,0.026000000000000002,3.633,2,-1.0,-1.0,0,85.6,90.0,1,primary,2,1,40.533726,-3.4543800000000005,1.05,86.5,0.914,0.0,0.086
181,203.34,86.7,40.533722,-3.455235,649.1,6,5,269.6,0.35200000000000004,1,-0.08900000000000001,-0.023,-0.012,-0.048,-0.009000000000000001,-0.027000000000000003,-1.518,0.021,0.052000000000000005,-0.263,0.013000000000000001,3.622,2,-1.0,-1.0,0,86.7,90.0,1,primary,2,1,40.533718,-3.454947,1.413,86.7,0.914,0.0,0.086
182,204.34,85.9,40.533722,-3.455521,648.8,6,5,269.6,0.0,1,-0.003,-0.012,0.003,-0.03,-0.005,-0.006,-1.517,0.018000000000000002,0.054000000000000006,-0.263,0.015,3.6889999999999996,2,-1.0,-1.0,0,85.9,90.0,1,primary,2,1,40.533718,-3.454947,1.413,86.7,0.915,0.0,0.085
183,205.34,85.5,40.533714,-3.455801,648.6,6,5,269.6,0.0,1,0.01,-0.009000000000000001,-0.022000000000000002,-0.018000000000000002,-0.013000000000000001,-0.013999999999999999,-1.501,0.01,0.051,-0.374,0.024,3.705,2,-1.0,-1.0,0,85.9,90.0,1,primary,2,1,40.533718,-3.454947,1.413,86.7,0.914,0.0,0.086
184,206.35,83.5,40.53371,-3.456083,647.9,6,5,269.6,0.0,1,-0.016,0.031,0.023,-0.033,0.019,0.006999999999999999,-1.505,0.01,0.046,-0.354,0.046,3.761,2,-1.0,-1.0,0,83.5,90.0,1,primary,2,1,40.533722,-3.455521,2.803,82.3,0.915,0.0,0.085
185,207.33,82.3,40.533714,-3.4563589999999995,647.4,6,5,270.0,0.35200000000000004,1,-0.022000000000000002,-0.006999999999999999,0.005,-0.006,-0.016,0.003,-1.511,0.004,0.039,-0.313,0.031,3.705,1,-1.0,-1.0,0,82.3,90.0,1,primary,2,1,40.533722,-3.455521,2.803,82.3,0.915,0.0,0.085
186,208.38,81.9,40.533714,-3.4566230000000004,647.1,6,5,269.6,0.35200000000000004,1,-0.034,-0.027000000000000003,0.008,-0.027999999999999997,-0.01,0.013000000000000001,-1.5190000000000001,0.021,0.043,-0.273,0.048,3.6830000000000003,1,-1.0,-1.0,0,81.9,90.0,1,primary,2,1,40.533714,-3.4563589999999995,1.3230000000000002,81.9,0.915,0.0,0.085
187,209.34,81.8,40.53371,-3.456893,646.8,6,5,269.3,0.703,1,-0.003,0.009000000000000001,0.013000000000000001,0.001,0.006999999999999999,0.023,-1.541,0.028999999999999998,0.048,-0.23199999999999998,0.002,3.605,2,-1.0,-1.0,0,81.8,90.0,1,primary,2,1,40.533714,-3.4563589999999995,1.3230000000000002,81.9,0.914,0.0,0.086
188,210.35,82.3,40.533707,-3.4571650000000003,646.4,6,5,270.0,0.703,1,-0.011000000000000001,-0.001,0.042,-0.008,-0.001,0.018000000000000002,-1.5430000000000001,0.023,0.051,-0.242,0.009000000000000001,3.594,2,-1.0,-1.0,0,81.8,90.0,1,primary,2,1,40.53371,-3.456893,1.265,82.3,0.914,0.0,0.086
189,211.36,82.9,40.533707,-3.4574290000000003,646.3,6,5,269.3,0.703,1,-0.002,0.012,-0.006,-0.013000000000000001,0.019,-0.002,-1.56,0.012,0.051,-0.40399999999999997,-0.002,3.5460000000000003,2,-1.0,-1.0,0,82.3,90.0,1,primary,2,1,40.53371,-3.456893,1.265,82.3,0.914,0.0,0.086
190,212.37,83.7,40.533707,-3.457699,646.4,6,5,269.6,0.35200000000000004,1,0.006999999999999999,0.017,0.004,0.004,0.008,0.008,-1.568,0.002,0.044000000000000004,-0.374,0.035,3.613,2,-1.0,-1.0,0,82.9,90.0,1,primary,2,1,40.533707,-3.4574290000000003,0.882,83.7,0.915,0.0,0.085
191,213.34,84.4,40.533714,-3.4579839999999997,646.3,6,5,270.0,0.703,1,-0.034,-0.006,0.003,0.001,-0.009000000000000001,0.005,-1.5619999999999998,0.003,0.043,-0.354,0.015,3.574,1,-1.0,-1.0,0,84.4,90.0,1,primary,2,1,40.533707,-3.4574290000000003,0.882,83.7,0.9179999999999999,0.0,0.08199999999999999
192,214.34,85.0,40.53371,-3.4582610000000003,646.7,6,5,269.6,0.35200000000000004,1,-0.025,-0.015,-0.003,-0.013000000000000001,-0.006999999999999999,-0.006999999999999999,-1.5719999999999998,0.01,0.045,-0.293,0.038,3.57,2,-1.0,-1.0,0,85.0,90.0,1,primary,2,1,40.533707,-3.457699,2.596,85.0,0.919,0.0,0.081
193,215.34,84.9,40.533707,-3.458529,646.9,6,5,268.6,1.406,1,-0.013000000000000001,-0.006,-0.013000000000000001,-0.028999999999999998,-0.002,-0.012,-1.568,0.004,0.044000000000000004,-0.242,0.065,3.595,2,-1.0,-1.0,0,84.9,90.0,1,primary,2,1,40.533707,-3.457699,2.596,85.0,0.9209999999999999,0.0,0.079
194,216.35,86.1,40.53371,-3.4588129999999997,647.2,6,5,270.0,1.406,1,0.011000000000000001,-0.012,-0.002,-0.004,-0.006999999999999999,-0.003,-1.567,0.006999999999999999,0.044000000000000004,-0.121,0.008,3.6289999999999996,2,-1.0,-1.0,0,86.1,90.0,1,primary,2,1,40.533707,-3.45853,0.797,84.9,0.924,0.0,0.076
