,Timestamp (seconds),Speed (km/h),Latitude coordinate (degrees),Longitude coordinate (degrees),Altitude (meters),Vertical accuracy (degrees),Horizontal accuracy (degrees),Course (degrees),Difcourse: course variation (degrees),Boolean of system activated (1 if >50km/h),Acceleration in X (Gs),Acceleration in Y (Gs),Acceleration in Z (Gs),Acceleration in X filtered by KF (Gs),Acceleration in Y filtered by KF (Gs),Acceleration in Z filtered by KF (Gs),Roll (degrees),Pitch (degrees),Yaw (degrees),X: car position relative to lane center (meters),Phi: car angle relative to lane curvature (degrees),W: road width (meters),"State of the lane det. algorithm [-1=calibrating, 0=initializing, 1=undetected, 2=detected/running]",Distance to ahead vehicle in current lane (meters) [value -1 means no car is detected in front],Time of impact to ahead vehicle (seconds) [distance related to own speed],Number of detected vehicles in this frame (traffic),GPS speed (km/h) [same as in RAW GPS],Maximum allowed speed of current road (km/h),"Reliability of obtained maxspeed (0=unknown, 1=reliable, 2=used previously obtained maxspeed,3=estimated by type of road)","Type of road (motorway, trunk, secondary...)",Number of lanes in current road,"Estimated current lane (1=right lane, 2=first left lane, 3=second left lane, etc) [experimental]",GPS Latitude used to query OSM (degrees),GPS Longitude used to query OSM (degrees),OSM delay to answer query (seconds),GPS speed (km/h) [same as in RAW GPS]],Ratio normal (base 1),Ratio drowsy (base 1),Ratio aggressive (base 1)
0,18.42,68.3,40.516933,-3.4080769999999996,619.4,3,5,325.5,0.35200000000000004,1,-0.068,-0.006,-0.024,-0.001,-0.011000000000000001,-0.012,-1.5630000000000002,-0.04,0.055999999999999994,0.0,-0.0,3.5,-1,140.53,7.4,1,68.3,100.0,1,primary,2,-1,40.517075,-3.408206,1.436,68.4,1.0,0.0,0.0
1,19.37,68.5,40.517075,-3.408206,619.3,3,5,325.9,0.35200000000000004,1,0.013000000000000001,0.048,0.006,0.004,0.026000000000000002,-0.002,-1.555,-0.035,0.055999999999999994,0.0,-0.0,3.5,-1,175.55,9.23,1,68.5,100.0,1,primary,2,-1,40.517075,-3.408206,1.436,68.4,1.0,0.0,0.0
2,20.36,68.0,40.517216,-3.4083370000000004,619.5,3,5,325.9,0.35200000000000004,1,0.035,-0.006999999999999999,-0.016,0.009000000000000001,-0.012,-0.008,-1.554,-0.032,0.057999999999999996,0.04,0.037000000000000005,3.36,2,195.0,10.32,1,68.0,100.0,1,primary,2,-1,40.517075,-3.408206,1.436,68.4,1.0,0.0,0.0
3,21.37,68.4,40.517357000000004,-3.408457,621.4,3,5,325.9,0.0,1,-0.046,0.017,-0.006999999999999999,-0.02,-0.017,-0.004,-1.5519999999999998,-0.034,0.065,0.0,-0.013999999999999999,3.295,2,203.9,10.74,1,68.4,100.0,1,primary,2,-1,40.517075,-3.408206,1.436,68.4,1.0,0.0,0.0
4,22.36,68.2,40.517494,-3.4085910000000004,620.7,3,5,324.8,1.055,1,0.019,-0.011000000000000001,0.022000000000000002,0.035,-0.008,0.008,-1.54,-0.023,0.07400000000000001,0.081,0.01,3.299,2,46.92,2.48,3,68.2,100.0,1,primary,2,-1,40.517357000000004,-3.408457,1.249,68.2,1.0,0.0,0.0
5,23.36,67.8,40.517635,-3.408721,620.7,3,5,325.2,0.703,1,-0.026000000000000002,0.008,-0.015,-0.008,0.01,0.002,-1.548,-0.02,0.08,-0.111,-0.018000000000000002,3.2689999999999997,2,38.84,2.06,2,67.8,100.0,1,primary,2,-1,40.517635,-3.408721,0.665,67.9,1.0,0.0,0.0
6,24.39,67.9,40.517765000000004,-3.408847,620.9,3,5,324.8,0.35200000000000004,1,0.008,0.027999999999999997,0.015,-0.015,0.03,0.006,-1.546,-0.019,0.078,-0.01,-0.011000000000000001,2.845,2,31.2,1.65,2,67.9,100.0,1,primary,2,-1,40.517635,-3.408721,0.665,67.9,1.0,0.0,0.0
7,25.44,66.1,40.517902,-3.408976,621.0,3,5,325.2,0.35200000000000004,1,-0.013999999999999999,0.015,0.015,0.002,0.012,0.025,-1.55,-0.015,0.08199999999999999,-0.121,0.02,3.18,2,41.9,2.28,1,66.1,100.0,1,primary,2,-1,40.517765000000004,-3.408847,0.787,66.1,1.0,0.0,0.0
8,26.37,68.2,40.518024,-3.4091,621.3,3,5,324.5,0.703,1,0.002,0.047,0.012,-0.006,0.027999999999999997,0.01,-1.5619999999999998,0.006,0.08199999999999999,-0.061,0.003,3.264,2,55.67,2.94,1,68.2,100.0,1,primary,2,-1,40.517902,-3.408976,0.815,68.2,1.0,0.0,0.0
9,27.41,69.0,40.518169,-3.409222,621.1,3,5,325.2,0.703,1,-0.018000000000000002,-0.004,-0.016,-0.006,-0.016,-0.004,-1.554,0.009000000000000001,0.085,-0.01,0.012,3.2119999999999997,2,79.85,4.16,1,69.0,100.0,1,primary,2,-1,40.518024,-3.409101,1.0490000000000002,69.0,1.0,0.0,0.0
10,28.39,68.8,40.518311,-3.4093489999999997,621.3,3,5,324.5,0.703,1,0.065,-0.032,0.013999999999999999,-0.021,0.008,-0.009000000000000001,-1.5519999999999998,0.023,0.092,0.03,-0.002,3.3339999999999996,2,130.75,6.84,1,68.8,100.0,1,primary,2,-1,40.518024,-3.409101,1.0490000000000002,69.0,1.0,0.0,0.0
11,29.41,69.4,40.518459,-3.4094870000000004,621.6,3,5,324.1,1.055,1,0.015,0.011000000000000001,-0.023,-0.013999999999999999,-0.001,-0.013999999999999999,-1.545,0.036000000000000004,0.094,0.0,-0.076,3.343,2,177.82,9.22,1,69.4,100.0,1,primary,3,0,40.518311,-3.4093489999999997,1.004,69.4,1.0,0.0,0.0
12,30.36,69.5,40.518603999999996,-3.4096230000000003,622.0,3,5,324.5,0.35200000000000004,1,-0.016,0.011000000000000001,0.028999999999999998,-0.022000000000000002,0.013999999999999999,0.013000000000000001,-1.546,0.02,0.086,-0.03,-0.017,3.365,2,206.05,10.68,1,69.5,100.0,1,primary,3,0,40.518311,-3.4093489999999997,1.004,69.4,1.0,0.0,0.0
13,31.36,69.1,40.518745,-3.40975,622.0,3,5,324.5,0.35200000000000004,1,-0.055,0.016,0.006,-0.033,-0.008,0.018000000000000002,-1.547,0.005,0.079,0.172,-0.019,3.3760000000000003,2,214.67,11.19,1,69.1,100.0,1,primary,3,0,40.518603999999996,-3.4096230000000003,1.247,69.1,1.0,0.0,0.0
14,32.36,69.5,40.518894,-3.409885,622.1,3,5,325.2,0.703,1,0.018000000000000002,-0.051,0.048,-0.006,-0.035,0.025,-1.55,0.024,0.084,0.131,-0.055999999999999994,3.32,2,184.55,9.56,1,69.5,100.0,1,primary,3,0,40.518603999999996,-3.4096230000000003,1.247,69.1,1.0,0.0,0.0
15,33.36,68.2,40.519005,-3.4100059999999996,622.5,3,5,324.5,0.703,1,-0.021,0.046,0.036000000000000004,-0.045,0.043,-0.003,-1.56,0.035,0.1,0.051,-0.049,3.3510000000000004,2,160.79,8.48,1,68.2,100.0,1,primary,3,0,40.518894,-3.409886,1.189,68.2,1.0,0.0,0.0
16,34.36,70.9,40.519146,-3.410138,622.6,3,5,324.1,1.055,1,-0.045,0.078,0.038,-0.001,0.051,0.022000000000000002,-1.556,0.013000000000000001,0.09,-0.192,-0.091,3.302,2,151.54,7.69,1,70.9,100.0,1,primary,3,0,40.518894,-3.409886,1.189,68.2,1.0,0.0,0.0
17,35.36,69.9,40.519295,-3.4102690000000004,622.8,3,5,324.5,0.35200000000000004,1,-0.011000000000000001,-0.059000000000000004,0.01,-0.01,-0.019,0.004,-1.554,0.002,0.08199999999999999,-0.263,-0.006,3.31,2,163.57,8.42,1,69.9,100.0,1,primary,3,0,40.519146,-3.410139,1.136,69.9,1.0,0.0,0.0
18,36.36,70.6,40.519436,-3.410403,623.1,3,5,324.8,0.703,1,-0.07,-0.057999999999999996,-0.002,-0.043,-0.06,-0.002,-1.555,-0.001,0.08,-0.23199999999999998,-0.003,3.278,2,177.83,9.06,1,70.6,100.0,1,primary,3,0,40.519146,-3.410139,1.136,69.9,1.0,0.0,0.0
19,37.39,70.6,40.519581,-3.410536,623.1,3,5,324.8,0.35200000000000004,1,0.003,0.012,0.0,0.002,-0.013000000000000001,-0.006999999999999999,-1.5590000000000002,-0.005,0.084,-0.172,0.013999999999999999,3.31,2,186.81,9.53,2,70.6,100.0,1,primary,3,0,40.519436,-3.410403,1.334,70.6,1.0,0.0,0.0
20,38.4,73.6,40.519737,-3.410683,623.6,3,5,323.8,1.055,1,-0.006999999999999999,0.006,-0.017,0.002,-0.037000000000000005,-0.015,-1.5619999999999998,-0.005,0.08199999999999999,-0.293,-0.032,3.306,2,192.05,9.39,2,73.6,100.0,1,primary,3,0,40.519436,-3.410403,1.334,70.6,1.0,0.0,0.0
21,39.37,70.3,40.519878000000006,-3.410823,623.8,3,5,324.1,0.703,1,0.002,0.013999999999999999,0.005,0.002,0.005,-0.015,-1.567,-0.013000000000000001,0.078,-0.303,0.018000000000000002,3.322,2,188.68,9.66,1,70.3,100.0,1,primary,3,0,40.519737,-3.410683,0.9309999999999999,70.3,1.0,0.0,0.0
22,40.38,69.8,40.52002,-3.410966,624.4,3,5,324.5,0.703,1,0.008,-0.028999999999999998,0.004,0.002,-0.013000000000000001,-0.005,-1.5659999999999998,-0.002,0.078,-0.33299999999999996,-0.04,3.2539999999999996,2,-1.0,-1.0,0,69.8,100.0,1,primary,3,0,40.519878000000006,-3.410823,0.857,69.8,1.0,0.0,0.0
23,41.38,70.4,40.520176,-3.411093,624.5,3,5,324.5,0.35200000000000004,1,-0.019,0.027000000000000003,0.021,-0.018000000000000002,0.038,0.003,-1.561,0.011000000000000001,0.079,-0.34299999999999997,-0.026000000000000002,3.3680000000000003,2,-1.0,-1.0,0,70.4,100.0,1,primary,3,0,40.52002,-3.410966,0.98,70.4,1.0,0.0,0.0
24,42.36,70.7,40.520325,-3.41123,624.8,3,5,324.5,0.0,1,0.036000000000000004,-0.005,0.022000000000000002,0.016,0.004,0.022000000000000002,-1.564,0.015,0.079,-0.40399999999999997,0.022000000000000002,3.175,2,-1.0,-1.0,0,70.7,100.0,1,primary,2,0,40.520176,-3.411093,1.0979999999999999,70.7,1.0,0.0,0.0
25,43.38,69.9,40.52047,-3.4113629999999997,625.1,3,5,324.1,0.35200000000000004,1,0.027999999999999997,0.013999999999999999,-0.003,0.013000000000000001,0.051,-0.001,-1.5590000000000002,0.009000000000000001,0.077,-0.455,-0.016,3.217,2,-1.0,-1.0,0,69.9,100.0,1,primary,2,0,40.520176,-3.411093,1.0979999999999999,70.7,1.0,0.0,0.0
26,44.37,69.8,40.520615,-3.4115089999999997,625.5,3,5,324.5,0.35200000000000004,1,0.004,-0.013000000000000001,-0.018000000000000002,0.042,-0.004,0.006999999999999999,-1.56,-0.004,0.067,-0.434,0.012,3.233,2,-1.0,-1.0,0,69.8,100.0,1,primary,2,0,40.52047,-3.4113629999999997,1.048,69.8,1.0,0.0,0.0
27,45.38,70.5,40.520756,-3.4116410000000004,625.5,3,5,325.2,1.055,1,0.03,-0.012,0.023,-0.021,-0.027999999999999997,-0.004,-1.561,-0.004,0.067,-0.263,0.042,3.2460000000000004,2,-1.0,-1.0,0,70.5,100.0,1,primary,2,0,40.52047,-3.4113629999999997,1.048,69.8,1.0,0.0,0.0
28,46.37,70.4,40.520893,-3.411773,625.6,3,5,325.2,0.703,1,-0.053,0.005,-0.028999999999999998,-0.040999999999999995,0.001,-0.013999999999999999,-1.5619999999999998,0.002,0.07400000000000001,-0.273,0.071,3.266,2,-1.0,-1.0,0,70.4,100.0,1,primary,2,0,40.520756,-3.4116410000000004,1.008,70.4,1.0,0.0,0.0
29,47.37,70.5,40.521034,-3.4119040000000003,626.0,3,5,324.5,0.703,1,-0.063,0.049,-0.065,-0.003,0.031,-0.017,-1.557,0.015,0.078,-0.152,-0.011000000000000001,3.353,2,-1.0,-1.0,0,70.5,100.0,1,primary,2,0,40.521034,-3.4119050000000004,0.8420000000000001,69.9,1.0,0.0,0.0
30,48.37,69.9,40.521167999999996,-3.412037,626.7,3,5,324.1,1.055,1,0.024,-0.006,0.016,-0.021,0.001,0.011000000000000001,-1.557,0.02,0.076,-0.121,0.008,3.275,2,-1.0,-1.0,0,69.9,100.0,1,primary,2,0,40.521034,-3.4119050000000004,0.8420000000000001,69.9,1.0,0.0,0.0
31,49.37,69.4,40.521313,-3.4121639999999998,626.9,3,5,324.5,0.35200000000000004,1,0.023,0.004,0.002,0.025,-0.002,0.006999999999999999,-1.555,0.002,0.071,-0.071,-0.008,3.265,1,-1.0,-1.0,0,69.4,100.0,1,primary,2,0,40.521167999999996,-3.412037,1.177,69.4,1.0,0.0,0.0
32,50.39,69.6,40.521454,-3.412293,627.1,3,5,325.2,1.055,1,-0.037000000000000005,-0.044000000000000004,-0.005,-0.023,-0.009000000000000001,0.005,-1.5590000000000002,0.001,0.067,-0.182,-0.071,2.524,2,-1.0,-1.0,0,69.6,100.0,1,primary,2,0,40.521167999999996,-3.412037,1.177,69.4,1.0,0.0,0.0
33,51.37,69.8,40.521599,-3.4124260000000004,627.3,3,5,325.2,0.703,1,-0.006999999999999999,0.009000000000000001,-0.002,0.004,-0.025,0.009000000000000001,-1.557,0.018000000000000002,0.078,0.10099999999999999,0.04,3.2319999999999998,1,-1.0,-1.0,0,69.8,100.0,1,primary,2,0,40.521454,-3.412293,1.11,69.8,1.0,0.0,0.0
34,52.37,69.3,40.52174,-3.412556,627.8,3,5,324.5,0.703,1,0.009000000000000001,0.051,0.008,-0.004,0.040999999999999995,-0.0,-1.567,0.023,0.084,0.051,-0.03,3.235,2,-1.0,-1.0,0,69.3,100.0,1,primary,2,0,40.521454,-3.412293,1.11,69.8,1.0,0.0,0.0
35,53.39,69.4,40.521881,-3.412693,628.2,3,5,324.5,0.703,1,0.02,-0.001,-0.018000000000000002,-0.008,0.022000000000000002,-0.019,-1.569,0.018000000000000002,0.08,-0.04,-0.057999999999999996,3.2510000000000003,1,-1.0,-1.0,0,69.4,100.0,1,primary,2,0,40.52174,-3.412556,1.4180000000000001,69.1,1.0,0.0,0.0
36,54.41,69.1,40.522022,-3.4128239999999996,628.4,3,5,324.5,0.0,1,-0.009000000000000001,0.021,-0.016,-0.003,-0.001,-0.006,-1.571,0.009000000000000001,0.076,0.03,-0.002,3.303,2,-1.0,-1.0,0,69.1,100.0,1,primary,2,0,40.52174,-3.412556,1.4180000000000001,69.1,1.0,0.0,0.0
37,55.37,69.3,40.522163,-3.412956,628.9,3,5,324.8,0.35200000000000004,1,-0.053,-0.023,-0.05,-0.031,-0.02,-0.028999999999999998,-1.5759999999999998,0.004,0.077,0.141,-0.001,3.2910000000000004,1,-1.0,-1.0,0,69.3,100.0,1,primary,2,0,40.522022,-3.4128239999999996,1.207,69.3,1.0,0.0,0.0
38,56.37,69.3,40.522304999999996,-3.413086,629.0,3,5,324.8,0.35200000000000004,1,-0.011000000000000001,0.022000000000000002,-0.013000000000000001,-0.003,-0.023,-0.012,-1.581,0.009000000000000001,0.08800000000000001,0.0,-0.033,3.214,2,-1.0,-1.0,0,69.3,100.0,1,primary,2,0,40.522022,-3.4128239999999996,1.207,69.3,1.0,0.0,0.0
39,57.43,69.0,40.522446,-3.413207,629.9,3,5,325.9,1.055,1,-0.012,0.003,-0.022000000000000002,-0.028999999999999998,-0.015,-0.028999999999999998,-1.5819999999999999,0.01,0.10400000000000001,-0.051,-0.021,3.195,2,-1.0,-1.0,0,69.0,100.0,1,primary,2,0,40.522304999999996,-3.4130870000000004,1.151,69.0,1.0,0.0,0.0
40,58.41,69.0,40.522587,-3.413334,630.5,3,5,325.9,1.055,1,0.015,-0.011000000000000001,-0.008,-0.003,-0.004,-0.011000000000000001,-1.575,-0.005,0.12,-0.182,-0.008,3.2060000000000004,2,-1.0,-1.0,0,69.0,100.0,1,primary,2,0,40.522304999999996,-3.4130870000000004,1.151,69.0,1.0,0.0,0.0
41,59.42,68.1,40.522701,-3.4134949999999997,631.3,3,5,321.3,4.57,1,-0.011000000000000001,0.036000000000000004,-0.028999999999999998,0.013999999999999999,0.017,-0.005,-1.5759999999999998,-0.002,0.141,-0.293,-0.011000000000000001,3.281,2,-1.0,-1.0,0,68.1,100.0,1,primary,2,0,40.522587,-3.413335,1.1079999999999999,68.1,1.0,0.0,0.0
42,60.42,66.9,40.522831,-3.4136349999999998,631.9,3,5,321.0,4.922,1,0.047,0.028999999999999998,0.009000000000000001,0.016,0.004,-0.004,-1.575,-0.016,0.159,-0.303,0.009000000000000001,3.286,2,-1.0,-1.0,0,66.9,100.0,1,primary,2,0,40.522587,-3.413335,1.1079999999999999,68.1,1.0,0.0,0.0
43,61.37,66.3,40.522953,-3.4137760000000004,632.4,3,5,319.9,1.406,1,-0.019,-0.004,-0.01,-0.024,0.008,-0.01,-1.579,-0.03,0.174,-0.313,-0.028999999999999998,3.284,2,-1.0,-1.0,0,66.3,100.0,1,primary,2,0,40.522831,-3.4136349999999998,1.344,65.8,1.0,0.0,0.0
44,62.37,65.8,40.523075,-3.4139169999999996,633.1,3,5,318.9,2.109,1,-0.006999999999999999,-0.036000000000000004,-0.02,-0.008,-0.044000000000000004,-0.008,-1.5730000000000002,-0.040999999999999995,0.195,-0.263,0.013999999999999999,3.219,2,-1.0,-1.0,0,65.8,100.0,1,primary,2,0,40.522831,-3.4136349999999998,1.344,65.8,1.0,0.0,0.0
45,63.39,65.2,40.52319,-3.4140629999999996,633.8,3,5,317.5,2.461,1,-0.037000000000000005,-0.055,0.023,-0.044000000000000004,-0.038,0.02,-1.5759999999999998,-0.04,0.213,-0.242,0.071,3.24,2,-1.0,-1.0,0,65.2,100.0,1,primary,2,0,40.523075,-3.4139169999999996,1.6019999999999999,64.9,1.0,0.0,0.0
46,64.37,64.9,40.523303999999996,-3.4142129999999997,634.9,3,5,316.1,2.812,1,0.039,0.013999999999999999,0.021,-0.013000000000000001,-0.0,0.016,-1.5730000000000002,-0.037000000000000005,0.237,-0.20199999999999999,0.07400000000000001,3.1910000000000003,2,-1.0,-1.0,0,64.9,100.0,1,primary,2,0,40.523075,-3.4139169999999996,1.6019999999999999,64.9,1.0,0.0,0.0
47,65.36,64.6,40.523418,-3.414362,635.7,3,5,314.3,3.1639999999999997,1,-0.049,-0.066,-0.019,-0.019,-0.028999999999999998,-0.006,-1.574,-0.051,0.257,-0.212,0.03,3.2319999999999998,2,-1.0,-1.0,0,64.6,90.0,3,tertiary_link,1,0,40.523303999999996,-3.4142129999999997,1.166,64.6,1.0,0.0,0.0
48,66.39,64.4,40.523521,-3.414518,636.0,3,5,312.5,3.516,1,-0.034,-0.11599999999999999,-0.001,-0.011000000000000001,-0.0,-0.005,-1.568,-0.052000000000000005,0.273,-0.313,-0.012,3.242,2,-1.0,-1.0,0,64.4,90.0,3,tertiary_link,1,0,40.523303999999996,-3.4142129999999997,1.166,64.6,1.0,0.0,0.0
49,67.38,64.1,40.523624,-3.414675,636.7,3,5,310.8,3.516,1,-0.028999999999999998,-0.094,0.002,-0.004,-0.045,0.02,-1.564,-0.05,0.28,-0.354,-0.022000000000000002,3.165,2,-1.0,-1.0,0,64.1,90.0,3,tertiary_link,1,0,40.523521,-3.414518,1.172,64.1,1.0,0.0,0.0
50,68.41,63.8,40.523724,-3.414836,637.0,3,5,309.4,3.1639999999999997,1,-0.087,0.009000000000000001,-0.011000000000000001,-0.025,0.008,0.003,-1.561,-0.044000000000000004,0.28600000000000003,-0.40399999999999997,0.003,3.2110000000000003,2,-1.0,-1.0,0,63.8,90.0,3,tertiary_link,1,0,40.523724,-3.414836,0.72,63.7,1.0,0.0,0.0
51,69.37,63.7,40.523823,-3.415,637.4,3,5,308.3,2.461,1,0.01,0.096,0.031,0.021,-0.015,0.039,-1.56,-0.040999999999999995,0.297,-0.384,-0.006999999999999999,3.3339999999999996,2,-1.0,-1.0,0,63.7,90.0,3,tertiary_link,1,0,40.523724,-3.414836,0.72,63.7,1.0,0.0,0.0
52,70.37,63.8,40.523918,-3.415166,638.3,3,5,306.9,2.461,1,-0.001,0.019,0.04,-0.042,0.001,-0.0,-1.5590000000000002,-0.04,0.313,-0.313,0.07200000000000001,3.247,2,-1.0,-1.0,0,63.8,90.0,3,tertiary_link,1,0,40.523823,-3.415,0.955,63.8,1.0,0.0,0.0
53,71.37,65.1,40.52401,-3.415342,638.4,3,5,304.5,3.867,1,-0.002,0.079,-0.006,-0.006,0.02,0.011000000000000001,-1.5519999999999998,-0.037000000000000005,0.317,-0.5760000000000001,0.028999999999999998,3.0580000000000003,2,-1.0,-1.0,0,65.1,90.0,3,tertiary_link,1,0,40.523918,-3.415166,0.8740000000000001,65.1,0.9990000000000001,0.001,0.0
54,72.37,64.4,40.524097,-3.415513,638.7,3,5,303.8,3.1639999999999997,1,-0.049,0.046,0.004,-0.008,0.038,0.026000000000000002,-1.5519999999999998,-0.031,0.32,-0.657,-0.011000000000000001,3.153,2,-1.0,-1.0,0,64.4,90.0,3,tertiary_link,1,0,40.52401,-3.415342,0.91,64.4,0.987,0.013000000000000001,0.0
55,73.38,64.9,40.524184999999996,-3.415692,638.9,3,5,302.3,2.109,1,0.006,-0.038,0.017,0.002,-0.009000000000000001,0.011000000000000001,-1.5730000000000002,-0.05,0.32299999999999995,-0.596,0.026000000000000002,3.181,2,-1.0,-1.0,0,64.9,90.0,3,tertiary_link,1,0,40.524097,-3.415513,0.83,64.9,0.977,0.023,0.0
56,74.39,65.5,40.524273,-3.4158720000000002,638.9,3,5,301.3,2.461,1,0.038,0.047,0.013000000000000001,0.01,0.006,0.008,-1.565,-0.055999999999999994,0.32799999999999996,-0.586,0.019,3.14,2,-1.0,-1.0,0,65.5,90.0,3,tertiary_link,1,0,40.524184999999996,-3.415693,0.669,65.5,0.9690000000000001,0.031,0.0
57,75.38,66.1,40.524353000000005,-3.416063,639.1,3,5,299.9,2.461,1,0.025,0.006,0.008,0.02,0.01,0.01,-1.5630000000000002,-0.055,0.33399999999999996,-0.434,0.047,3.128,2,-1.0,-1.0,0,66.1,90.0,3,tertiary_link,1,0,40.524273,-3.4158720000000002,1.0759999999999998,66.1,0.9620000000000001,0.038,0.0
58,76.37,66.8,40.524433,-3.416257,639.2,3,5,298.5,2.812,1,0.008,-0.055999999999999994,-0.012,0.009000000000000001,-0.044000000000000004,0.002,-1.5619999999999998,-0.053,0.344,-0.455,0.026000000000000002,3.115,2,-1.0,-1.0,0,66.8,90.0,3,tertiary_link,1,0,40.524273,-3.4158720000000002,1.0759999999999998,66.1,0.9620000000000001,0.038,0.0
59,77.38,67.5,40.524502000000005,-3.4164550000000005,639.4,3,5,296.7,3.1639999999999997,1,0.054000000000000006,-0.009000000000000001,0.012,0.012,-0.015,0.004,-1.5590000000000002,-0.049,0.35200000000000004,-0.39399999999999996,0.005,3.174,2,-1.0,-1.0,0,67.5,100.0,1,primary,2,0,40.524433,-3.416257,1.141,67.5,0.9620000000000001,0.038,0.0
60,78.38,68.1,40.524574,-3.41666,639.6,3,5,295.0,3.516,1,0.031,-0.034,0.006,0.011000000000000001,-0.009000000000000001,0.009000000000000001,-1.5530000000000002,-0.049,0.365,-0.424,-0.044000000000000004,3.2030000000000003,2,-1.0,-1.0,0,68.1,100.0,1,primary,2,0,40.524433,-3.416257,1.141,67.5,0.9620000000000001,0.038,0.0
61,79.39,68.8,40.524646999999995,-3.416864,639.3,3,5,293.2,3.516,1,0.02,0.036000000000000004,0.006,0.011000000000000001,0.019,0.003,-1.557,-0.040999999999999995,0.375,-0.485,-0.042,3.325,1,-1.0,-1.0,0,68.8,100.0,1,primary,2,0,40.524574,-3.41666,0.963,68.8,0.9620000000000001,0.038,0.0
62,80.35,69.5,40.524708000000004,-3.417072,639.2,3,5,291.4,3.516,1,0.006,0.043,0.0,0.019,0.012,-0.006999999999999999,-1.556,-0.055,0.36700000000000005,0.0,-0.0,3.2739999999999996,0,-1.0,-1.0,0,69.5,100.0,1,primary,2,0,40.524646999999995,-3.416864,0.5720000000000001,69.5,0.9620000000000001,0.038,0.0
63,81.35,70.4,40.524769,-3.4172919999999998,639.0,3,5,290.0,3.1639999999999997,1,-0.049,0.017,0.011000000000000001,0.001,0.016,-0.001,-1.555,-0.048,0.353,0.121,0.022000000000000002,4.3069999999999995,2,-1.0,-1.0,0,70.4,100.0,1,primary,2,0,40.524646999999995,-3.416864,0.5720000000000001,69.5,0.9620000000000001,0.038,0.0
64,82.38,71.4,40.52483,-3.417508,638.7,3,5,289.7,1.758,1,0.033,0.04,0.01,-0.013999999999999999,0.025,-0.024,-1.555,-0.049,0.34700000000000003,0.02,-0.027999999999999997,3.949,2,-1.0,-1.0,0,71.4,100.0,1,primary,2,0,40.524646999999995,-3.416864,0.5720000000000001,69.5,0.9620000000000001,0.038,0.0
65,83.38,72.5,40.524887,-3.417731,638.5,3,5,288.6,1.406,1,0.02,-0.008,0.001,-0.001,-0.021,-0.012,-1.556,-0.037000000000000005,0.34299999999999997,-0.111,-0.01,3.4389999999999996,2,-1.0,-1.0,0,72.5,100.0,1,primary,2,0,40.524646999999995,-3.416864,0.5720000000000001,69.5,0.9620000000000001,0.038,0.0
66,84.38,73.3,40.52494,-3.417962,638.0,3,5,287.6,2.109,1,-0.02,-0.09300000000000001,-0.027999999999999997,-0.044000000000000004,-0.049,-0.037000000000000005,-1.525,-0.013000000000000001,0.335,-0.01,0.038,3.363,2,-1.0,-1.0,0,73.3,100.0,1,primary,2,0,40.524708000000004,-3.417072,8.383,71.6,0.9620000000000001,0.038,0.001
67,85.35,73.4,40.52499,-3.418192,637.6,3,5,286.5,2.109,1,0.028999999999999998,0.001,0.017,0.002,0.003,-0.006999999999999999,-1.518,-0.009000000000000001,0.325,-0.02,0.002,3.3089999999999997,2,-1.0,-1.0,0,73.4,100.0,1,primary,2,0,40.524708000000004,-3.417072,8.383,71.6,0.9620000000000001,0.038,0.001
68,86.38,73.0,40.525040000000004,-3.418425,636.8,3,5,285.8,1.758,1,-0.025,0.033,-0.023,-0.015,0.038,-0.018000000000000002,-1.525,-0.003,0.299,-0.071,0.002,3.2880000000000003,2,-1.0,-1.0,0,73.0,100.0,1,primary,2,0,40.524708000000004,-3.417072,8.383,71.6,0.9620000000000001,0.038,0.001
69,87.38,72.7,40.525089,-3.418654,636.7,3,5,285.5,1.055,1,-0.033,-0.002,-0.02,-0.023,0.011000000000000001,-0.016,-1.517,-0.025,0.266,0.01,0.021,3.3080000000000003,2,-1.0,-1.0,0,72.7,100.0,1,primary,2,0,40.524708000000004,-3.417072,8.383,71.6,0.9620000000000001,0.038,0.001
70,88.35,72.8,40.525139,-3.418884,635.9,3,5,285.8,0.35200000000000004,1,-0.009000000000000001,0.011000000000000001,0.013999999999999999,-0.015,0.012,0.003,-1.495,-0.006999999999999999,0.243,0.03,0.065,3.4,2,-1.0,-1.0,0,72.8,100.0,1,primary,2,0,40.524708000000004,-3.417072,8.383,71.6,0.9620000000000001,0.038,0.001
71,89.35,71.6,40.525188,-3.419108,635.2,3,5,284.4,1.406,1,-0.027999999999999997,-0.045,-0.009000000000000001,-0.009000000000000001,-0.037000000000000005,0.015,-1.51,-0.006,0.214,0.212,0.087,3.3539999999999996,2,-1.0,-1.0,0,71.6,100.0,1,primary,2,0,40.524708000000004,-3.417072,8.383,71.6,0.9620000000000001,0.037000000000000005,0.001
72,90.36,71.7,40.525234000000005,-3.419332,635.0,3,5,286.9,2.461,1,-0.013000000000000001,0.017,0.015,0.001,-0.0,0.005,-1.5190000000000001,0.008,0.188,0.384,0.068,3.3360000000000003,2,-1.0,-1.0,0,71.7,80.0,1,primary,1,0,40.525188,-3.419108,1.126,71.7,0.9620000000000001,0.037000000000000005,0.001
73,91.36,70.8,40.525288,-3.4195550000000003,634.2,3,5,287.9,3.516,1,-0.054000000000000006,-0.0,-0.051,-0.011000000000000001,-0.001,-0.017,-1.518,0.009000000000000001,0.159,0.364,0.031,3.33,2,-1.0,-1.0,0,70.8,80.0,1,primary,1,0,40.525288,-3.4195559999999996,0.875,71.1,0.9620000000000001,0.037000000000000005,0.001
74,92.36,71.1,40.525349,-3.4197800000000003,633.8,3,5,288.3,1.406,1,-0.017,0.019,-0.004,-0.028999999999999998,0.017,-0.003,-1.524,-0.001,0.115,0.32299999999999995,0.013999999999999999,3.3280000000000003,2,-1.0,-1.0,0,71.1,80.0,1,primary,1,0,40.525288,-3.4195559999999996,0.875,71.1,0.9620000000000001,0.037000000000000005,0.001
75,93.35,71.2,40.525402,-3.4199949999999997,633.5,3,5,289.7,1.758,1,0.005,-0.009000000000000001,-0.019,0.023,-0.0,-0.002,-1.524,0.01,0.07200000000000001,0.242,-0.057,3.26,2,-1.0,-1.0,0,71.2,80.0,1,primary,1,0,40.525349,-3.4197800000000003,0.82,71.2,0.9620000000000001,0.037000000000000005,0.001
76,94.4,71.1,40.525463,-3.420213,633.2,3,5,291.1,2.812,1,-0.017,0.043,-0.008,-0.001,-0.003,-0.002,-1.5230000000000001,-0.001,0.026000000000000002,0.23199999999999998,-0.013999999999999999,3.2880000000000003,2,-1.0,-1.0,0,71.1,100.0,1,primary,2,0,40.525402,-3.4199949999999997,1.016,71.1,0.9620000000000001,0.037000000000000005,0.001
77,95.35,70.5,40.525535999999995,-3.4204239999999997,632.7,3,5,293.6,3.867,1,0.065,0.001,0.006999999999999999,0.019,-0.002,0.001,-1.517,0.006,-0.009000000000000001,0.39399999999999996,0.015,3.2030000000000003,2,-1.0,-1.0,0,70.5,100.0,1,primary,2,0,40.525402,-3.4199949999999997,1.016,71.1,0.9620000000000001,0.037000000000000005,0.001
78,96.35,70.7,40.525612,-3.420635,632.3,3,5,295.7,4.57,1,-0.04,-0.028999999999999998,0.024,-0.02,-0.008,-0.021,-1.526,-0.001,-0.027999999999999997,0.364,-0.034,3.238,2,-1.0,-1.0,0,70.7,100.0,1,primary,2,0,40.525535999999995,-3.420425,1.079,70.7,0.9620000000000001,0.038,0.001
79,97.36,73.1,40.525688,-3.42085,632.0,3,5,296.4,2.812,1,0.001,-0.040999999999999995,0.019,-0.016,-0.016,0.005,-1.527,-0.001,-0.048,0.293,-0.013999999999999999,3.217,2,-1.0,-1.0,0,73.1,100.0,1,primary,2,0,40.525535999999995,-3.420425,1.079,70.7,0.9620000000000001,0.038,0.001
80,98.36,71.4,40.525764,-3.4210580000000004,631.8,3,5,296.7,1.055,1,0.024,-0.003,0.006999999999999999,0.006,-0.015,0.006,-1.538,-0.018000000000000002,-0.084,0.182,-0.021,3.304,2,-1.0,-1.0,0,71.4,100.0,3,primary_link,1,0,40.525688,-3.42085,1.3230000000000002,71.3,0.9620000000000001,0.038,0.001
81,99.41,71.3,40.525852,-3.4212620000000005,631.3,3,5,299.2,2.812,1,-0.031,-0.013000000000000001,0.002,-0.024,-0.002,-0.017,-1.538,-0.031,-0.127,0.02,-0.019,3.306,2,-1.0,-1.0,0,71.3,100.0,3,primary_link,1,0,40.525688,-3.42085,1.3230000000000002,71.3,0.9620000000000001,0.038,0.001
82,100.35,71.7,40.525951,-3.4214550000000004,630.9,3,5,302.0,5.273,1,-0.024,0.006999999999999999,0.013999999999999999,-0.022000000000000002,0.005,-0.012,-1.541,-0.035,-0.174,0.03,0.085,3.2939999999999996,2,-1.0,-1.0,0,71.7,100.0,1,primary,2,0,40.525852,-3.4212620000000005,0.9990000000000001,71.7,0.9620000000000001,0.038,0.001
83,101.35,72.0,40.526051,-3.4216599999999997,630.5,3,5,305.5,6.327999999999999,1,-0.07200000000000001,-0.023,-0.018000000000000002,-0.03,-0.016,-0.009000000000000001,-1.5330000000000001,-0.038,-0.212,0.242,0.07,3.285,2,-1.0,-1.0,0,72.0,100.0,1,primary,2,0,40.525852,-3.4212620000000005,0.9990000000000001,71.7,0.9620000000000001,0.038,0.001
84,102.36,72.1,40.526161,-3.421851,630.1,3,5,307.6,5.625,1,0.044000000000000004,-0.053,-0.006,0.042,-0.013000000000000001,-0.004,-1.527,-0.01,-0.23600000000000002,0.28300000000000003,-0.003,3.3160000000000003,2,-1.0,-1.0,0,72.1,90.0,1,primary,2,0,40.526051,-3.4216599999999997,1.413,72.3,0.9620000000000001,0.038,0.001
85,103.36,72.3,40.526278999999995,-3.422049,629.8,3,5,309.7,4.218999999999999,1,-0.024,0.011000000000000001,-0.021,-0.006,-0.003,-0.026000000000000002,-1.526,-0.004,-0.259,0.424,0.067,3.321,2,-1.0,-1.0,0,72.3,90.0,1,primary,2,0,40.526051,-3.4216599999999997,1.413,72.3,0.9620000000000001,0.038,0.001
86,104.36,71.6,40.526394,-3.4222370000000004,629.2,3,5,310.8,3.1639999999999997,1,0.026000000000000002,-0.015,0.01,-0.008,0.003,0.0,-1.5230000000000001,0.004,-0.282,0.32299999999999995,0.031,3.386,2,-1.0,-1.0,0,71.6,90.0,1,primary,2,0,40.526278999999995,-3.422049,1.114,71.6,0.9620000000000001,0.038,0.001
87,105.42,71.5,40.526512,-3.422414,628.3,3,5,312.5,2.812,1,0.06,-0.012,0.006999999999999999,-0.002,-0.019,-0.001,-1.52,-0.002,-0.306,0.212,-0.031,3.3,2,-1.0,-1.0,0,71.5,90.0,1,primary,2,0,40.526278999999995,-3.422049,1.114,71.6,0.9620000000000001,0.038,0.001
88,106.36,71.4,40.526638,-3.422574,628.4,3,5,315.0,4.218999999999999,1,0.063,-0.006999999999999999,0.021,0.026000000000000002,0.02,0.011000000000000001,-1.5190000000000001,-0.008,-0.32899999999999996,0.28300000000000003,0.08800000000000001,3.2939999999999996,2,-1.0,-1.0,0,71.4,90.0,1,primary,2,0,40.526512,-3.422414,1.624,71.6,0.9620000000000001,0.038,0.001
89,107.41,71.6,40.526771999999994,-3.42274,628.0,3,5,317.1,4.57,1,-0.009000000000000001,-0.0,-0.0,-0.001,-0.001,0.02,-1.516,-0.016,-0.35700000000000004,0.28300000000000003,0.034,3.292,2,-1.0,-1.0,0,71.6,90.0,1,primary,2,0,40.526512,-3.422414,1.624,71.6,0.9620000000000001,0.038,0.001
90,108.43,71.7,40.526897,-3.42289,627.9,3,5,319.2,4.218999999999999,1,-0.013999999999999999,0.003,-0.009000000000000001,-0.01,-0.051,-0.006999999999999999,-1.5230000000000001,-0.025,-0.37799999999999995,0.212,-0.039,3.23,2,-1.0,-1.0,0,71.7,90.0,1,primary,2,0,40.526771999999994,-3.42274,1.661,71.3,0.9620000000000001,0.038,0.001
91,109.38,71.3,40.527039,-3.423047,627.6,3,5,320.6,3.516,1,-0.063,0.006,-0.012,-0.032,-0.025,-0.003,-1.531,-0.024,-0.39399999999999996,0.23199999999999998,-0.019,3.318,2,-1.0,-1.0,0,71.3,90.0,1,primary,2,0,40.526771999999994,-3.42274,1.661,71.3,0.9620000000000001,0.038,0.001
92,110.39,72.8,40.52718,-3.423193,626.8,3,5,322.4,3.1639999999999997,1,-0.015,-0.006,0.003,-0.002,0.024,-0.003,-1.5419999999999998,-0.022000000000000002,-0.41600000000000004,0.152,-0.006,3.3539999999999996,2,-1.0,-1.0,0,72.8,90.0,1,primary,2,0,40.527039,-3.423047,1.354,71.8,0.9620000000000001,0.038,0.001
93,111.37,71.8,40.527328000000004,-3.4233339999999997,626.7,3,5,324.8,4.218999999999999,1,-0.042,-0.049,0.005,-0.022000000000000002,-0.006999999999999999,0.01,-1.538,-0.017,-0.439,0.111,-0.004,3.361,2,-1.0,-1.0,0,71.8,90.0,1,primary,2,0,40.527039,-3.423047,1.354,71.8,0.9620000000000001,0.038,0.001
94,112.37,72.0,40.527477000000005,-3.423461,626.3,3,5,326.6,4.218999999999999,1,0.004,0.011000000000000001,-0.015,-0.013999999999999999,-0.006999999999999999,-0.009000000000000001,-1.536,-0.023,-0.45799999999999996,0.162,0.012,3.3710000000000004,2,-1.0,-1.0,0,72.0,90.0,1,primary,2,0,40.527328000000004,-3.4233339999999997,1.351,72.1,0.9620000000000001,0.038,0.001
95,113.37,72.1,40.52763,-3.423582,625.6,3,5,328.7,3.867,1,-0.012,-0.055,-0.022000000000000002,-0.021,-0.040999999999999995,-0.021,-1.537,-0.037000000000000005,-0.46799999999999997,0.192,0.009000000000000001,3.346,2,-1.0,-1.0,0,72.1,90.0,1,primary,2,0,40.527328000000004,-3.4233339999999997,1.351,72.1,0.9620000000000001,0.038,0.001
96,114.42,71.7,40.527794,-3.4237,625.7,3,5,330.1,3.516,1,0.019,-0.08199999999999999,-0.002,0.002,-0.046,-0.011000000000000001,-1.5330000000000001,-0.016,-0.47100000000000003,0.182,-0.017,3.341,2,-1.0,-1.0,0,71.7,90.0,1,primary,2,0,40.52763,-3.423582,1.827,71.0,0.9620000000000001,0.038,0.001
97,115.37,71.0,40.527954,-3.423807,625.3,3,5,331.5,2.812,1,0.006,0.025,0.013999999999999999,0.018000000000000002,0.024,-0.01,-1.5330000000000001,-0.027999999999999997,-0.467,0.182,0.026000000000000002,3.292,2,-1.0,-1.0,0,71.0,90.0,1,primary,2,0,40.52763,-3.423582,1.827,71.0,0.9620000000000001,0.038,0.001
98,116.35,71.2,40.528103,-3.423925,625.0,3,5,331.9,1.758,1,-0.052000000000000005,-0.035,-0.042,-0.023,-0.057999999999999996,-0.006999999999999999,-1.53,-0.040999999999999995,-0.45799999999999996,0.111,0.009000000000000001,3.298,2,-1.0,-1.0,0,71.2,90.0,1,primary,2,0,40.527954,-3.423808,1.048,71.2,0.9620000000000001,0.038,0.001
99,117.37,71.9,40.528263,-3.424032,624.5,3,5,332.9,1.406,1,-0.044000000000000004,-0.057999999999999996,-0.027000000000000003,-0.023,-0.040999999999999995,-0.012,-1.5319999999999998,-0.033,-0.446,0.03,0.001,3.3,2,-1.0,-1.0,0,71.9,90.0,1,primary,2,0,40.528263,-3.424032,0.769,71.5,0.961,0.038,0.001
100,118.39,71.5,40.528419,-3.424139,623.8,3,5,333.6,1.758,1,-0.025,-0.031,-0.003,-0.009000000000000001,-0.013000000000000001,-0.001,-1.531,-0.02,-0.429,0.0,0.005,3.325,2,-1.0,-1.0,0,71.5,90.0,1,primary,2,0,40.528263,-3.424032,0.769,71.5,0.9620000000000001,0.038,0.001
101,119.37,71.3,40.528584,-3.424243,623.6,3,5,333.3,0.35200000000000004,1,0.005,0.004,-0.005,0.005,-0.038,-0.006,-1.528,-0.023,-0.406,-0.061,0.01,3.325,2,-1.0,-1.0,0,71.3,90.0,1,primary,2,0,40.528419,-3.424139,1.105,71.3,0.9620000000000001,0.038,0.001
102,120.37,71.4,40.528744,-3.424348,623.3,3,5,333.3,0.35200000000000004,1,0.018000000000000002,-0.023,0.028999999999999998,0.002,-0.053,0.005,-1.528,-0.012,-0.379,-0.141,0.008,3.3369999999999997,2,-1.0,-1.0,0,71.4,90.0,1,primary,2,0,40.528419,-3.424139,1.105,71.3,0.961,0.038,0.001
103,121.35,70.8,40.528904,-3.4244510000000004,622.9,3,5,333.3,0.0,1,-0.032,-0.01,-0.011000000000000001,-0.023,-0.001,-0.005,-1.521,-0.019,-0.355,-0.293,-0.013999999999999999,3.324,2,-1.0,-1.0,0,70.8,90.0,1,primary,2,0,40.528744,-3.424348,1.054,70.8,0.961,0.038,0.001
104,122.43,70.8,40.529049,-3.424554,622.7,3,5,332.9,0.35200000000000004,1,-0.026000000000000002,-0.018000000000000002,-0.008,-0.023,-0.012,0.001,-1.516,-0.035,-0.33799999999999997,-0.303,0.02,3.352,2,-1.0,-1.0,0,70.8,90.0,1,primary,2,0,40.529049,-3.4245550000000002,1.008,71.3,0.961,0.038,0.001
105,123.36,71.3,40.529205,-3.424658,622.3,3,5,332.6,0.703,1,0.009000000000000001,0.016,0.04,-0.011000000000000001,0.002,0.025,-1.518,-0.054000000000000006,-0.319,-0.23199999999999998,0.034,3.255,2,-1.0,-1.0,0,71.3,90.0,1,primary,2,0,40.529049,-3.4245550000000002,1.008,71.3,0.961,0.038,0.001
106,124.37,71.3,40.529362,-3.4247669999999997,621.9,3,5,332.2,0.703,1,-0.06,-0.033,0.06,-0.05,-0.019,0.019,-1.514,-0.043,-0.28800000000000003,-0.253,0.02,3.39,2,-1.0,-1.0,0,71.3,90.0,1,primary,2,0,40.529049,-3.4245550000000002,1.008,71.3,0.961,0.038,0.001
107,125.37,71.5,40.529526000000004,-3.424878,621.5,3,5,331.2,1.406,1,0.003,-0.015,0.013999999999999999,-0.018000000000000002,-0.011000000000000001,0.0,-1.516,-0.03,-0.258,-0.23199999999999998,0.011000000000000001,3.2739999999999996,2,-1.0,-1.0,0,71.5,90.0,1,primary,2,0,40.529362,-3.424768,1.568,71.5,0.961,0.038,0.001
108,126.37,71.5,40.529682,-3.4249910000000003,621.4,3,5,330.1,2.109,1,-0.038,-0.003,-0.001,-0.04,0.006,-0.001,-1.521,-0.016,-0.22699999999999998,-0.34299999999999997,-0.004,3.33,2,-1.0,-1.0,0,71.5,90.0,1,primary,2,0,40.529362,-3.424768,1.568,71.5,0.961,0.038,0.001
109,127.37,71.7,40.529839,-3.4251169999999997,621.2,3,5,329.1,2.109,1,0.040999999999999995,0.039,0.049,0.044000000000000004,0.027000000000000003,0.037000000000000005,-1.516,-0.013999999999999999,-0.19399999999999998,-0.34299999999999997,0.033,3.279,2,-1.0,-1.0,0,71.7,90.0,1,primary,2,0,40.529682,-3.4249910000000003,1.9040000000000001,72.0,0.961,0.038,0.001
110,128.38,72.0,40.529999,-3.425241,620.8,3,5,327.7,2.461,1,-0.042,0.07400000000000001,0.012,-0.011000000000000001,0.032,0.018000000000000002,-1.5190000000000001,-0.01,-0.171,-0.414,-0.002,3.4419999999999997,2,-1.0,-1.0,0,72.0,90.0,1,primary,2,0,40.529682,-3.4249910000000003,1.9040000000000001,72.0,0.961,0.038,0.001
111,129.37,72.1,40.530148,-3.425368,620.5,3,5,327.0,2.109,1,-0.068,0.081,-0.017,-0.027999999999999997,0.059000000000000004,0.006,-1.517,-0.008,-0.14800000000000002,-0.374,0.015,3.327,2,-1.0,-1.0,0,72.1,90.0,1,primary,2,0,40.529999,-3.425241,1.661,72.3,0.961,0.038,0.001
112,130.37,72.3,40.5303,-3.42551,620.2,3,5,326.6,1.055,1,0.009000000000000001,0.013000000000000001,0.027000000000000003,0.006,-0.002,0.013000000000000001,-1.526,-0.005,-0.113,-0.293,0.046,3.3,2,-1.0,-1.0,0,72.3,90.0,1,primary,2,0,40.529999,-3.425241,1.661,72.3,0.961,0.038,0.001
113,131.37,71.4,40.530453,-3.42564,619.7,3,5,324.8,2.109,1,0.079,0.003,0.05,0.027999999999999997,0.023,0.004,-1.536,-0.004,-0.07400000000000001,-0.182,0.048,3.298,2,-1.0,-1.0,0,71.4,90.0,1,primary,2,0,40.5303,-3.42551,1.0959999999999999,71.4,0.9620000000000001,0.037000000000000005,0.001
114,132.36,72.8,40.530602,-3.425768,619.2,3,5,323.1,3.516,1,0.044000000000000004,0.038,0.017,0.012,0.033,0.001,-1.531,-0.003,-0.040999999999999995,-0.242,0.024,3.261,2,-1.0,-1.0,0,72.8,90.0,1,primary,2,0,40.5303,-3.42551,1.0959999999999999,71.4,0.973,0.025,0.001
115,133.37,72.3,40.530746,-3.4259169999999997,618.8,3,5,321.3,3.516,1,0.027999999999999997,0.034,0.024,-0.021,0.055999999999999994,-0.001,-1.527,-0.012,-0.025,-0.28300000000000003,0.006999999999999999,3.298,2,-1.0,-1.0,0,72.3,90.0,1,primary,2,0,40.530602,-3.425768,1.704,72.1,0.983,0.016,0.001
116,134.41,72.1,40.530888,-3.426076,618.3,3,5,320.3,2.812,1,0.028999999999999998,0.018000000000000002,0.017,0.008,0.017,0.0,-1.531,-0.012,-0.004,-0.293,0.002,3.3310000000000004,2,-1.0,-1.0,0,72.1,90.0,1,primary,2,0,40.530602,-3.425768,1.704,72.1,0.991,0.008,0.001
117,135.39,72.1,40.531021,-3.426229,618.4,3,5,319.2,2.109,1,-0.009000000000000001,0.08800000000000001,-0.012,-0.002,0.057,0.003,-1.535,0.013999999999999999,0.02,-0.33299999999999996,0.01,3.352,2,-1.0,-1.0,0,72.1,90.0,1,primary,2,0,40.530888,-3.426076,0.8740000000000001,72.1,0.9990000000000001,0.0,0.001
118,136.38,70.9,40.531147,-3.426389,617.9,3,5,316.8,3.516,1,-0.012,0.027000000000000003,-0.004,-0.006999999999999999,0.03,0.013999999999999999,-1.5390000000000001,-0.018000000000000002,0.035,-0.414,-0.033,3.327,2,-1.0,-1.0,0,70.9,90.0,1,primary,2,0,40.531021,-3.426229,0.8390000000000001,70.9,0.9990000000000001,0.0,0.001
119,137.38,72.4,40.531277,-3.4265529999999997,617.8,3,5,315.7,3.516,1,0.001,0.003,0.019,-0.027000000000000003,0.018000000000000002,-0.009000000000000001,-1.534,-0.038,0.045,-0.465,0.013999999999999999,3.353,2,-1.0,-1.0,0,72.4,90.0,1,primary,2,0,40.531147,-3.426389,1.247,72.4,0.9990000000000001,0.0,0.001
120,138.36,72.3,40.531406,-3.4267199999999995,617.5,3,5,315.0,1.758,1,-0.034,0.024,-0.004,0.012,0.032,-0.013000000000000001,-1.545,-0.035,0.05,-0.455,0.031,3.321,2,-1.0,-1.0,0,72.3,90.0,1,primary,2,0,40.531147,-3.426389,1.247,72.4,0.9990000000000001,0.0,0.001
121,139.36,72.1,40.531528,-3.426884,617.2,3,5,314.3,1.406,1,-0.027999999999999997,0.065,0.002,-0.018000000000000002,0.04,0.002,-1.541,-0.053,0.051,-0.263,0.067,3.338,2,-1.0,-1.0,0,72.1,90.0,1,primary,2,0,40.531406,-3.4267199999999995,0.971,72.1,0.9990000000000001,0.0,0.001
122,140.42,71.7,40.531653999999996,-3.4270519999999998,617.2,3,5,313.6,1.406,1,-0.048,-0.049,-0.022000000000000002,-0.033,-0.04,0.006,-1.5519999999999998,-0.031,0.077,-0.182,0.053,3.3339999999999996,2,-1.0,-1.0,0,71.7,90.0,1,primary,2,0,40.531528,-3.426884,0.8170000000000001,71.7,0.9990000000000001,0.0,0.001
123,141.38,71.3,40.531773,-3.427221,616.9,3,5,311.8,2.461,1,-0.025,-0.037000000000000005,-0.01,-0.027000000000000003,0.015,-0.013999999999999999,-1.557,-0.036000000000000004,0.091,-0.172,0.04,3.367,2,-1.0,-1.0,0,71.3,90.0,1,primary,2,0,40.531653999999996,-3.4270519999999998,0.81,71.3,0.9990000000000001,0.0,0.001
124,142.41,71.4,40.531887,-3.427389,617.0,3,5,310.1,3.516,1,-0.047,0.009000000000000001,-0.017,-0.027000000000000003,-0.005,-0.005,-1.5590000000000002,-0.046,0.105,-0.222,0.017,3.39,2,-1.0,-1.0,0,71.4,90.0,1,primary,2,0,40.531773,-3.427221,0.735,71.4,0.9990000000000001,0.0,0.001
125,143.36,70.7,40.532001,-3.427571,617.3,3,5,308.3,3.516,1,-0.009000000000000001,0.039,-0.027999999999999997,-0.049,0.021,-0.025,-1.5659999999999998,-0.055999999999999994,0.105,-0.28300000000000003,0.019,3.286,2,-1.0,-1.0,0,70.7,90.0,1,primary,2,0,40.531887,-3.42739,0.7659999999999999,70.7,0.9990000000000001,0.0,0.001
126,144.36,70.2,40.532108,-3.427757,617.8,3,5,307.6,2.461,1,0.028999999999999998,0.023,-0.032,0.002,0.024,-0.027999999999999997,-1.567,-0.049,0.105,-0.273,0.001,3.295,2,-1.0,-1.0,0,70.2,90.0,1,primary,2,0,40.532001,-3.427571,0.884,70.2,0.9990000000000001,0.0,0.001
127,145.38,69.2,40.532227,-3.427957,618.6,3,5,306.9,1.406,1,-0.037000000000000005,-0.013999999999999999,-0.017,-0.038,-0.026000000000000002,-0.01,-1.565,-0.044000000000000004,0.11199999999999999,-0.242,0.001,3.282,2,-1.0,-1.0,0,69.2,90.0,1,primary,2,0,40.532108,-3.4277580000000003,0.711,69.2,0.9990000000000001,0.0,0.001
128,146.36,68.3,40.532326,-3.428142,619.2,3,5,305.5,2.109,1,-0.044000000000000004,0.066,-0.023,-0.013000000000000001,0.026000000000000002,-0.022000000000000002,-1.5619999999999998,-0.039,0.12,-0.23199999999999998,0.016,3.3369999999999997,2,-1.0,-1.0,0,68.3,90.0,1,primary,2,0,40.532227,-3.427957,0.935,68.3,0.9990000000000001,0.0,0.001
129,147.36,67.5,40.532436,-3.428321,619.8,3,5,304.5,2.461,1,-0.046,-0.008,-0.001,-0.043,0.004,0.008,-1.5619999999999998,-0.039,0.12300000000000001,-0.20199999999999999,0.03,3.3280000000000003,2,-1.0,-1.0,0,67.5,90.0,1,primary,2,0,40.532326,-3.428142,1.173,67.5,0.9990000000000001,0.0,0.001
130,148.35,66.6,40.532524,-3.4285099999999997,620.7,3,5,303.0,2.461,1,-0.009000000000000001,0.025,0.006999999999999999,-0.021,0.066,0.004,-1.565,-0.042,0.126,-0.20199999999999999,0.016,3.282,2,-1.0,-1.0,0,66.6,90.0,1,primary,2,0,40.532524,-3.4285099999999997,0.701,65.4,0.9990000000000001,0.0,0.001
131,149.35,65.4,40.532612,-3.428693,621.7,3,5,302.3,2.109,1,0.011000000000000001,-0.049,0.01,-0.006,-0.042,0.006,-1.565,-0.052000000000000005,0.13,-0.20199999999999999,0.04,3.248,2,-1.0,-1.0,0,65.4,90.0,1,primary,2,0,40.532524,-3.4285099999999997,0.701,65.4,0.9990000000000001,0.0,0.001
132,150.35,64.9,40.5327,-3.4288790000000002,622.5,3,5,300.6,2.461,1,-0.0,-0.062,0.046,-0.009000000000000001,-0.062,0.019,-1.561,-0.05,0.134,-0.273,0.019,3.262,2,-1.0,-1.0,0,64.9,90.0,1,primary,2,0,40.532612,-3.428694,0.823,64.9,0.9990000000000001,0.0,0.001
133,151.37,63.7,40.532784,-3.429049,623.3,3,5,299.5,2.812,1,-0.024,-0.025,-0.001,-0.02,-0.028999999999999998,0.003,-1.557,-0.051,0.14,-0.32299999999999995,0.048,3.2569999999999997,2,-1.0,-1.0,0,63.7,90.0,1,primary,2,0,40.5327,-3.4288790000000002,0.669,63.7,0.9990000000000001,0.0,0.001
134,152.4,64.3,40.53286,-3.429232,624.2,3,5,298.5,2.109,1,0.018000000000000002,0.07,0.025,-0.002,0.057999999999999996,0.013000000000000001,-1.557,-0.05,0.14300000000000002,-0.384,0.021,3.267,2,-1.0,-1.0,0,64.3,90.0,1,primary,2,0,40.532784,-3.429049,0.9790000000000001,64.3,0.9990000000000001,0.0,0.001
135,153.35,62.3,40.532928000000005,-3.429413,625.0,3,5,297.1,2.461,1,-0.066,0.036000000000000004,-0.015,-0.011000000000000001,0.027000000000000003,-0.003,-1.569,-0.07200000000000001,0.135,-0.434,-0.02,3.233,2,-1.0,-1.0,0,62.3,90.0,1,primary,2,0,40.53286,-3.429232,1.125,62.3,0.9990000000000001,0.0,0.001
136,154.36,61.8,40.533001,-3.429593,625.7,3,5,296.4,2.109,1,-0.013999999999999999,-0.054000000000000006,-0.005,-0.015,-0.059000000000000004,0.005,-1.5659999999999998,-0.063,0.13699999999999998,-0.424,-0.006999999999999999,3.2230000000000003,2,-1.0,-1.0,0,61.8,90.0,1,primary,2,0,40.53286,-3.429232,1.125,62.3,0.9990000000000001,0.0,0.001
137,155.37,60.6,40.533058000000004,-3.4297730000000004,626.4,3,5,295.3,1.758,1,0.021,-0.036000000000000004,0.027999999999999997,-0.018000000000000002,-0.053,0.006,-1.564,-0.065,0.14,-0.475,-0.004,3.234,2,-1.0,-1.0,0,60.6,90.0,1,primary,2,0,40.533001,-3.429593,1.1520000000000001,60.6,0.9990000000000001,0.0,0.001
138,156.35,60.0,40.533122999999996,-3.42995,627.2,3,5,293.9,2.461,1,0.013999999999999999,0.001,0.026000000000000002,0.004,-0.008,0.018000000000000002,-1.5659999999999998,-0.04,0.134,-0.505,0.023,3.2260000000000004,2,-1.0,-1.0,0,60.0,90.0,1,primary,2,0,40.533001,-3.429593,1.1520000000000001,60.6,0.9990000000000001,0.0,0.001
139,157.36,58.8,40.53318,-3.430132,628.3,3,5,293.2,2.109,1,-0.006,0.036000000000000004,0.015,-0.0,0.035,0.004,-1.5730000000000002,-0.054000000000000006,0.127,-0.444,0.048,3.2289999999999996,2,-1.0,-1.0,0,58.8,90.0,1,primary,2,0,40.533122999999996,-3.42995,1.095,58.8,0.9990000000000001,0.0,0.001
140,158.36,58.6,40.533241,-3.43031,629.1,3,5,292.5,1.406,1,-0.028999999999999998,-0.019,0.001,-0.01,-0.027000000000000003,-0.001,-1.574,-0.048,0.128,-0.32299999999999995,0.046,3.27,2,-1.0,-1.0,0,58.6,90.0,1,primary,2,0,40.533122999999996,-3.42995,1.095,58.8,0.9990000000000001,0.0,0.001
141,159.39,57.7,40.533295,-3.430489,629.8,3,5,291.1,2.109,1,-0.001,-0.023,-0.003,-0.024,-0.023,-0.004,-1.5719999999999998,-0.052000000000000005,0.135,-0.374,-0.001,3.238,2,-1.0,-1.0,0,57.7,90.0,1,primary,2,0,40.533241,-3.43031,1.248,57.7,0.9990000000000001,0.0,0.001
142,160.36,57.3,40.533344,-3.4306690000000004,630.3,3,5,290.0,2.461,1,-0.013999999999999999,-0.027000000000000003,0.004,-0.025,0.002,0.006,-1.58,-0.071,0.126,-0.313,0.037000000000000005,3.217,2,-1.0,-1.0,0,57.3,90.0,1,primary,2,0,40.533241,-3.43031,1.248,57.7,0.9990000000000001,0.0,0.001
143,161.36,56.6,40.533386,-3.430848,631.6,3,5,289.3,1.758,1,-0.008,-0.027999999999999997,0.022000000000000002,-0.015,-0.015,0.005,-1.58,-0.069,0.134,-0.28300000000000003,0.021,3.255,2,-1.0,-1.0,0,56.6,90.0,1,primary,2,0,40.533344,-3.4306690000000004,1.097,56.6,0.9990000000000001,0.0,0.001
144,162.38,56.1,40.533432,-3.431023,632.5,3,5,287.9,2.109,1,-0.009000000000000001,0.008,0.023,-0.017,0.034,0.015,-1.581,-0.07,0.133,-0.313,0.024,3.261,2,-1.0,-1.0,1,56.1,90.0,1,primary,2,0,40.533432,-3.431024,0.83,55.7,0.9990000000000001,0.0,0.001
145,163.36,55.7,40.53347,-3.431202,633.3,3,5,286.9,2.461,1,-0.04,0.017,-0.004,-0.027999999999999997,-0.006,-0.011000000000000001,-1.588,-0.08,0.122,-0.253,0.065,3.2260000000000004,2,-1.0,-1.0,1,55.7,90.0,1,primary,2,0,40.533432,-3.431024,0.83,55.7,0.9990000000000001,0.0,0.001
146,164.36,55.6,40.533516,-3.431376,633.8,3,5,286.5,1.406,1,-0.001,-0.027000000000000003,0.001,0.033,-0.026000000000000002,0.015,-1.585,-0.076,0.124,-0.222,0.052000000000000005,3.2319999999999998,2,-1.0,-1.0,0,55.6,90.0,1,primary,2,0,40.53347,-3.431202,0.863,55.6,0.9990000000000001,0.0,0.001
147,165.36,55.6,40.533553999999995,-3.431553,635.1,3,5,285.1,1.758,1,0.062,-0.004,0.057999999999999996,0.013999999999999999,0.004,0.023,-1.584,-0.07,0.126,-0.222,0.032,3.221,2,-1.0,-1.0,0,55.6,90.0,1,primary,2,0,40.533516,-3.431376,1.081,55.6,0.9990000000000001,0.0,0.001
148,166.36,55.4,40.533596,-3.431719,635.6,3,5,284.1,2.461,1,-0.031,-0.065,-0.023,-0.032,-0.011000000000000001,-0.003,-1.579,-0.055999999999999994,0.128,-0.222,0.048,3.205,2,-1.0,-1.0,0,55.4,90.0,1,primary,2,0,40.533516,-3.431376,1.081,55.6,0.9990000000000001,0.0,0.001
149,167.36,55.2,40.533623,-3.4318940000000002,636.8,3,5,283.0,2.109,1,-0.057999999999999996,0.026000000000000002,-0.006,-0.025,0.027000000000000003,0.006,-1.585,-0.051,0.132,-0.242,0.068,3.2319999999999998,2,-1.0,-1.0,0,55.2,90.0,1,primary,2,0,40.533596,-3.431719,1.65,54.2,0.9990000000000001,0.0,0.001
150,168.36,54.2,40.533657,-3.432068,637.7,3,5,283.0,1.055,1,-0.021,0.025,-0.004,-0.01,0.017,0.008,-1.584,-0.051,0.135,-0.424,-0.025,3.247,2,-1.0,-1.0,0,54.2,90.0,1,primary,2,0,40.533596,-3.431719,1.65,54.2,0.9990000000000001,0.0,0.001
151,169.4,54.3,40.533695,-3.4322410000000003,638.2,3,5,282.3,0.703,1,-0.006,-0.043,0.002,-0.019,0.019,-0.015,-1.588,-0.047,0.13,-0.414,0.032,3.333,2,-1.0,-1.0,0,54.3,90.0,1,primary,2,0,40.533657,-3.432068,1.382,52.7,0.9990000000000001,0.0,0.001
152,170.4,52.7,40.533733000000005,-3.432415,639.2,3,5,282.3,0.703,1,-0.02,0.034,-0.004,-0.0,0.011000000000000001,-0.006,-1.589,-0.059000000000000004,0.12300000000000001,-0.424,0.076,3.375,2,-1.0,-1.0,0,52.7,90.0,1,primary,2,0,40.533657,-3.432068,1.382,52.7,0.9990000000000001,0.0,0.001
153,171.37,53.2,40.533756,-3.432584,639.6,3,5,280.5,1.758,1,-0.018000000000000002,0.047,0.044000000000000004,-0.015,0.037000000000000005,0.019,-1.5859999999999999,-0.04,0.11599999999999999,-0.414,0.047,3.366,2,-1.0,-1.0,0,53.2,90.0,1,primary,2,0,40.533733000000005,-3.4324160000000004,1.4509999999999998,53.6,0.9990000000000001,0.0,0.001
154,172.38,53.6,40.533778999999996,-3.432754,640.3,3,5,279.8,2.461,1,-0.026000000000000002,0.023,-0.013000000000000001,-0.025,0.013000000000000001,-0.005,-1.59,-0.057,0.113,-0.384,0.008,3.33,2,-1.0,-1.0,0,53.6,90.0,1,primary,2,0,40.533733000000005,-3.4324160000000004,1.4509999999999998,53.6,0.9990000000000001,0.0,0.001
155,173.37,54.1,40.533794,-3.432923,641.4,3,5,277.7,2.812,1,0.025,0.048,0.013999999999999999,-0.001,0.027000000000000003,0.015,-1.5919999999999999,-0.047,0.113,-0.273,-0.001,3.3139999999999996,2,-1.0,-1.0,0,54.1,90.0,1,primary,2,0,40.533733000000005,-3.4324160000000004,1.4509999999999998,53.6,0.9990000000000001,0.0,0.001
156,174.36,54.5,40.533809999999995,-3.4331160000000005,642.9,3,5,276.7,3.1639999999999997,1,0.002,0.047,0.004,0.008,0.059000000000000004,0.005,-1.5919999999999999,-0.040999999999999995,0.11599999999999999,-0.20199999999999999,0.046,3.365,2,-1.0,-1.0,0,54.5,90.0,1,primary,2,0,40.533778999999996,-3.432754,2.714,54.0,0.9990000000000001,0.0,0.001
157,175.41,54.0,40.533813,-3.4332949999999998,643.4,3,5,275.6,2.109,1,-0.002,0.027000000000000003,0.001,-0.024,0.005,0.003,-1.5930000000000002,-0.035,0.11900000000000001,-0.222,0.046,3.339,2,-1.0,-1.0,0,54.0,90.0,1,primary,2,0,40.533778999999996,-3.432754,2.714,54.0,0.9990000000000001,0.0,0.001
158,176.36,54.3,40.533821,-3.433477,643.2,3,5,274.6,2.109,1,0.017,0.048,0.004,0.033,0.044000000000000004,0.021,-1.5859999999999999,-0.037000000000000005,0.122,-0.34299999999999997,0.004,3.4360000000000004,2,-1.0,-1.0,1,54.3,90.0,1,primary,2,0,40.533778999999996,-3.432754,2.714,54.0,0.9990000000000001,0.0,0.001
159,177.37,54.0,40.533825,-3.433653,643.8,3,5,273.5,2.109,1,-0.016,0.057,0.003,-0.002,0.043,0.001,-1.597,-0.033,0.12,-0.33299999999999996,-0.102,3.3160000000000003,2,-1.0,-1.0,1,54.0,90.0,1,primary,2,0,40.533813,-3.433296,2.883,54.2,0.9990000000000001,0.0,0.001
160,178.37,54.2,40.533829,-3.4338309999999996,644.6,3,5,272.8,1.758,1,0.018000000000000002,0.028999999999999998,0.01,0.003,0.046,-0.002,-1.6,-0.033,0.11199999999999999,-0.495,0.003,3.344,2,14.62,0.97,1,54.2,90.0,1,primary,2,0,40.533813,-3.433296,2.883,54.2,0.9990000000000001,0.0,0.001
161,179.37,53.6,40.533833,-3.4340050000000004,645.4,3,5,272.5,1.055,1,-0.054000000000000006,0.04,-0.006,0.006,0.015,-0.009000000000000001,-1.601,-0.049,0.094,-0.475,0.045,3.2969999999999997,2,19.01,1.28,1,53.6,90.0,1,primary,2,0,40.533829,-3.4338309999999996,2.134,52.5,0.9990000000000001,0.0,0.001
162,180.37,52.5,40.533840000000005,-3.4341769999999996,646.4,3,5,272.8,0.35200000000000004,1,0.166,0.006999999999999999,0.002,0.09300000000000001,0.017,0.003,-1.599,-0.034,0.08800000000000001,-0.475,-0.005,3.299,2,23.75,1.63,1,52.5,90.0,1,primary,2,0,40.533829,-3.4338309999999996,2.134,52.5,1.0,0.0,0.0
163,181.36,53.4,40.533844,-3.4343519999999996,647.0,3,5,271.8,1.055,1,0.028999999999999998,-0.062,0.023,-0.016,-0.017,0.01,-1.59,-0.038,0.083,-0.384,-0.025,3.3,2,29.8,2.01,1,53.4,90.0,1,primary,2,0,40.533829,-3.4338309999999996,2.134,52.5,1.0,0.0,0.0
164,182.38,54.0,40.533848,-3.434533,647.9,3,5,271.8,1.055,1,-0.013000000000000001,-0.04,0.001,-0.005,0.018000000000000002,-0.003,-1.598,-0.034,0.07400000000000001,-0.293,0.051,3.303,2,37.84,2.52,1,54.0,90.0,1,primary,2,0,40.533844,-3.4343529999999998,0.98,54.0,1.0,0.0,0.0
165,183.38,53.7,40.533844,-3.434711,648.7,3,5,270.7,1.055,1,-0.018000000000000002,0.025,-0.013999999999999999,-0.008,0.033,-0.006999999999999999,-1.599,-0.036000000000000004,0.064,-0.28300000000000003,0.035,3.2239999999999998,2,51.08,3.42,1,53.7,90.0,1,primary,2,0,40.533848,-3.434533,1.53,54.2,1.0,0.0,0.0
166,184.37,54.2,40.533848,-3.4348980000000005,649.2,3,5,270.4,1.406,1,0.01,0.038,0.01,0.002,0.005,-0.009000000000000001,-1.591,-0.049,0.055999999999999994,-0.20199999999999999,0.084,3.27,2,73.34,4.87,1,54.2,90.0,1,primary,2,0,40.533848,-3.434533,1.53,54.2,1.0,0.0,0.0
167,185.37,53.7,40.533848,-3.43508,650.0,3,5,270.0,0.703,1,0.005,0.011000000000000001,-0.012,-0.013000000000000001,-0.002,-0.011000000000000001,-1.594,-0.026000000000000002,0.048,-0.162,0.045,3.218,2,91.54,6.13,1,53.7,90.0,1,primary,2,0,40.533848,-3.434533,1.53,54.2,1.0,0.0,0.0
168,186.37,53.8,40.533852,-3.435254,650.8,3,5,270.0,0.35200000000000004,1,-0.057999999999999996,0.019,-0.012,-0.022000000000000002,0.004,-0.006999999999999999,-1.597,-0.006,0.039,-0.152,0.026000000000000002,3.2119999999999997,2,103.38,6.92,1,53.8,90.0,1,primary,2,0,40.533848,-3.434533,1.53,54.2,1.0,0.0,0.0
169,187.42,54.3,40.533848,-3.43543,651.5,3,5,270.4,0.35200000000000004,1,-0.018000000000000002,-0.006999999999999999,-0.027000000000000003,-0.034,-0.025,-0.011000000000000001,-1.594,-0.017,0.023,-0.121,0.055999999999999994,3.25,2,128.27,8.51,1,54.3,90.0,1,primary,2,0,40.533848,-3.434533,1.53,54.2,1.0,0.0,0.0
170,188.37,54.1,40.533844,-3.4356089999999995,652.1,3,5,270.0,0.35200000000000004,1,0.026000000000000002,-0.025,0.008,-0.005,-0.006999999999999999,-0.003,-1.6019999999999999,-0.025,0.01,-0.02,0.052000000000000005,3.219,2,151.44,10.08,1,54.1,90.0,1,primary,2,0,40.533848,-3.434533,1.53,54.2,1.0,0.0,0.0
171,189.38,54.1,40.533844,-3.4357860000000002,653.0,3,5,270.4,0.35200000000000004,1,-0.009000000000000001,-0.023,0.001,-0.016,-0.023,-0.012,-1.605,-0.013999999999999999,0.002,0.051,0.028999999999999998,3.221,2,-1.0,-1.0,0,54.1,90.0,1,primary,2,0,40.533848,-3.4348980000000005,10.006,54.2,1.0,0.0,0.0
172,190.37,53.6,40.533844,-3.435964,653.9,3,5,270.0,0.35200000000000004,1,-0.013999999999999999,-0.016,0.0,-0.038,-0.013999999999999999,-0.009000000000000001,-1.605,0.021,0.006,0.0,0.064,3.134,2,-1.0,-1.0,0,53.6,90.0,1,primary,2,0,40.533848,-3.4348980000000005,10.006,54.2,1.0,0.0,0.0
173,191.39,53.1,40.533844,-3.436145,654.8,3,5,269.6,0.703,1,-0.017,-0.015,-0.025,-0.008,0.028999999999999998,-0.005,-1.6059999999999999,0.006999999999999999,-0.003,-0.081,0.018000000000000002,3.015,2,-1.0,-1.0,0,53.1,90.0,1,primary,2,0,40.533848,-3.4348980000000005,10.006,54.2,1.0,0.0,0.0
174,192.37,53.7,40.533840000000005,-3.436319,655.3,3,5,269.3,0.703,1,-0.032,-0.013000000000000001,-0.006,-0.033,0.002,-0.011000000000000001,-1.605,0.004,-0.013000000000000001,-0.061,0.02,3.0189999999999997,2,-1.0,-1.0,0,53.7,90.0,1,primary,2,0,40.533848,-3.4348980000000005,10.006,54.2,1.0,0.0,0.0
175,193.38,53.6,40.533836,-3.436496,656.0,3,5,269.6,0.35200000000000004,1,-0.018000000000000002,0.013000000000000001,-0.001,-0.022000000000000002,0.001,-0.004,-1.604,0.023,-0.02,-0.091,0.034,3.023,2,-1.0,-1.0,0,53.6,90.0,1,primary,2,0,40.533848,-3.4348980000000005,10.006,54.2,1.0,0.0,0.0
176,194.38,54.2,40.533833,-3.436675,657.1,3,5,269.3,0.35200000000000004,1,0.02,0.006,0.012,0.015,0.022000000000000002,0.006999999999999999,-1.607,0.027000000000000003,-0.023,-0.091,0.019,3.013,2,-1.0,-1.0,0,54.2,90.0,1,primary,2,0,40.533848,-3.4348980000000005,10.006,54.2,1.0,0.0,0.0
177,195.42,53.9,40.533829,-3.43685,657.8,3,5,270.0,0.703,1,0.025,0.025,-0.01,0.027999999999999997,0.035,-0.006,-1.6030000000000002,0.01,-0.022000000000000002,-0.162,0.009000000000000001,2.991,2,-1.0,-1.0,0,53.9,90.0,1,primary,2,0,40.533848,-3.4348980000000005,10.006,54.2,1.0,0.0,0.0
178,196.36,53.5,40.533825,-3.4370269999999996,658.8,3,5,269.6,0.35200000000000004,1,0.021,-0.001,0.019,-0.02,-0.0,-0.008,-1.599,0.019,-0.03,-0.20199999999999999,0.042,3.0439999999999996,2,-1.0,-1.0,0,53.5,90.0,1,primary,2,0,40.533829,-3.43685,2.563,54.6,1.0,0.0,0.0
179,197.39,54.6,40.533817,-3.437215,659.4,3,5,269.3,0.703,1,0.009000000000000001,0.038,-0.003,0.033,0.036000000000000004,0.004,-1.6,0.019,-0.039,-0.242,0.034,3.0180000000000002,2,-1.0,-1.0,0,54.6,90.0,1,primary,2,0,40.533829,-3.43685,2.563,54.6,1.0,0.0,0.0
180,198.39,54.6,40.533813,-3.4373910000000003,660.3,3,5,270.4,1.055,1,0.031,-0.006,0.025,0.015,-0.02,0.013000000000000001,-1.599,0.003,-0.045,-0.212,0.054000000000000006,3.009,2,-1.0,-1.0,0,54.6,90.0,1,primary,2,0,40.533829,-3.43685,2.563,54.6,1.0,0.0,0.0
181,199.36,54.6,40.533809999999995,-3.437567,661.0,3,5,271.1,1.758,1,-0.01,0.002,0.013999999999999999,-0.025,-0.001,0.004,-1.6,0.011000000000000001,-0.049,-0.131,0.027999999999999997,3.02,2,-1.0,-1.0,0,54.6,90.0,1,primary,2,0,40.533813,-3.437392,1.49,53.6,1.0,0.0,0.0
182,200.35,53.6,40.533806,-3.437739,662.0,3,5,270.7,0.35200000000000004,1,0.038,0.016,0.01,0.0,-0.005,-0.001,-1.6019999999999999,-0.006,-0.05,-0.10099999999999999,0.038,3.0069999999999997,2,-1.0,-1.0,0,53.6,90.0,1,primary,2,0,40.533813,-3.437392,1.49,53.6,1.0,0.0,0.0
183,201.35,54.1,40.533806,-3.437914,662.5,3,5,270.4,0.703,1,-0.042,0.048,0.004,0.004,0.025,0.006999999999999999,-1.601,0.01,-0.047,-0.111,0.063,3.02,2,-1.0,-1.0,0,54.1,90.0,1,primary,2,0,40.533813,-3.437392,1.49,53.6,1.0,0.0,0.0
184,202.39,53.9,40.533802,-3.4381,662.8,3,5,270.0,0.703,1,-0.01,0.001,-0.009000000000000001,-0.005,0.022000000000000002,-0.016,-1.604,0.015,-0.046,-0.162,0.006,2.998,2,-1.0,-1.0,0,53.9,90.0,1,primary,2,0,40.533813,-3.437392,1.49,53.6,1.0,0.0,0.0
185,203.41,54.1,40.533802,-3.438273,664.1,3,5,269.3,1.055,1,0.01,0.022000000000000002,0.022000000000000002,0.02,-0.006,0.019,-1.599,0.011000000000000001,-0.05,-0.253,0.022000000000000002,2.9819999999999998,2,-1.0,-1.0,0,54.1,90.0,1,primary,2,0,40.533813,-3.437392,1.49,53.6,1.0,0.0,0.0
186,204.39,54.9,40.533802,-3.438457,664.9,3,5,269.3,0.703,1,0.031,-0.034,0.006,-0.008,-0.002,-0.002,-1.598,0.006,-0.055999999999999994,-0.263,0.027000000000000003,2.97,2,-1.0,-1.0,0,54.9,90.0,1,primary,2,0,40.533806,-3.437739,7.1739999999999995,56.3,1.0,0.0,0.0
187,205.35,54.9,40.533802,-3.438639,665.7,3,5,269.6,0.35200000000000004,1,-0.024,0.016,0.006,-0.01,0.009000000000000001,0.005,-1.594,-0.0,-0.061,-0.222,0.04,2.9730000000000003,2,-1.0,-1.0,0,54.9,90.0,1,primary,2,0,40.533806,-3.437739,7.1739999999999995,56.3,1.0,0.0,0.0
188,206.4,56.1,40.533791,-3.438831,666.6,3,5,269.3,0.35200000000000004,1,0.032,0.017,0.021,0.005,0.011000000000000001,0.013999999999999999,-1.597,0.02,-0.062,-0.152,0.044000000000000004,2.967,2,-1.0,-1.0,0,56.1,90.0,1,primary,2,0,40.533806,-3.437739,7.1739999999999995,56.3,1.0,0.0,0.0
189,207.38,56.3,40.533794,-3.439019,667.0,3,5,270.4,1.055,1,-0.021,-0.006999999999999999,0.006,-0.016,-0.001,0.005,-1.6,0.021,-0.059000000000000004,-0.02,0.022000000000000002,3.1310000000000002,2,-1.0,-1.0,0,56.3,90.0,1,primary,2,0,40.533806,-3.437739,7.1739999999999995,56.3,1.0,0.0,0.0
190,208.36,57.4,40.533794,-3.4392050000000003,667.7,3,5,270.4,1.055,1,-0.055,0.006,-0.021,-0.034,0.02,-0.004,-1.598,0.003,-0.054000000000000006,-0.03,0.013999999999999999,3.1910000000000003,2,-1.0,-1.0,0,57.4,90.0,1,primary,2,0,40.533806,-3.437739,7.1739999999999995,56.3,1.0,0.0,0.0
191,209.39,57.2,40.533791,-3.4393849999999997,668.1,3,5,269.3,1.055,1,0.035,0.028999999999999998,0.01,0.028999999999999998,0.043,-0.001,-1.597,0.005,-0.05,-0.141,0.004,3.1830000000000003,2,-1.0,-1.0,0,57.2,90.0,1,primary,2,0,40.533806,-3.437739,7.1739999999999995,56.3,1.0,0.0,0.0
192,210.37,58.2,40.533787,-3.439577,668.8,3,5,269.3,1.055,1,-0.023,-0.035,-0.013000000000000001,-0.021,0.005,-0.016,-1.5930000000000002,0.019,-0.052000000000000005,-0.253,0.005,3.2060000000000004,2,-1.0,-1.0,0,58.2,90.0,1,primary,2,0,40.533806,-3.437739,7.1739999999999995,56.3,1.0,0.0,0.0
193,211.37,58.5,40.533791,-3.439754,669.4,3,5,268.9,0.35200000000000004,1,0.024,0.013999999999999999,-0.001,-0.001,0.002,-0.002,-1.587,-0.002,-0.057,-0.34299999999999997,0.018000000000000002,3.1910000000000003,2,-1.0,-1.0,0,58.5,90.0,1,primary,2,0,40.533794,-3.439206,6.48,61.4,1.0,0.0,0.0
194,212.35,59.6,40.533787,-3.4399480000000002,669.7,3,5,269.3,0.35200000000000004,1,-0.016,-0.11699999999999999,-0.0,-0.026000000000000002,-0.053,-0.0,-1.589,-0.002,-0.062,-0.364,0.057999999999999996,3.1889999999999996,2,-1.0,-1.0,0,59.6,90.0,1,primary,2,0,40.533794,-3.439206,6.48,61.4,1.0,0.0,0.0
195,213.36,60.2,40.533783,-3.440153,670.1,3,5,269.6,0.703,1,-0.016,-0.017,-0.005,-0.026000000000000002,-0.023,-0.003,-1.588,-0.006999999999999999,-0.065,-0.354,0.059000000000000004,3.188,2,-1.0,-1.0,0,60.2,90.0,1,primary,2,0,40.533794,-3.439206,6.48,61.4,1.0,0.0,0.0
196,214.37,60.9,40.533794,-3.4403410000000005,670.5,3,5,270.0,0.703,1,-0.004,0.033,-0.021,0.01,0.024,-0.005,-1.5859999999999999,-0.006999999999999999,-0.064,-0.33299999999999996,0.044000000000000004,3.18,2,-1.0,-1.0,0,60.9,90.0,1,primary,2,0,40.533794,-3.439206,6.48,61.4,0.9990000000000001,0.0,0.001
197,215.42,61.4,40.533798,-3.4405410000000005,671.2,3,5,270.0,0.35200000000000004,1,-0.055,-0.022000000000000002,-0.02,-0.016,-0.053,-0.003,-1.5819999999999999,-0.009000000000000001,-0.065,-0.313,0.038,3.165,2,-1.0,-1.0,0,61.4,90.0,1,primary,2,0,40.533794,-3.439206,6.48,61.4,0.9990000000000001,0.0,0.001
198,216.35,62.0,40.533794,-3.4407389999999998,671.5,3,5,270.0,0.0,1,-0.049,-0.035,-0.049,-0.055,-0.055,-0.031,-1.5819999999999999,-0.01,-0.069,-0.33299999999999996,0.016,3.2039999999999997,2,-1.0,-1.0,0,62.0,90.0,1,primary,2,0,40.533798,-3.4405410000000005,1.181,62.0,0.9990000000000001,0.0,0.001
